<?xml version="1.0" encoding="UTF-8"?>
<kml xmlns="http://www.opengis.net/kml/2.2">
<Document>
<name><![CDATA[バス停 : 栃木]]></name>
<Folder>
<name>Placemarks</name>
<Placemark>
<name>高塩</name>
<description></description>
<Point>
<coordinates>139.907958984375,36.77705383300781,0</coordinates>
</Point>
</Placemark>
<Placemark>
<name>玉生</name>
<description></description>
<Point>
<coordinates>139.84988403320312,36.772640228271484,0</coordinates>
</Point>
</Placemark>
<Placemark>
<name>西船生</name>
<description></description>
<Point>
<coordinates>139.75933837890625,36.7679328918457,0</coordinates>
</Point>
</Placemark>
<Placemark>
<name>栗原入口</name>
<description></description>
<Point>
<coordinates>139.71145629882812,36.77346420288086,0</coordinates>
</Point>
</Placemark>
<Placemark>
<name>高徳郵便局</name>
<description></description>
<Point>
<coordinates>139.71022033691406,36.7812385559082,0</coordinates>
</Point>
</Placemark>
<Placemark>
<name>中岩発電所前</name>
<description></description>
<Point>
<coordinates>139.7060089111328,36.78664016723633,0</coordinates>
</Point>
</Placemark>
<Placemark>
<name>鬼怒大瀞</name>
<description></description>
<Point>
<coordinates>139.70526123046875,36.791873931884766,0</coordinates>
</Point>
</Placemark>
<Placemark>
<name>ウエスタン村入口</name>
<description></description>
<Point>
<coordinates>139.71055603027344,36.77432632446289,0</coordinates>
</Point>
</Placemark>
<Placemark>
<name>ゴルフ場入口</name>
<description></description>
<Point>
<coordinates>139.71160888671875,36.77573013305664,0</coordinates>
</Point>
</Placemark>
<Placemark>
<name>お猿の学校前</name>
<description></description>
<Point>
<coordinates>139.70318603515625,36.7833137512207,0</coordinates>
</Point>
</Placemark>
<Placemark>
<name>柄倉</name>
<description></description>
<Point>
<coordinates>139.7051239013672,36.7802619934082,0</coordinates>
</Point>
</Placemark>
<Placemark>
<name>鬼怒川レジャー公園前</name>
<description></description>
<Point>
<coordinates>139.70529174804688,36.797607421875,0</coordinates>
</Point>
</Placemark>
<Placemark>
<name>獨協医大日光医療センター前</name>
<description></description>
<Point>
<coordinates>139.70726013183594,36.78396987915039,0</coordinates>
</Point>
</Placemark>
<Placemark>
<name>トリックアート前</name>
<description></description>
<Point>
<coordinates>139.7012481689453,36.788856506347656,0</coordinates>
</Point>
</Placemark>
<Placemark>
<name>梁田公民館</name>
<description></description>
<Point>
<coordinates>139.4803466796875,36.30617904663086,0</coordinates>
</Point>
</Placemark>
<Placemark>
<name>宇都宮駅西口</name>
<description></description>
<Point>
<coordinates>139.8972625732422,36.55912399291992,0</coordinates>
</Point>
</Placemark>
<Placemark>
<name>宇都宮大学工学部前</name>
<description></description>
<Point>
<coordinates>139.9269561767578,36.54836654663086,0</coordinates>
</Point>
</Placemark>
<Placemark>
<name>栃木県庁前</name>
<description></description>
<Point>
<coordinates>139.8839111328125,36.5614128112793,0</coordinates>
</Point>
</Placemark>
<Placemark>
<name>東武宇都宮駅西口</name>
<description></description>
<Point>
<coordinates>139.87969970703125,36.56001663208008,0</coordinates>
</Point>
</Placemark>
<Placemark>
<name>柳田</name>
<description></description>
<Point>
<coordinates>139.9617919921875,36.568809509277344,0</coordinates>
</Point>
</Placemark>
<Placemark>
<name>インターパーク</name>
<description></description>
<Point>
<coordinates>139.9080810546875,36.490440368652344,0</coordinates>
</Point>
</Placemark>
<Placemark>
<name>JR宇都宮駅西口</name>
<description></description>
<Point>
<coordinates>139.8972625732422,36.55912399291992,0</coordinates>
</Point>
</Placemark>
<Placemark>
<name>JR西那須野駅東口</name>
<description></description>
<Point>
<coordinates>139.9872283935547,36.88435745239258,0</coordinates>
</Point>
</Placemark>
<Placemark>
<name>東野交通大田原営業所</name>
<description></description>
<Point>
<coordinates>140.00682067871094,36.85740661621094,0</coordinates>
</Point>
</Placemark>
<Placemark>
<name>JR黒磯駅</name>
<description></description>
<Point>
<coordinates>140.05906677246094,36.96994400024414,0</coordinates>
</Point>
</Placemark>
<Placemark>
<name>那須温泉</name>
<description></description>
<Point>
<coordinates>140.0006866455078,37.09765625,0</coordinates>
</Point>
</Placemark>
<Placemark>
<name>柳田（柳田大橋西）</name>
<description></description>
<Point>
<coordinates>139.9617919921875,36.568809509277344,0</coordinates>
</Point>
</Placemark>
<Placemark>
<name>ホウライ</name>
<description></description>
<Point>
<coordinates>139.9333953857422,36.922454833984375,0</coordinates>
</Point>
</Placemark>
<Placemark>
<name>ホテルエピナール那須</name>
<description></description>
<Point>
<coordinates>140.02398681640625,37.0494499206543,0</coordinates>
</Point>
</Placemark>
<Placemark>
<name>鹿沼インター入口</name>
<description></description>
<Point>
<coordinates>139.80648803710938,36.53705596923828,0</coordinates>
</Point>
</Placemark>
<Placemark>
<name>鹿沼バスターミナル</name>
<description></description>
<Point>
<coordinates>139.7884063720703,36.52295684814453,0</coordinates>
</Point>
</Placemark>
<Placemark>
<name>千本松駐車場</name>
<description></description>
<Point>
<coordinates>139.9292755126953,36.925533294677734,0</coordinates>
</Point>
</Placemark>
<Placemark>
<name>東急ハーヴェストクラブ那須</name>
<description></description>
<Point>
<coordinates>140.02273559570312,37.071327209472656,0</coordinates>
</Point>
</Placemark>
<Placemark>
<name>東野交通本社営業所</name>
<description></description>
<Point>
<coordinates>139.93121337890625,36.57981491088867,0</coordinates>
</Point>
</Placemark>
<Placemark>
<name>関東バス柳田</name>
<description></description>
<Point>
<coordinates>139.9617919921875,36.568809509277344,0</coordinates>
</Point>
</Placemark>
<Placemark>
<name>矢板駅東口</name>
<description></description>
<Point>
<coordinates>139.93348693847656,36.806148529052734,0</coordinates>
</Point>
</Placemark>
<Placemark>
<name>鹿沼IC入口</name>
<description></description>
<Point>
<coordinates>139.80648803710938,36.53705596923828,0</coordinates>
</Point>
</Placemark>
<Placemark>
<name>氏家</name>
<description></description>
<Point>
<coordinates>139.96128845214844,36.68141174316406,0</coordinates>
</Point>
</Placemark>
<Placemark>
<name>矢板高校</name>
<description></description>
<Point>
<coordinates>139.89393615722656,36.8072509765625,0</coordinates>
</Point>
</Placemark>
<Placemark>
<name>大宮</name>
<description></description>
<Point>
<coordinates>139.8740997314453,36.74455261230469,0</coordinates>
</Point>
</Placemark>
<Placemark>
<name>越畑</name>
<description></description>
<Point>
<coordinates>139.9669647216797,36.754764556884766,0</coordinates>
</Point>
</Placemark>
<Placemark>
<name>鳥山駅前</name>
<description></description>
<Point>
<coordinates>140.15452575683594,36.650596618652344,0</coordinates>
</Point>
</Placemark>
<Placemark>
<name>西河原東</name>
<description></description>
<Point>
<coordinates>140.0076904296875,36.729129791259766,0</coordinates>
</Point>
</Placemark>
<Placemark>
<name>下江川支所前</name>
<description></description>
<Point>
<coordinates>140.10879516601562,36.68657302856445,0</coordinates>
</Point>
</Placemark>
<Placemark>
<name>片岡三区</name>
<description></description>
<Point>
<coordinates>139.95095825195312,36.75502014160156,0</coordinates>
</Point>
</Placemark>
<Placemark>
<name>ハーブハニーガーデン</name>
<description></description>
<Point>
<coordinates>139.99537658691406,37.067527770996094,0</coordinates>
</Point>
</Placemark>
<Placemark>
<name>テディベアミュージアム</name>
<description></description>
<Point>
<coordinates>140.03892517089844,37.048587799072266,0</coordinates>
</Point>
</Placemark>
<Placemark>
<name>ファミリー牧場</name>
<description></description>
<Point>
<coordinates>140.0443878173828,37.04308319091797,0</coordinates>
</Point>
</Placemark>
<Placemark>
<name>3D宇宙・恐竜館</name>
<description></description>
<Point>
<coordinates>140.04171752929688,37.034481048583984,0</coordinates>
</Point>
</Placemark>
<Placemark>
<name>サファリパーク</name>
<description></description>
<Point>
<coordinates>140.0069122314453,37.05912399291992,0</coordinates>
</Point>
</Placemark>
<Placemark>
<name>とりっくあーとぴあ</name>
<description></description>
<Point>
<coordinates>140.03497314453125,37.03105545043945,0</coordinates>
</Point>
</Placemark>
<Placemark>
<name>ワールドモンキーパーク入口</name>
<description></description>
<Point>
<coordinates>140.0494384765625,37.034793853759766,0</coordinates>
</Point>
</Placemark>
<Placemark>
<name>お菓子の城とお花の城</name>
<description></description>
<Point>
<coordinates>140.02969360351562,37.01723861694336,0</coordinates>
</Point>
</Placemark>
<Placemark>
<name>ザ・チーズガーデン</name>
<description></description>
<Point>
<coordinates>140.02407836914062,37.02743148803711,0</coordinates>
</Point>
</Placemark>
<Placemark>
<name>所野公園前</name>
<description></description>
<Point>
<coordinates>139.62969970703125,36.748504638671875,0</coordinates>
</Point>
</Placemark>
<Placemark>
<name>東照宮晃陽苑前（研修会館前）</name>
<description></description>
<Point>
<coordinates>139.66587829589844,36.74148178100586,0</coordinates>
</Point>
</Placemark>
<Placemark>
<name>木ノ根坂</name>
<description></description>
<Point>
<coordinates>139.69520568847656,36.73550796508789,0</coordinates>
</Point>
</Placemark>
<Placemark>
<name>倉ヶ崎</name>
<description></description>
<Point>
<coordinates>139.70721435546875,36.74677658081055,0</coordinates>
</Point>
</Placemark>
<Placemark>
<name>梶ヶ原</name>
<description></description>
<Point>
<coordinates>139.70875549316406,36.75179672241211,0</coordinates>
</Point>
</Placemark>
<Placemark>
<name>茶臼山入口</name>
<description></description>
<Point>
<coordinates>139.6980743408203,36.73784255981445,0</coordinates>
</Point>
</Placemark>
<Placemark>
<name>倉ヶ崎新田</name>
<description></description>
<Point>
<coordinates>139.70083618164062,36.73857498168945,0</coordinates>
</Point>
</Placemark>
<Placemark>
<name>古大谷</name>
<description></description>
<Point>
<coordinates>139.70606994628906,36.7435417175293,0</coordinates>
</Point>
</Placemark>
<Placemark>
<name>大桑駅入口</name>
<description></description>
<Point>
<coordinates>139.7093048095703,36.7596321105957,0</coordinates>
</Point>
</Placemark>
<Placemark>
<name>上大桑</name>
<description></description>
<Point>
<coordinates>139.70909118652344,36.761966705322266,0</coordinates>
</Point>
</Placemark>
<Placemark>
<name>大桑支所</name>
<description></description>
<Point>
<coordinates>139.71322631835938,36.763118743896484,0</coordinates>
</Point>
</Placemark>
<Placemark>
<name>川室入口</name>
<description></description>
<Point>
<coordinates>139.7147674560547,36.76348876953125,0</coordinates>
</Point>
</Placemark>
<Placemark>
<name>日光江戸村</name>
<description></description>
<Point>
<coordinates>139.6980438232422,36.791194915771484,0</coordinates>
</Point>
</Placemark>
<Placemark>
<name>仲町</name>
<description></description>
<Point>
<coordinates>139.71783447265625,36.83503341674805,0</coordinates>
</Point>
</Placemark>
<Placemark>
<name>NTT前</name>
<description></description>
<Point>
<coordinates>139.71669006347656,36.83283233642578,0</coordinates>
</Point>
</Placemark>
<Placemark>
<name>神社前</name>
<description></description>
<Point>
<coordinates>139.71609497070312,36.83138656616211,0</coordinates>
</Point>
</Placemark>
<Placemark>
<name>鬼怒川発電所前</name>
<description></description>
<Point>
<coordinates>139.71446228027344,36.82850646972656,0</coordinates>
</Point>
</Placemark>
<Placemark>
<name>園地入口</name>
<description></description>
<Point>
<coordinates>139.71339416503906,36.82769775390625,0</coordinates>
</Point>
</Placemark>
<Placemark>
<name>第一ホテル</name>
<description></description>
<Point>
<coordinates>139.72154235839844,36.83633804321289,0</coordinates>
</Point>
</Placemark>
<Placemark>
<name>ふれあい橋</name>
<description></description>
<Point>
<coordinates>139.7193603515625,36.829368591308594,0</coordinates>
</Point>
</Placemark>
<Placemark>
<name>楯岩橋</name>
<description></description>
<Point>
<coordinates>139.71240234375,36.823280334472656,0</coordinates>
</Point>
</Placemark>
<Placemark>
<name>バイパス十字路</name>
<description></description>
<Point>
<coordinates>139.71331787109375,36.821571350097656,0</coordinates>
</Point>
</Placemark>
<Placemark>
<name>大原</name>
<description></description>
<Point>
<coordinates>139.714599609375,36.81574630737305,0</coordinates>
</Point>
</Placemark>
<Placemark>
<name>大原団地前</name>
<description></description>
<Point>
<coordinates>139.71267700195312,36.813785552978516,0</coordinates>
</Point>
</Placemark>
<Placemark>
<name>温泉中央口</name>
<description></description>
<Point>
<coordinates>139.72042846679688,36.833709716796875,0</coordinates>
</Point>
</Placemark>
<Placemark>
<name>さくら通り</name>
<description></description>
<Point>
<coordinates>139.71878051757812,36.82724380493164,0</coordinates>
</Point>
</Placemark>
<Placemark>
<name>藤原総合支所前</name>
<description></description>
<Point>
<coordinates>139.72006225585938,36.83176803588867,0</coordinates>
</Point>
</Placemark>
<Placemark>
<name>中学校前</name>
<description></description>
<Point>
<coordinates>139.71592712402344,36.81852340698242,0</coordinates>
</Point>
</Placemark>
<Placemark>
<name>自由ヶ丘</name>
<description></description>
<Point>
<coordinates>139.7095184326172,36.80881881713867,0</coordinates>
</Point>
</Placemark>
<Placemark>
<name>東武ワールドスクウェア園内</name>
<description></description>
<Point>
<coordinates>139.71017456054688,36.80729293823242,0</coordinates>
</Point>
</Placemark>
<Placemark>
<name>小佐越駅</name>
<description></description>
<Point>
<coordinates>139.70697021484375,36.802616119384766,0</coordinates>
</Point>
</Placemark>
<Placemark>
<name>吊橋入口</name>
<description></description>
<Point>
<coordinates>139.72242736816406,36.837650299072266,0</coordinates>
</Point>
</Placemark>
<Placemark>
<name>ロープウェイ前</name>
<description></description>
<Point>
<coordinates>139.7198486328125,36.83811569213867,0</coordinates>
</Point>
</Placemark>
<Placemark>
<name>上滝入口</name>
<description></description>
<Point>
<coordinates>139.7202606201172,36.841983795166016,0</coordinates>
</Point>
</Placemark>
<Placemark>
<name>鬼怒川公園駅</name>
<description></description>
<Point>
<coordinates>139.7226104736328,36.84231948852539,0</coordinates>
</Point>
</Placemark>
<Placemark>
<name>小原</name>
<description></description>
<Point>
<coordinates>139.7279815673828,36.846763610839844,0</coordinates>
</Point>
</Placemark>
<Placemark>
<name>藤原（新藤原駅）</name>
<description></description>
<Point>
<coordinates>139.73233032226562,36.8524284362793,0</coordinates>
</Point>
</Placemark>
<Placemark>
<name>保育所前</name>
<description></description>
<Point>
<coordinates>139.73109436035156,36.854225158691406,0</coordinates>
</Point>
</Placemark>
<Placemark>
<name>十二神社前</name>
<description></description>
<Point>
<coordinates>139.7294921875,36.856117248535156,0</coordinates>
</Point>
</Placemark>
<Placemark>
<name>もみじライン口</name>
<description></description>
<Point>
<coordinates>139.71701049804688,36.86354064941406,0</coordinates>
</Point>
</Placemark>
<Placemark>
<name>白岩橋</name>
<description></description>
<Point>
<coordinates>139.7059326171875,36.86978530883789,0</coordinates>
</Point>
</Placemark>
<Placemark>
<name>川治温泉駅</name>
<description></description>
<Point>
<coordinates>139.70321655273438,36.88438415527344,0</coordinates>
</Point>
</Placemark>
<Placemark>
<name>川治中学校入口</name>
<description></description>
<Point>
<coordinates>139.70428466796875,36.886268615722656,0</coordinates>
</Point>
</Placemark>
<Placemark>
<name>川治温泉入口</name>
<description></description>
<Point>
<coordinates>139.7070770263672,36.890769958496094,0</coordinates>
</Point>
</Placemark>
<Placemark>
<name>川治温泉</name>
<description></description>
<Point>
<coordinates>139.7103729248047,36.89582824707031,0</coordinates>
</Point>
</Placemark>
<Placemark>
<name>見晴台</name>
<description></description>
<Point>
<coordinates>139.70790100097656,36.897552490234375,0</coordinates>
</Point>
</Placemark>
<Placemark>
<name>川治橋</name>
<description></description>
<Point>
<coordinates>139.7104949951172,36.89429473876953,0</coordinates>
</Point>
</Placemark>
<Placemark>
<name>一柳閣前</name>
<description></description>
<Point>
<coordinates>139.70742797851562,36.893577575683594,0</coordinates>
</Point>
</Placemark>
<Placemark>
<name>逆セ川</name>
<description></description>
<Point>
<coordinates>139.70069885253906,36.87944412231445,0</coordinates>
</Point>
</Placemark>
<Placemark>
<name>千手ヶ浜</name>
<description></description>
<Point>
<coordinates>139.41969299316406,36.74927520751953,0</coordinates>
</Point>
</Placemark>
<Placemark>
<name>西ノ湖入口</name>
<description></description>
<Point>
<coordinates>139.4049072265625,36.75386047363281,0</coordinates>
</Point>
</Placemark>
<Placemark>
<name>小田代原</name>
<description></description>
<Point>
<coordinates>139.42332458496094,36.77136993408203,0</coordinates>
</Point>
</Placemark>
<Placemark>
<name>仲内</name>
<description></description>
<Point>
<coordinates>139.61390686035156,36.966102600097656,0</coordinates>
</Point>
</Placemark>
<Placemark>
<name>本家伴久旅館前</name>
<description></description>
<Point>
<coordinates>139.59046936035156,36.96259307861328,0</coordinates>
</Point>
</Placemark>
<Placemark>
<name>湯西川温泉</name>
<description></description>
<Point>
<coordinates>139.58834838867188,36.96293640136719,0</coordinates>
</Point>
</Placemark>
<Placemark>
<name>仲内入口</name>
<description></description>
<Point>
<coordinates>139.61756896972656,36.96392822265625,0</coordinates>
</Point>
</Placemark>
<Placemark>
<name>ホテル伴久前</name>
<description></description>
<Point>
<coordinates>139.60263061523438,36.97102737426758,0</coordinates>
</Point>
</Placemark>
<Placemark>
<name>川戸</name>
<description></description>
<Point>
<coordinates>139.60916137695312,36.96755599975586,0</coordinates>
</Point>
</Placemark>
<Placemark>
<name>ホテル花と華前</name>
<description></description>
<Point>
<coordinates>139.59658813476562,36.96564483642578,0</coordinates>
</Point>
</Placemark>
<Placemark>
<name>山城屋ホテル前</name>
<description></description>
<Point>
<coordinates>139.59275817871094,36.96385192871094,0</coordinates>
</Point>
</Placemark>
<Placemark>
<name>かめや平家の庄前</name>
<description></description>
<Point>
<coordinates>139.5913848876953,36.962764739990234,0</coordinates>
</Point>
</Placemark>
<Placemark>
<name>赤下</name>
<description></description>
<Point>
<coordinates>139.6536865234375,36.93671798706055,0</coordinates>
</Point>
</Placemark>
<Placemark>
<name>一ツ石</name>
<description></description>
<Point>
<coordinates>139.6291046142578,36.944461822509766,0</coordinates>
</Point>
</Placemark>
<Placemark>
<name>湯西川温泉駅</name>
<description></description>
<Point>
<coordinates>139.68789672851562,36.9298095703125,0</coordinates>
</Point>
</Placemark>
<Placemark>
<name>上野</name>
<description></description>
<Point>
<coordinates>139.6811065673828,36.93180847167969,0</coordinates>
</Point>
</Placemark>
<Placemark>
<name>西川入口</name>
<description></description>
<Point>
<coordinates>139.67617797851562,36.93279266357422,0</coordinates>
</Point>
</Placemark>
<Placemark>
<name>海尻橋</name>
<description></description>
<Point>
<coordinates>139.6911163330078,36.9199333190918,0</coordinates>
</Point>
</Placemark>
<Placemark>
<name>観光ホテル前</name>
<description></description>
<Point>
<coordinates>139.72088623046875,36.835235595703125,0</coordinates>
</Point>
</Placemark>
<Placemark>
<name>西川中央</name>
<description></description>
<Point>
<coordinates>139.6737518310547,36.934608459472656,0</coordinates>
</Point>
</Placemark>
<Placemark>
<name>打越沢入口</name>
<description></description>
<Point>
<coordinates>139.67002868652344,36.93424987792969,0</coordinates>
</Point>
</Placemark>
<Placemark>
<name>明神岳</name>
<description></description>
<Point>
<coordinates>139.64073181152344,36.93644332885742,0</coordinates>
</Point>
</Placemark>
<Placemark>
<name>赤沼車庫</name>
<description></description>
<Point>
<coordinates>139.45443725585938,36.770118713378906,0</coordinates>
</Point>
</Placemark>
<Placemark>
<name>ツインリンクもてぎ</name>
<description></description>
<Point>
<coordinates>140.2244415283203,36.53142166137695,0</coordinates>
</Point>
</Placemark>
<Placemark>
<name>橋場</name>
<description></description>
<Point>
<coordinates>139.86924743652344,36.697574615478516,0</coordinates>
</Point>
</Placemark>
<Placemark>
<name>公民館入口</name>
<description></description>
<Point>
<coordinates>139.86647033691406,36.70167922973633,0</coordinates>
</Point>
</Placemark>
<Placemark>
<name>山田</name>
<description></description>
<Point>
<coordinates>139.8682098388672,36.705177307128906,0</coordinates>
</Point>
</Placemark>
<Placemark>
<name>金田南</name>
<description></description>
<Point>
<coordinates>139.9021759033203,36.66254425048828,0</coordinates>
</Point>
</Placemark>
<Placemark>
<name>東下ケ橋</name>
<description></description>
<Point>
<coordinates>139.9431915283203,36.65240478515625,0</coordinates>
</Point>
</Placemark>
<Placemark>
<name>西下ケ橋</name>
<description></description>
<Point>
<coordinates>139.9399871826172,36.64936065673828,0</coordinates>
</Point>
</Placemark>
<Placemark>
<name>芝川</name>
<description></description>
<Point>
<coordinates>139.9412384033203,36.64106369018555,0</coordinates>
</Point>
</Placemark>
<Placemark>
<name>白沢小学校入口</name>
<description></description>
<Point>
<coordinates>139.9434051513672,36.634239196777344,0</coordinates>
</Point>
</Placemark>
<Placemark>
<name>白沢車庫前</name>
<description></description>
<Point>
<coordinates>139.943603515625,36.633323669433594,0</coordinates>
</Point>
</Placemark>
<Placemark>
<name>芦沼三本松</name>
<description></description>
<Point>
<coordinates>139.9445343017578,36.6638069152832,0</coordinates>
</Point>
</Placemark>
<Placemark>
<name>煙草屋前</name>
<description></description>
<Point>
<coordinates>139.94232177734375,36.669490814208984,0</coordinates>
</Point>
</Placemark>
<Placemark>
<name>金田西</name>
<description></description>
<Point>
<coordinates>139.89645385742188,36.66410446166992,0</coordinates>
</Point>
</Placemark>
<Placemark>
<name>金田東</name>
<description></description>
<Point>
<coordinates>139.90406799316406,36.666542053222656,0</coordinates>
</Point>
</Placemark>
<Placemark>
<name>西芦沼台</name>
<description></description>
<Point>
<coordinates>139.92019653320312,36.66451644897461,0</coordinates>
</Point>
</Placemark>
<Placemark>
<name>西芦沼公民館前</name>
<description></description>
<Point>
<coordinates>139.9248046875,36.66511917114258,0</coordinates>
</Point>
</Placemark>
<Placemark>
<name>高松公民館前</name>
<description></description>
<Point>
<coordinates>139.8772430419922,36.668739318847656,0</coordinates>
</Point>
</Placemark>
<Placemark>
<name>三軒入口</name>
<description></description>
<Point>
<coordinates>139.92808532714844,36.666019439697266,0</coordinates>
</Point>
</Placemark>
<Placemark>
<name>河内地域自治センター前</name>
<description></description>
<Point>
<coordinates>139.9385986328125,36.62881851196289,0</coordinates>
</Point>
</Placemark>
<Placemark>
<name>緑水公園入口</name>
<description></description>
<Point>
<coordinates>139.86947631835938,36.72346496582031,0</coordinates>
</Point>
</Placemark>
<Placemark>
<name>高間木</name>
<description></description>
<Point>
<coordinates>139.86502075195312,36.719966888427734,0</coordinates>
</Point>
</Placemark>
<Placemark>
<name>謡辻</name>
<description></description>
<Point>
<coordinates>139.84642028808594,36.71855163574219,0</coordinates>
</Point>
</Placemark>
<Placemark>
<name>祥豊苑前</name>
<description></description>
<Point>
<coordinates>139.84750366210938,36.71255874633789,0</coordinates>
</Point>
</Placemark>
<Placemark>
<name>逆木発電所入口</name>
<description></description>
<Point>
<coordinates>139.8874969482422,36.7198600769043,0</coordinates>
</Point>
</Placemark>
<Placemark>
<name>板橋</name>
<description></description>
<Point>
<coordinates>139.892822265625,36.71428680419922,0</coordinates>
</Point>
</Placemark>
<Placemark>
<name>老人福祉センター前</name>
<description></description>
<Point>
<coordinates>139.8994140625,36.686920166015625,0</coordinates>
</Point>
</Placemark>
<Placemark>
<name>中里東組</name>
<description></description>
<Point>
<coordinates>139.8954620361328,36.675819396972656,0</coordinates>
</Point>
</Placemark>
<Placemark>
<name>免ノ内</name>
<description></description>
<Point>
<coordinates>139.88821411132812,36.67415237426758,0</coordinates>
</Point>
</Placemark>
<Placemark>
<name>中里宿</name>
<description></description>
<Point>
<coordinates>139.8877410888672,36.675743103027344,0</coordinates>
</Point>
</Placemark>
<Placemark>
<name>中里</name>
<description></description>
<Point>
<coordinates>139.88648986816406,36.6789436340332,0</coordinates>
</Point>
</Placemark>
<Placemark>
<name>西小学校入口</name>
<description></description>
<Point>
<coordinates>139.8857879638672,36.6827507019043,0</coordinates>
</Point>
</Placemark>
<Placemark>
<name>関白</name>
<description></description>
<Point>
<coordinates>139.88162231445312,36.68918991088867,0</coordinates>
</Point>
</Placemark>
<Placemark>
<name>関白一本木</name>
<description></description>
<Point>
<coordinates>139.8756561279297,36.69291687011719,0</coordinates>
</Point>
</Placemark>
<Placemark>
<name>上河内中学校入口</name>
<description></description>
<Point>
<coordinates>139.9031219482422,36.679466247558594,0</coordinates>
</Point>
</Placemark>
<Placemark>
<name>西河原</name>
<description></description>
<Point>
<coordinates>139.91128540039062,36.685516357421875,0</coordinates>
</Point>
</Placemark>
<Placemark>
<name>東小学校前</name>
<description></description>
<Point>
<coordinates>139.9149169921875,36.68766784667969,0</coordinates>
</Point>
</Placemark>
<Placemark>
<name>下小倉</name>
<description></description>
<Point>
<coordinates>139.91949462890625,36.6871223449707,0</coordinates>
</Point>
</Placemark>
<Placemark>
<name>福祉庁舎前</name>
<description></description>
<Point>
<coordinates>139.73233032226562,36.38151168823242,0</coordinates>
</Point>
</Placemark>
<Placemark>
<name>福田屋百貨店前</name>
<description></description>
<Point>
<coordinates>139.73448181152344,36.38214111328125,0</coordinates>
</Point>
</Placemark>
<Placemark>
<name>本町郵便局前</name>
<description></description>
<Point>
<coordinates>139.74244689941406,36.378501892089844,0</coordinates>
</Point>
</Placemark>
<Placemark>
<name>市民会館前</name>
<description></description>
<Point>
<coordinates>139.74212646484375,36.3820915222168,0</coordinates>
</Point>
</Placemark>
<Placemark>
<name>日ノ出町五差路南</name>
<description></description>
<Point>
<coordinates>139.74110412597656,36.38494873046875,0</coordinates>
</Point>
</Placemark>
<Placemark>
<name>田ノ保</name>
<description></description>
<Point>
<coordinates>139.5481414794922,36.478294372558594,0</coordinates>
</Point>
</Placemark>
<Placemark>
<name>越沢口</name>
<description></description>
<Point>
<coordinates>139.55291748046875,36.47157669067383,0</coordinates>
</Point>
</Placemark>
<Placemark>
<name>柿平神社前</name>
<description></description>
<Point>
<coordinates>139.5584716796875,36.46284866333008,0</coordinates>
</Point>
</Placemark>
<Placemark>
<name>下牧</name>
<description></description>
<Point>
<coordinates>139.58258056640625,36.44369125366211,0</coordinates>
</Point>
</Placemark>
<Placemark>
<name>上仙波</name>
<description></description>
<Point>
<coordinates>139.57687377929688,36.46331787109375,0</coordinates>
</Point>
</Placemark>
<Placemark>
<name>畑中</name>
<description></description>
<Point>
<coordinates>139.5860137939453,36.45650100708008,0</coordinates>
</Point>
</Placemark>
<Placemark>
<name>今宮神社前</name>
<description></description>
<Point>
<coordinates>139.59146118164062,36.45234298706055,0</coordinates>
</Point>
</Placemark>
<Placemark>
<name>町屋火の見下</name>
<description></description>
<Point>
<coordinates>139.59278869628906,36.448482513427734,0</coordinates>
</Point>
</Placemark>
<Placemark>
<name>神平</name>
<description></description>
<Point>
<coordinates>139.59494018554688,36.44116973876953,0</coordinates>
</Point>
</Placemark>
<Placemark>
<name>御神楽</name>
<description></description>
<Point>
<coordinates>139.5556182861328,36.4246940612793,0</coordinates>
</Point>
</Placemark>
<Placemark>
<name>氏家街道口</name>
<description></description>
<Point>
<coordinates>139.92225646972656,36.686912536621094,0</coordinates>
</Point>
</Placemark>
<Placemark>
<name>滝ノ原</name>
<description></description>
<Point>
<coordinates>139.92662048339844,36.683937072753906,0</coordinates>
</Point>
</Placemark>
<Placemark>
<name>東芦沼神社前</name>
<description></description>
<Point>
<coordinates>139.94017028808594,36.67359161376953,0</coordinates>
</Point>
</Placemark>
<Placemark>
<name>上田入口</name>
<description></description>
<Point>
<coordinates>139.9065399169922,36.68174743652344,0</coordinates>
</Point>
</Placemark>
<Placemark>
<name>逆木</name>
<description></description>
<Point>
<coordinates>139.8833465576172,36.72275161743164,0</coordinates>
</Point>
</Placemark>
<Placemark>
<name>小室</name>
<description></description>
<Point>
<coordinates>139.87826538085938,36.71562194824219,0</coordinates>
</Point>
</Placemark>
<Placemark>
<name>御宮橋</name>
<description></description>
<Point>
<coordinates>139.88412475585938,36.719051361083984,0</coordinates>
</Point>
</Placemark>
<Placemark>
<name>西小学校前</name>
<description></description>
<Point>
<coordinates>139.88931274414062,36.68272399902344,0</coordinates>
</Point>
</Placemark>
<Placemark>
<name>松風台</name>
<description></description>
<Point>
<coordinates>139.89126586914062,36.686073303222656,0</coordinates>
</Point>
</Placemark>
<Placemark>
<name>下組東</name>
<description></description>
<Point>
<coordinates>139.92872619628906,36.685203552246094,0</coordinates>
</Point>
</Placemark>
<Placemark>
<name>富野岡</name>
<description></description>
<Point>
<coordinates>139.94554138183594,36.691009521484375,0</coordinates>
</Point>
</Placemark>
<Placemark>
<name>北草川</name>
<description></description>
<Point>
<coordinates>139.95492553710938,36.687740325927734,0</coordinates>
</Point>
</Placemark>
<Placemark>
<name>氏家駅西口</name>
<description></description>
<Point>
<coordinates>139.96128845214844,36.68141174316406,0</coordinates>
</Point>
</Placemark>
<Placemark>
<name>生活センター前</name>
<description></description>
<Point>
<coordinates>139.9041748046875,36.70962142944336,0</coordinates>
</Point>
</Placemark>
<Placemark>
<name>上小倉中組</name>
<description></description>
<Point>
<coordinates>139.91148376464844,36.704933166503906,0</coordinates>
</Point>
</Placemark>
<Placemark>
<name>小室神社前</name>
<description></description>
<Point>
<coordinates>139.905517578125,36.70186996459961,0</coordinates>
</Point>
</Placemark>
<Placemark>
<name>西ノ内</name>
<description></description>
<Point>
<coordinates>139.91302490234375,36.69163131713867,0</coordinates>
</Point>
</Placemark>
<Placemark>
<name>東小学校</name>
<description></description>
<Point>
<coordinates>139.915771484375,36.68958282470703,0</coordinates>
</Point>
</Placemark>
<Placemark>
<name>東ノ内</name>
<description></description>
<Point>
<coordinates>139.91934204101562,36.696250915527344,0</coordinates>
</Point>
</Placemark>
<Placemark>
<name>上河原</name>
<description></description>
<Point>
<coordinates>139.9242401123047,36.67085647583008,0</coordinates>
</Point>
</Placemark>
<Placemark>
<name>免ノ内公民館前</name>
<description></description>
<Point>
<coordinates>139.8866729736328,36.67118453979492,0</coordinates>
</Point>
</Placemark>
<Placemark>
<name>旧にし保育園前</name>
<description></description>
<Point>
<coordinates>139.88394165039062,36.678497314453125,0</coordinates>
</Point>
</Placemark>
<Placemark>
<name>冬室下</name>
<description></description>
<Point>
<coordinates>139.88059997558594,36.685760498046875,0</coordinates>
</Point>
</Placemark>
<Placemark>
<name>冬室上</name>
<description></description>
<Point>
<coordinates>139.87347412109375,36.69221878051758,0</coordinates>
</Point>
</Placemark>
<Placemark>
<name>地域交流館（梵天の湯）</name>
<description></description>
<Point>
<coordinates>139.90512084960938,36.685272216796875,0</coordinates>
</Point>
</Placemark>
<Placemark>
<name>中里東組</name>
<description></description>
<Point>
<coordinates>139.8905487060547,36.67851638793945,0</coordinates>
</Point>
</Placemark>
<Placemark>
<name>消防学校前</name>
<description></description>
<Point>
<coordinates>139.90296936035156,36.675537109375,0</coordinates>
</Point>
</Placemark>
<Placemark>
<name>西芦沼新田</name>
<description></description>
<Point>
<coordinates>139.9213104248047,36.67002487182617,0</coordinates>
</Point>
</Placemark>
<Placemark>
<name>上田下</name>
<description></description>
<Point>
<coordinates>139.91294860839844,36.673606872558594,0</coordinates>
</Point>
</Placemark>
<Placemark>
<name>上田公民館前</name>
<description></description>
<Point>
<coordinates>139.9111328125,36.67518615722656,0</coordinates>
</Point>
</Placemark>
<Placemark>
<name>十文字北</name>
<description></description>
<Point>
<coordinates>139.900634765625,36.679046630859375,0</coordinates>
</Point>
</Placemark>
<Placemark>
<name>中里西組</name>
<description></description>
<Point>
<coordinates>139.87823486328125,36.67415237426758,0</coordinates>
</Point>
</Placemark>
<Placemark>
<name>上河内地域自治センター</name>
<description></description>
<Point>
<coordinates>139.90017700195312,36.68333435058594,0</coordinates>
</Point>
</Placemark>
<Placemark>
<name>宝井団地北</name>
<description></description>
<Point>
<coordinates>139.92242431640625,36.63298797607422,0</coordinates>
</Point>
</Placemark>
<Placemark>
<name>宝井団地中央</name>
<description></description>
<Point>
<coordinates>139.9195098876953,36.63092803955078,0</coordinates>
</Point>
</Placemark>
<Placemark>
<name>白澤病院</name>
<description></description>
<Point>
<coordinates>139.93255615234375,36.63028335571289,0</coordinates>
</Point>
</Placemark>
<Placemark>
<name>ドリームプールかわち前</name>
<description></description>
<Point>
<coordinates>139.93849182128906,36.63030242919922,0</coordinates>
</Point>
</Placemark>
<Placemark>
<name>北草川一丁目</name>
<description></description>
<Point>
<coordinates>139.94984436035156,36.689796447753906,0</coordinates>
</Point>
</Placemark>
<Placemark>
<name>今里</name>
<description></description>
<Point>
<coordinates>139.8970947265625,36.69542694091797,0</coordinates>
</Point>
</Placemark>
<Placemark>
<name>梨木平</name>
<description></description>
<Point>
<coordinates>139.8726043701172,36.66935348510742,0</coordinates>
</Point>
</Placemark>
<Placemark>
<name>平成橋</name>
<description></description>
<Point>
<coordinates>139.48666381835938,36.27595138549805,0</coordinates>
</Point>
</Placemark>
<Placemark>
<name>小曾根町自治会館</name>
<description></description>
<Point>
<coordinates>139.4805908203125,36.275169372558594,0</coordinates>
</Point>
</Placemark>
<Placemark>
<name>筑波小前</name>
<description></description>
<Point>
<coordinates>139.4744415283203,36.27677917480469,0</coordinates>
</Point>
</Placemark>
<Placemark>
<name>羽刈十字路</name>
<description></description>
<Point>
<coordinates>139.4690704345703,36.28009796142578,0</coordinates>
</Point>
</Placemark>
<Placemark>
<name>県十字路</name>
<description></description>
<Point>
<coordinates>139.46408081054688,36.28435516357422,0</coordinates>
</Point>
</Placemark>
<Placemark>
<name>県宿</name>
<description></description>
<Point>
<coordinates>139.46051025390625,36.28871154785156,0</coordinates>
</Point>
</Placemark>
<Placemark>
<name>協和中入口</name>
<description></description>
<Point>
<coordinates>139.46005249023438,36.292747497558594,0</coordinates>
</Point>
</Placemark>
<Placemark>
<name>神明神社</name>
<description></description>
<Point>
<coordinates>139.4713592529297,36.27704620361328,0</coordinates>
</Point>
</Placemark>
<Placemark>
<name>羽刈前河原</name>
<description></description>
<Point>
<coordinates>139.469970703125,36.271549224853516,0</coordinates>
</Point>
</Placemark>
<Placemark>
<name>羽刈工業団地南</name>
<description></description>
<Point>
<coordinates>139.4679412841797,36.27558898925781,0</coordinates>
</Point>
</Placemark>
<Placemark>
<name>観音寺前</name>
<description></description>
<Point>
<coordinates>139.4960174560547,36.28030776977539,0</coordinates>
</Point>
</Placemark>
<Placemark>
<name>新宿十字路</name>
<description></description>
<Point>
<coordinates>139.43077087402344,36.30440902709961,0</coordinates>
</Point>
</Placemark>
<Placemark>
<name>矢場川公民館</name>
<description></description>
<Point>
<coordinates>139.42689514160156,36.3080940246582,0</coordinates>
</Point>
</Placemark>
<Placemark>
<name>後橋</name>
<description></description>
<Point>
<coordinates>139.42893981933594,36.31263732910156,0</coordinates>
</Point>
</Placemark>
<Placemark>
<name>みなみ保育所入口</name>
<description></description>
<Point>
<coordinates>139.42984008789062,36.3155632019043,0</coordinates>
</Point>
</Placemark>
<Placemark>
<name>横手橋</name>
<description></description>
<Point>
<coordinates>139.43331909179688,36.320274353027344,0</coordinates>
</Point>
</Placemark>
<Placemark>
<name>助戸一丁目</name>
<description></description>
<Point>
<coordinates>139.4684295654297,36.330291748046875,0</coordinates>
</Point>
</Placemark>
<Placemark>
<name>大月入口</name>
<description></description>
<Point>
<coordinates>139.47584533691406,36.32792663574219,0</coordinates>
</Point>
</Placemark>
<Placemark>
<name>足利学校前</name>
<description></description>
<Point>
<coordinates>139.45387268066406,36.334842681884766,0</coordinates>
</Point>
</Placemark>
<Placemark>
<name>毛野郵便局前</name>
<description></description>
<Point>
<coordinates>139.48501586914062,36.32210922241211,0</coordinates>
</Point>
</Placemark>
<Placemark>
<name>龍泉寺前</name>
<description></description>
<Point>
<coordinates>139.47177124023438,36.32932662963867,0</coordinates>
</Point>
</Placemark>
<Placemark>
<name>八椚町</name>
<description></description>
<Point>
<coordinates>139.4910125732422,36.31904983520508,0</coordinates>
</Point>
</Placemark>
<Placemark>
<name>梁田自治会館</name>
<description></description>
<Point>
<coordinates>139.48770141601562,36.3028678894043,0</coordinates>
</Point>
</Placemark>
<Placemark>
<name>上加子</name>
<description></description>
<Point>
<coordinates>139.49114990234375,36.2999153137207,0</coordinates>
</Point>
</Placemark>
<Placemark>
<name>南幸楽荘</name>
<description></description>
<Point>
<coordinates>139.48056030273438,36.29597091674805,0</coordinates>
</Point>
</Placemark>
<Placemark>
<name>本郷集会所</name>
<description></description>
<Point>
<coordinates>139.47848510742188,36.30242919921875,0</coordinates>
</Point>
</Placemark>
<Placemark>
<name>神明地</name>
<description></description>
<Point>
<coordinates>139.46237182617188,36.30276870727539,0</coordinates>
</Point>
</Placemark>
<Placemark>
<name>上渋垂町</name>
<description></description>
<Point>
<coordinates>139.46873474121094,36.30075454711914,0</coordinates>
</Point>
</Placemark>
<Placemark>
<name>南分署</name>
<description></description>
<Point>
<coordinates>139.47474670410156,36.30350875854492,0</coordinates>
</Point>
</Placemark>
<Placemark>
<name>御厨公民館入口</name>
<description></description>
<Point>
<coordinates>139.4579620361328,36.3000602722168,0</coordinates>
</Point>
</Placemark>
<Placemark>
<name>福居駅入口</name>
<description></description>
<Point>
<coordinates>139.456298828125,36.30531311035156,0</coordinates>
</Point>
</Placemark>
<Placemark>
<name>八坂神社入口</name>
<description></description>
<Point>
<coordinates>139.4488983154297,36.30789566040039,0</coordinates>
</Point>
</Placemark>
<Placemark>
<name>公設市場</name>
<description></description>
<Point>
<coordinates>139.44578552246094,36.310752868652344,0</coordinates>
</Point>
</Placemark>
<Placemark>
<name>ヨークタウン</name>
<description></description>
<Point>
<coordinates>139.44656372070312,36.31597137451172,0</coordinates>
</Point>
</Placemark>
<Placemark>
<name>堀里ニュータウン南</name>
<description></description>
<Point>
<coordinates>139.43435668945312,36.30618667602539,0</coordinates>
</Point>
</Placemark>
<Placemark>
<name>堀込十字路</name>
<description></description>
<Point>
<coordinates>139.43838500976562,36.30805587768555,0</coordinates>
</Point>
</Placemark>
<Placemark>
<name>堀込一丁目</name>
<description></description>
<Point>
<coordinates>139.4390106201172,36.31460952758789,0</coordinates>
</Point>
</Placemark>
<Placemark>
<name>滝の宮団地</name>
<description></description>
<Point>
<coordinates>139.44244384765625,36.317012786865234,0</coordinates>
</Point>
</Placemark>
<Placemark>
<name>アピタ前</name>
<description></description>
<Point>
<coordinates>139.4486846923828,36.320716857910156,0</coordinates>
</Point>
</Placemark>
<Placemark>
<name>浅間下</name>
<description></description>
<Point>
<coordinates>139.4442138671875,36.33087921142578,0</coordinates>
</Point>
</Placemark>
<Placemark>
<name>借宿町</name>
<description></description>
<Point>
<coordinates>139.44065856933594,36.33111572265625,0</coordinates>
</Point>
</Placemark>
<Placemark>
<name>八幡郵便局</name>
<description></description>
<Point>
<coordinates>139.4369659423828,36.327266693115234,0</coordinates>
</Point>
</Placemark>
<Placemark>
<name>八幡十字路</name>
<description></description>
<Point>
<coordinates>139.4351806640625,36.32457733154297,0</coordinates>
</Point>
</Placemark>
<Placemark>
<name>馬場倉庫前</name>
<description></description>
<Point>
<coordinates>139.49563598632812,36.29503631591797,0</coordinates>
</Point>
</Placemark>
<Placemark>
<name>吉孫</name>
<description></description>
<Point>
<coordinates>139.4490966796875,36.32301330566406,0</coordinates>
</Point>
</Placemark>
<Placemark>
<name>今井病院前</name>
<description></description>
<Point>
<coordinates>139.45042419433594,36.3243408203125,0</coordinates>
</Point>
</Placemark>
<Placemark>
<name>八木宿</name>
<description></description>
<Point>
<coordinates>139.45394897460938,36.30641174316406,0</coordinates>
</Point>
</Placemark>
<Placemark>
<name>高松町東</name>
<description></description>
<Point>
<coordinates>139.4998016357422,36.28130340576172,0</coordinates>
</Point>
</Placemark>
<Placemark>
<name>久保田駐在所前</name>
<description></description>
<Point>
<coordinates>139.49862670898438,36.28634262084961,0</coordinates>
</Point>
</Placemark>
<Placemark>
<name>久野小前</name>
<description></description>
<Point>
<coordinates>139.50465393066406,36.29056167602539,0</coordinates>
</Point>
</Placemark>
<Placemark>
<name>野田中集会所</name>
<description></description>
<Point>
<coordinates>139.5078125,36.29405212402344,0</coordinates>
</Point>
</Placemark>
<Placemark>
<name>東大久保</name>
<description></description>
<Point>
<coordinates>139.51068115234375,36.31568908691406,0</coordinates>
</Point>
</Placemark>
<Placemark>
<name>大沼田集会所</name>
<description></description>
<Point>
<coordinates>139.50155639648438,36.32951354980469,0</coordinates>
</Point>
</Placemark>
<Placemark>
<name>野田茂木</name>
<description></description>
<Point>
<coordinates>139.5026092529297,36.29938888549805,0</coordinates>
</Point>
</Placemark>
<Placemark>
<name>下加子</name>
<description></description>
<Point>
<coordinates>139.4985809326172,36.295841217041016,0</coordinates>
</Point>
</Placemark>
<Placemark>
<name>内仲新道</name>
<description></description>
<Point>
<coordinates>139.41575622558594,36.343162536621094,0</coordinates>
</Point>
</Placemark>
<Placemark>
<name>小俣中町</name>
<description></description>
<Point>
<coordinates>139.37548828125,36.37282943725586,0</coordinates>
</Point>
</Placemark>
<Placemark>
<name>粟谷町入口</name>
<description></description>
<Point>
<coordinates>139.39474487304688,36.37016296386719,0</coordinates>
</Point>
</Placemark>
<Placemark>
<name>彦谷町</name>
<description></description>
<Point>
<coordinates>139.38717651367188,36.36922073364258,0</coordinates>
</Point>
</Placemark>
<Placemark>
<name>坂西団地</name>
<description></description>
<Point>
<coordinates>139.38595581054688,36.368141174316406,0</coordinates>
</Point>
</Placemark>
<Placemark>
<name>葉鹿小前</name>
<description></description>
<Point>
<coordinates>139.3898468017578,36.3654899597168,0</coordinates>
</Point>
</Placemark>
<Placemark>
<name>新松田川橋</name>
<description></description>
<Point>
<coordinates>139.39283752441406,36.36272430419922,0</coordinates>
</Point>
</Placemark>
<Placemark>
<name>大前五丁目</name>
<description></description>
<Point>
<coordinates>139.4029083251953,36.35593032836914,0</coordinates>
</Point>
</Placemark>
<Placemark>
<name>西中前</name>
<description></description>
<Point>
<coordinates>139.4163055419922,36.34730911254883,0</coordinates>
</Point>
</Placemark>
<Placemark>
<name>大原神社前</name>
<description></description>
<Point>
<coordinates>139.39332580566406,36.358158111572266,0</coordinates>
</Point>
</Placemark>
<Placemark>
<name>小俣下町</name>
<description></description>
<Point>
<coordinates>139.376953125,36.371124267578125,0</coordinates>
</Point>
</Placemark>
<Placemark>
<name>葉鹿下町</name>
<description></description>
<Point>
<coordinates>139.38751220703125,36.36096954345703,0</coordinates>
</Point>
</Placemark>
<Placemark>
<name>西中入口</name>
<description></description>
<Point>
<coordinates>139.41294860839844,36.345394134521484,0</coordinates>
</Point>
</Placemark>
<Placemark>
<name>松田新道入口</name>
<description></description>
<Point>
<coordinates>139.39047241210938,36.35953140258789,0</coordinates>
</Point>
</Placemark>
<Placemark>
<name>足工大前</name>
<description></description>
<Point>
<coordinates>139.39743041992188,36.35619354248047,0</coordinates>
</Point>
</Placemark>
<Placemark>
<name>通六丁目</name>
<description></description>
<Point>
<coordinates>139.44142150878906,36.33819580078125,0</coordinates>
</Point>
</Placemark>
<Placemark>
<name>薬師前</name>
<description></description>
<Point>
<coordinates>139.45094299316406,36.374481201171875,0</coordinates>
</Point>
</Placemark>
<Placemark>
<name>月谷自然教室前</name>
<description></description>
<Point>
<coordinates>139.45526123046875,36.3710823059082,0</coordinates>
</Point>
</Placemark>
<Placemark>
<name>中河原</name>
<description></description>
<Point>
<coordinates>139.46038818359375,36.36543655395508,0</coordinates>
</Point>
</Placemark>
<Placemark>
<name>月谷町</name>
<description></description>
<Point>
<coordinates>139.4652099609375,36.362064361572266,0</coordinates>
</Point>
</Placemark>
<Placemark>
<name>江川町自治会館前</name>
<description></description>
<Point>
<coordinates>139.46722412109375,36.35315704345703,0</coordinates>
</Point>
</Placemark>
<Placemark>
<name>天王様前</name>
<description></description>
<Point>
<coordinates>139.43080139160156,36.39813995361328,0</coordinates>
</Point>
</Placemark>
<Placemark>
<name>松田保育所前</name>
<description></description>
<Point>
<coordinates>139.4268798828125,36.395729064941406,0</coordinates>
</Point>
</Placemark>
<Placemark>
<name>叶花</name>
<description></description>
<Point>
<coordinates>139.38369750976562,36.39607238769531,0</coordinates>
</Point>
</Placemark>
<Placemark>
<name>鶏足寺前</name>
<description></description>
<Point>
<coordinates>139.3776092529297,36.388423919677734,0</coordinates>
</Point>
</Placemark>
<Placemark>
<name>松田郵便局前</name>
<description></description>
<Point>
<coordinates>139.4165802001953,36.383033752441406,0</coordinates>
</Point>
</Placemark>
<Placemark>
<name>中妻</name>
<description></description>
<Point>
<coordinates>139.37657165527344,36.38310623168945,0</coordinates>
</Point>
</Placemark>
<Placemark>
<name>競馬場前</name>
<description></description>
<Point>
<coordinates>139.421142578125,36.340911865234375,0</coordinates>
</Point>
</Placemark>
<Placemark>
<name>小俣境町</name>
<description></description>
<Point>
<coordinates>139.37197875976562,36.378570556640625,0</coordinates>
</Point>
</Placemark>
<Placemark>
<name>坂西北小前</name>
<description></description>
<Point>
<coordinates>139.41323852539062,36.379905700683594,0</coordinates>
</Point>
</Placemark>
<Placemark>
<name>東幸楽荘</name>
<description></description>
<Point>
<coordinates>139.50013732910156,36.31793212890625,0</coordinates>
</Point>
</Placemark>
<Placemark>
<name>栃木駅前</name>
<description></description>
<Point>
<coordinates>139.73101806640625,36.37217330932617,0</coordinates>
</Point>
</Placemark>
<Placemark>
<name>女子高入口</name>
<description></description>
<Point>
<coordinates>139.7242889404297,36.37759780883789,0</coordinates>
</Point>
</Placemark>
<Placemark>
<name>法務局入口</name>
<description></description>
<Point>
<coordinates>139.7271270751953,36.37572479248047,0</coordinates>
</Point>
</Placemark>
<Placemark>
<name>駅前郵便局前</name>
<description></description>
<Point>
<coordinates>139.73046875,36.373046875,0</coordinates>
</Point>
</Placemark>
<Placemark>
<name>栃木駅南</name>
<description></description>
<Point>
<coordinates>139.73275756835938,36.369590759277344,0</coordinates>
</Point>
</Placemark>
<Placemark>
<name>医師会病院前</name>
<description></description>
<Point>
<coordinates>139.7272186279297,36.36901092529297,0</coordinates>
</Point>
</Placemark>
<Placemark>
<name>JA前</name>
<description></description>
<Point>
<coordinates>139.7325897216797,36.373531341552734,0</coordinates>
</Point>
</Placemark>
<Placemark>
<name>柏戸医院前</name>
<description></description>
<Point>
<coordinates>139.7337188720703,36.37431716918945,0</coordinates>
</Point>
</Placemark>
<Placemark>
<name>南中入口</name>
<description></description>
<Point>
<coordinates>139.7394256591797,36.37783432006836,0</coordinates>
</Point>
</Placemark>
<Placemark>
<name>文化会館前</name>
<description></description>
<Point>
<coordinates>139.73731994628906,36.377872467041016,0</coordinates>
</Point>
</Placemark>
<Placemark>
<name>NTT北</name>
<description></description>
<Point>
<coordinates>139.73377990722656,36.37772750854492,0</coordinates>
</Point>
</Placemark>
<Placemark>
<name>幸来橋</name>
<description></description>
<Point>
<coordinates>139.73141479492188,36.37881088256836,0</coordinates>
</Point>
</Placemark>
<Placemark>
<name>永島前</name>
<description></description>
<Point>
<coordinates>139.72825622558594,36.38577651977539,0</coordinates>
</Point>
</Placemark>
<Placemark>
<name>ジャスコ前</name>
<description></description>
<Point>
<coordinates>139.72373962402344,36.39420700073242,0</coordinates>
</Point>
</Placemark>
<Placemark>
<name>くぬぎ山入口</name>
<description></description>
<Point>
<coordinates>139.71444702148438,36.40133285522461,0</coordinates>
</Point>
</Placemark>
<Placemark>
<name>市場町山崎公民館</name>
<description></description>
<Point>
<coordinates>139.54217529296875,36.340362548828125,0</coordinates>
</Point>
</Placemark>
<Placemark>
<name>久野T字路</name>
<description></description>
<Point>
<coordinates>139.6912841796875,36.515228271484375,0</coordinates>
</Point>
</Placemark>
<Placemark>
<name>久野中坪</name>
<description></description>
<Point>
<coordinates>139.69525146484375,36.51602554321289,0</coordinates>
</Point>
</Placemark>
<Placemark>
<name>豊年町</name>
<description></description>
<Point>
<coordinates>139.70521545410156,36.5179557800293,0</coordinates>
</Point>
</Placemark>
<Placemark>
<name>下南摩</name>
<description></description>
<Point>
<coordinates>139.7162322998047,36.521240234375,0</coordinates>
</Point>
</Placemark>
<Placemark>
<name>生子神社入口</name>
<description></description>
<Point>
<coordinates>139.74343872070312,36.53657913208008,0</coordinates>
</Point>
</Placemark>
<Placemark>
<name>落の沢</name>
<description></description>
<Point>
<coordinates>139.6854705810547,36.51675033569336,0</coordinates>
</Point>
</Placemark>
<Placemark>
<name>北川医院前</name>
<description></description>
<Point>
<coordinates>139.70806884765625,36.51903533935547,0</coordinates>
</Point>
</Placemark>
<Placemark>
<name>JA南摩支店前</name>
<description></description>
<Point>
<coordinates>139.71043395996094,36.51976013183594,0</coordinates>
</Point>
</Placemark>
<Placemark>
<name>南摩十文字</name>
<description></description>
<Point>
<coordinates>139.72174072265625,36.522518157958984,0</coordinates>
</Point>
</Placemark>
<Placemark>
<name>赤石橋</name>
<description></description>
<Point>
<coordinates>139.72593688964844,36.52327346801758,0</coordinates>
</Point>
</Placemark>
<Placemark>
<name>酒野谷入口</name>
<description></description>
<Point>
<coordinates>139.73098754882812,36.525672912597656,0</coordinates>
</Point>
</Placemark>
<Placemark>
<name>大師窪</name>
<description></description>
<Point>
<coordinates>139.73951721191406,36.5302734375,0</coordinates>
</Point>
</Placemark>
<Placemark>
<name>東武縦山駅</name>
<description></description>
<Point>
<coordinates>139.7411346435547,36.533084869384766,0</coordinates>
</Point>
</Placemark>
<Placemark>
<name>石橋町</name>
<description></description>
<Point>
<coordinates>139.74655151367188,36.5626335144043,0</coordinates>
</Point>
</Placemark>
<Placemark>
<name>大門宿</name>
<description></description>
<Point>
<coordinates>139.74752807617188,36.5404167175293,0</coordinates>
</Point>
</Placemark>
<Placemark>
<name>上殿T字路</name>
<description></description>
<Point>
<coordinates>139.74783325195312,36.54338836669922,0</coordinates>
</Point>
</Placemark>
<Placemark>
<name>押原神社入口</name>
<description></description>
<Point>
<coordinates>139.7478790283203,36.54774856567383,0</coordinates>
</Point>
</Placemark>
<Placemark>
<name>上殿</name>
<description></description>
<Point>
<coordinates>139.7479705810547,36.545204162597656,0</coordinates>
</Point>
</Placemark>
<Placemark>
<name>鹿沼商工入口</name>
<description></description>
<Point>
<coordinates>139.7465362548828,36.554420471191406,0</coordinates>
</Point>
</Placemark>
<Placemark>
<name>府所町</name>
<description></description>
<Point>
<coordinates>139.75686645507812,36.56857681274414,0</coordinates>
</Point>
</Placemark>
<Placemark>
<name>桜内</name>
<description></description>
<Point>
<coordinates>139.74713134765625,36.55027389526367,0</coordinates>
</Point>
</Placemark>
<Placemark>
<name>久保町</name>
<description></description>
<Point>
<coordinates>139.74691772460938,36.566184997558594,0</coordinates>
</Point>
</Placemark>
<Placemark>
<name>鹿沼営業所</name>
<description></description>
<Point>
<coordinates>139.74658203125,36.553070068359375,0</coordinates>
</Point>
</Placemark>
<Placemark>
<name>鹿沼高校前</name>
<description></description>
<Point>
<coordinates>139.75057983398438,36.55744171142578,0</coordinates>
</Point>
</Placemark>
<Placemark>
<name>万町</name>
<description></description>
<Point>
<coordinates>139.75245666503906,36.55854797363281,0</coordinates>
</Point>
</Placemark>
<Placemark>
<name>上都賀病院前</name>
<description></description>
<Point>
<coordinates>139.7508087158203,36.56090545654297,0</coordinates>
</Point>
</Placemark>
<Placemark>
<name>市民情報センター</name>
<description></description>
<Point>
<coordinates>139.75148010253906,36.56906509399414,0</coordinates>
</Point>
</Placemark>
<Placemark>
<name>JR鹿沼駅</name>
<description></description>
<Point>
<coordinates>139.7627410888672,36.57081604003906,0</coordinates>
</Point>
</Placemark>
<Placemark>
<name>東武新鹿沼駅入口</name>
<description></description>
<Point>
<coordinates>139.7465057373047,36.55616760253906,0</coordinates>
</Point>
</Placemark>
<Placemark>
<name>羽立口</name>
<description></description>
<Point>
<coordinates>139.51165771484375,36.58534622192383,0</coordinates>
</Point>
</Placemark>
<Placemark>
<name>田の端</name>
<description></description>
<Point>
<coordinates>139.52252197265625,36.58138656616211,0</coordinates>
</Point>
</Placemark>
<Placemark>
<name>上粕尾発光路</name>
<description></description>
<Point>
<coordinates>139.5129852294922,36.58390808105469,0</coordinates>
</Point>
</Placemark>
<Placemark>
<name>井戸産業前</name>
<description></description>
<Point>
<coordinates>139.5171661376953,36.581600189208984,0</coordinates>
</Point>
</Placemark>
<Placemark>
<name>上の内</name>
<description></description>
<Point>
<coordinates>139.56178283691406,36.56572723388672,0</coordinates>
</Point>
</Placemark>
<Placemark>
<name>馬置</name>
<description></description>
<Point>
<coordinates>139.5637664794922,36.56196975708008,0</coordinates>
</Point>
</Placemark>
<Placemark>
<name>遠木鈴木商店前</name>
<description></description>
<Point>
<coordinates>139.5770721435547,36.5506477355957,0</coordinates>
</Point>
</Placemark>
<Placemark>
<name>加戸</name>
<description></description>
<Point>
<coordinates>139.5828857421875,36.53665542602539,0</coordinates>
</Point>
</Placemark>
<Placemark>
<name>鬼平</name>
<description></description>
<Point>
<coordinates>139.58731079101562,36.5345573425293,0</coordinates>
</Point>
</Placemark>
<Placemark>
<name>赤石河原</name>
<description></description>
<Point>
<coordinates>139.58311462402344,36.5423698425293,0</coordinates>
</Point>
</Placemark>
<Placemark>
<name>遠木橋</name>
<description></description>
<Point>
<coordinates>139.5743865966797,36.551815032958984,0</coordinates>
</Point>
</Placemark>
<Placemark>
<name>遠木金田屋</name>
<description></description>
<Point>
<coordinates>139.56971740722656,36.55271530151367,0</coordinates>
</Point>
</Placemark>
<Placemark>
<name>栃原</name>
<description></description>
<Point>
<coordinates>139.55702209472656,36.568729400634766,0</coordinates>
</Point>
</Placemark>
<Placemark>
<name>上粕尾郵便局前</name>
<description></description>
<Point>
<coordinates>139.5518798828125,36.569522857666016,0</coordinates>
</Point>
</Placemark>
<Placemark>
<name>水神</name>
<description></description>
<Point>
<coordinates>139.5470428466797,36.571441650390625,0</coordinates>
</Point>
</Placemark>
<Placemark>
<name>半縄</name>
<description></description>
<Point>
<coordinates>139.54476928710938,36.57331848144531,0</coordinates>
</Point>
</Placemark>
<Placemark>
<name>上粕尾小学校前</name>
<description></description>
<Point>
<coordinates>139.5413055419922,36.573055267333984,0</coordinates>
</Point>
</Placemark>
<Placemark>
<name>大井煙草屋</name>
<description></description>
<Point>
<coordinates>139.53929138183594,36.57581329345703,0</coordinates>
</Point>
</Placemark>
<Placemark>
<name>大井</name>
<description></description>
<Point>
<coordinates>139.53536987304688,36.577735900878906,0</coordinates>
</Point>
</Placemark>
<Placemark>
<name>粕尾小学校前</name>
<description></description>
<Point>
<coordinates>139.6180877685547,36.509525299072266,0</coordinates>
</Point>
</Placemark>
<Placemark>
<name>粕尾局前</name>
<description></description>
<Point>
<coordinates>139.6088104248047,36.51786422729492,0</coordinates>
</Point>
</Placemark>
<Placemark>
<name>粕尾保育所入口</name>
<description></description>
<Point>
<coordinates>139.59841918945312,36.522403717041016,0</coordinates>
</Point>
</Placemark>
<Placemark>
<name>島田入口</name>
<description></description>
<Point>
<coordinates>139.59335327148438,36.52257537841797,0</coordinates>
</Point>
</Placemark>
<Placemark>
<name>弁天下</name>
<description></description>
<Point>
<coordinates>139.59228515625,36.52705001831055,0</coordinates>
</Point>
</Placemark>
<Placemark>
<name>上向橋</name>
<description></description>
<Point>
<coordinates>139.58775329589844,36.53047561645508,0</coordinates>
</Point>
</Placemark>
<Placemark>
<name>釜丁</name>
<description></description>
<Point>
<coordinates>139.605712890625,36.52018356323242,0</coordinates>
</Point>
</Placemark>
<Placemark>
<name>中粕尾車庫</name>
<description></description>
<Point>
<coordinates>139.59103393554688,36.52841567993164,0</coordinates>
</Point>
</Placemark>
<Placemark>
<name>加戸沢入口</name>
<description></description>
<Point>
<coordinates>139.58128356933594,36.53814697265625,0</coordinates>
</Point>
</Placemark>
<Placemark>
<name>布施谷神社前</name>
<description></description>
<Point>
<coordinates>139.61236572265625,36.511985778808594,0</coordinates>
</Point>
</Placemark>
<Placemark>
<name>筌場</name>
<description></description>
<Point>
<coordinates>139.68238830566406,36.517948150634766,0</coordinates>
</Point>
</Placemark>
<Placemark>
<name>ファミリータウン入口</name>
<description></description>
<Point>
<coordinates>139.67913818359375,36.5175666809082,0</coordinates>
</Point>
</Placemark>
<Placemark>
<name>上仲町</name>
<description></description>
<Point>
<coordinates>139.67205810546875,36.51579284667969,0</coordinates>
</Point>
</Placemark>
<Placemark>
<name>粟野上町</name>
<description></description>
<Point>
<coordinates>139.66934204101562,36.51472091674805,0</coordinates>
</Point>
</Placemark>
<Placemark>
<name>叶</name>
<description></description>
<Point>
<coordinates>139.6667938232422,36.51336669921875,0</coordinates>
</Point>
</Placemark>
<Placemark>
<name>岩鼻</name>
<description></description>
<Point>
<coordinates>139.65493774414062,36.50672912597656,0</coordinates>
</Point>
</Placemark>
<Placemark>
<name>松崎大正屋前</name>
<description></description>
<Point>
<coordinates>139.6474609375,36.50761032104492,0</coordinates>
</Point>
</Placemark>
<Placemark>
<name>松崎火の見下</name>
<description></description>
<Point>
<coordinates>139.64227294921875,36.5069465637207,0</coordinates>
</Point>
</Placemark>
<Placemark>
<name>寒沢入口</name>
<description></description>
<Point>
<coordinates>139.63693237304688,36.506107330322266,0</coordinates>
</Point>
</Placemark>
<Placemark>
<name>宮沢</name>
<description></description>
<Point>
<coordinates>139.6292266845703,36.507225036621094,0</coordinates>
</Point>
</Placemark>
<Placemark>
<name>大越路</name>
<description></description>
<Point>
<coordinates>139.62188720703125,36.50813293457031,0</coordinates>
</Point>
</Placemark>
<Placemark>
<name>粟野高校入口</name>
<description></description>
<Point>
<coordinates>139.67703247070312,36.51735305786133,0</coordinates>
</Point>
</Placemark>
<Placemark>
<name>山の神</name>
<description></description>
<Point>
<coordinates>139.49807739257812,36.59571838378906,0</coordinates>
</Point>
</Placemark>
<Placemark>
<name>墨田学園前</name>
<description></description>
<Point>
<coordinates>139.50473022460938,36.59122085571289,0</coordinates>
</Point>
</Placemark>
<Placemark>
<name>粟野第一小前</name>
<description></description>
<Point>
<coordinates>139.6737060546875,36.51644515991211,0</coordinates>
</Point>
</Placemark>
<Placemark>
<name>旧粟野町役場</name>
<description></description>
<Point>
<coordinates>139.6742401123047,36.51618576049805,0</coordinates>
</Point>
</Placemark>
<Placemark>
<name>銅やまなみ館前</name>
<description></description>
<Point>
<coordinates>139.44183349609375,36.63728332519531,0</coordinates>
</Point>
</Placemark>
<Placemark>
<name>木幡</name>
<description></description>
<Point>
<coordinates>139.9282989501953,36.79001998901367,0</coordinates>
</Point>
</Placemark>
<Placemark>
<name>扇町</name>
<description></description>
<Point>
<coordinates>139.9310760498047,36.81007766723633,0</coordinates>
</Point>
</Placemark>
<Placemark>
<name>塩谷庁舎前</name>
<description></description>
<Point>
<coordinates>139.9248504638672,36.798789978027344,0</coordinates>
</Point>
</Placemark>
<Placemark>
<name>栃木銀行前</name>
<description></description>
<Point>
<coordinates>139.928955078125,36.804195404052734,0</coordinates>
</Point>
</Placemark>
<Placemark>
<name>鹿島町</name>
<description></description>
<Point>
<coordinates>139.9280548095703,36.804039001464844,0</coordinates>
</Point>
</Placemark>
<Placemark>
<name>城の湯温泉センター</name>
<description></description>
<Point>
<coordinates>139.92567443847656,36.796146392822266,0</coordinates>
</Point>
</Placemark>
<Placemark>
<name>いきいきプラザ</name>
<description></description>
<Point>
<coordinates>139.90850830078125,36.438804626464844,0</coordinates>
</Point>
</Placemark>
<Placemark>
<name>下原</name>
<description></description>
<Point>
<coordinates>139.9842071533203,36.746070861816406,0</coordinates>
</Point>
</Placemark>
<Placemark>
<name>仲町</name>
<description></description>
<Point>
<coordinates>140.0250701904297,36.72003173828125,0</coordinates>
</Point>
</Placemark>
<Placemark>
<name>戸田</name>
<description></description>
<Point>
<coordinates>140.07388305664062,36.69000244140625,0</coordinates>
</Point>
</Placemark>
<Placemark>
<name>大金台</name>
<description></description>
<Point>
<coordinates>140.11856079101562,36.675567626953125,0</coordinates>
</Point>
</Placemark>
<Placemark>
<name>旭橋</name>
<description></description>
<Point>
<coordinates>140.0325469970703,36.718414306640625,0</coordinates>
</Point>
</Placemark>
<Placemark>
<name>お丸山公園下</name>
<description></description>
<Point>
<coordinates>140.0109100341797,36.72004699707031,0</coordinates>
</Point>
</Placemark>
<Placemark>
<name>仲町</name>
<description></description>
<Point>
<coordinates>139.74649047851562,36.5640869140625,0</coordinates>
</Point>
</Placemark>
<Placemark>
<name>鳥居跡町</name>
<description></description>
<Point>
<coordinates>139.7465362548828,36.5572624206543,0</coordinates>
</Point>
</Placemark>
<Placemark>
<name>上田町</name>
<description></description>
<Point>
<coordinates>139.75071716308594,36.56733322143555,0</coordinates>
</Point>
</Placemark>
<Placemark>
<name>朝日町</name>
<description></description>
<Point>
<coordinates>139.75289916992188,36.56763458251953,0</coordinates>
</Point>
</Placemark>
<Placemark>
<name>寺町・下材木町</name>
<description></description>
<Point>
<coordinates>139.74708557128906,36.561439514160156,0</coordinates>
</Point>
</Placemark>
<Placemark>
<name>天神町</name>
<description></description>
<Point>
<coordinates>139.74867248535156,36.56722640991211,0</coordinates>
</Point>
</Placemark>
<Placemark>
<name>大宮下町</name>
<description></description>
<Point>
<coordinates>139.87513732910156,36.741302490234375,0</coordinates>
</Point>
</Placemark>
<Placemark>
<name>氏家街道口</name>
<description></description>
<Point>
<coordinates>139.87538146972656,36.73942184448242,0</coordinates>
</Point>
</Placemark>
<Placemark>
<name>大宮小学校入口</name>
<description></description>
<Point>
<coordinates>139.8748779296875,36.74299240112305,0</coordinates>
</Point>
</Placemark>
<Placemark>
<name>道下</name>
<description></description>
<Point>
<coordinates>139.8561248779297,36.76586151123047,0</coordinates>
</Point>
</Placemark>
<Placemark>
<name>喜多入口</name>
<description></description>
<Point>
<coordinates>139.85321044921875,36.76813507080078,0</coordinates>
</Point>
</Placemark>
<Placemark>
<name>佐貫入口</name>
<description></description>
<Point>
<coordinates>139.7911376953125,36.76915740966797,0</coordinates>
</Point>
</Placemark>
<Placemark>
<name>船生公民館</name>
<description></description>
<Point>
<coordinates>139.78857421875,36.768619537353516,0</coordinates>
</Point>
</Placemark>
<Placemark>
<name>玉生車庫</name>
<description></description>
<Point>
<coordinates>139.84890747070312,36.774600982666016,0</coordinates>
</Point>
</Placemark>
<Placemark>
<name>原荻の目</name>
<description></description>
<Point>
<coordinates>139.86138916015625,36.76095199584961,0</coordinates>
</Point>
</Placemark>
<Placemark>
<name>金枝火の見下</name>
<description></description>
<Point>
<coordinates>139.86215209960938,36.757808685302734,0</coordinates>
</Point>
</Placemark>
<Placemark>
<name>船生</name>
<description></description>
<Point>
<coordinates>139.78457641601562,36.767662048339844,0</coordinates>
</Point>
</Placemark>
<Placemark>
<name>台町</name>
<description></description>
<Point>
<coordinates>140.0050811767578,36.441856384277344,0</coordinates>
</Point>
</Placemark>
<Placemark>
<name>西那須野駅（東口）</name>
<description></description>
<Point>
<coordinates>139.9872283935547,36.88435745239258,0</coordinates>
</Point>
</Placemark>
<Placemark>
<name>三輪</name>
<description></description>
<Point>
<coordinates>140.11282348632812,36.75876998901367,0</coordinates>
</Point>
</Placemark>
<Placemark>
<name>氏家駅入口</name>
<description></description>
<Point>
<coordinates>139.96627807617188,36.68240737915039,0</coordinates>
</Point>
</Placemark>
<Placemark>
<name>新高徳駅</name>
<description></description>
<Point>
<coordinates>139.71189880371094,36.779293060302734,0</coordinates>
</Point>
</Placemark>
<Placemark>
<name>練貫十文字</name>
<description></description>
<Point>
<coordinates>140.05690002441406,36.91486740112305,0</coordinates>
</Point>
</Placemark>
<Placemark>
<name>東鴻巣</name>
<description></description>
<Point>
<coordinates>140.05328369140625,36.91691970825195,0</coordinates>
</Point>
</Placemark>
<Placemark>
<name>那須塩原駅</name>
<description></description>
<Point>
<coordinates>140.0215301513672,36.93126678466797,0</coordinates>
</Point>
</Placemark>
<Placemark>
<name>三本木</name>
<description></description>
<Point>
<coordinates>140.03358459472656,36.927528381347656,0</coordinates>
</Point>
</Placemark>
<Placemark>
<name>鴻の巣</name>
<description></description>
<Point>
<coordinates>140.04263305664062,36.921382904052734,0</coordinates>
</Point>
</Placemark>
<Placemark>
<name>東小屋</name>
<description></description>
<Point>
<coordinates>140.02902221679688,36.92932891845703,0</coordinates>
</Point>
</Placemark>
<Placemark>
<name>鴻巣公民館前</name>
<description></description>
<Point>
<coordinates>140.04364013671875,36.919857025146484,0</coordinates>
</Point>
</Placemark>
<Placemark>
<name>郵便局前</name>
<description></description>
<Point>
<coordinates>140.02410888671875,36.92766571044922,0</coordinates>
</Point>
</Placemark>
<Placemark>
<name>やすらぎの湯</name>
<description></description>
<Point>
<coordinates>140.10337829589844,36.82231903076172,0</coordinates>
</Point>
</Placemark>
<Placemark>
<name>小船渡</name>
<description></description>
<Point>
<coordinates>140.12074279785156,36.836002349853516,0</coordinates>
</Point>
</Placemark>
<Placemark>
<name>那須スポーツパーク</name>
<description></description>
<Point>
<coordinates>140.11129760742188,36.81538009643555,0</coordinates>
</Point>
</Placemark>
<Placemark>
<name>湯津上支所</name>
<description></description>
<Point>
<coordinates>140.1039581298828,36.82109832763672,0</coordinates>
</Point>
</Placemark>
<Placemark>
<name>侍塚駐車場</name>
<description></description>
<Point>
<coordinates>140.12245178222656,36.81336975097656,0</coordinates>
</Point>
</Placemark>
<Placemark>
<name>上侍塚入口</name>
<description></description>
<Point>
<coordinates>140.122802734375,36.80522918701172,0</coordinates>
</Point>
</Placemark>
<Placemark>
<name>なかがわ水遊園</name>
<description></description>
<Point>
<coordinates>140.12747192382812,36.7904167175293,0</coordinates>
</Point>
</Placemark>
<Placemark>
<name>湯津上小学校入口</name>
<description></description>
<Point>
<coordinates>140.12222290039062,36.82731246948242,0</coordinates>
</Point>
</Placemark>
<Placemark>
<name>佐良土</name>
<description></description>
<Point>
<coordinates>140.12144470214844,36.78972625732422,0</coordinates>
</Point>
</Placemark>
<Placemark>
<name>笠石神社交差点</name>
<description></description>
<Point>
<coordinates>140.12184143066406,36.81794738769531,0</coordinates>
</Point>
</Placemark>
<Placemark>
<name>大豆田</name>
<description></description>
<Point>
<coordinates>140.11724853515625,36.85636520385742,0</coordinates>
</Point>
</Placemark>
<Placemark>
<name>下町</name>
<description></description>
<Point>
<coordinates>140.11624145507812,36.86207962036133,0</coordinates>
</Point>
</Placemark>
<Placemark>
<name>農協川西出張所前</name>
<description></description>
<Point>
<coordinates>140.11395263671875,36.862632751464844,0</coordinates>
</Point>
</Placemark>
<Placemark>
<name>堂川</name>
<description></description>
<Point>
<coordinates>140.11297607421875,36.86452865600586,0</coordinates>
</Point>
</Placemark>
<Placemark>
<name>大清水入口</name>
<description></description>
<Point>
<coordinates>140.10792541503906,36.86928939819336,0</coordinates>
</Point>
</Placemark>
<Placemark>
<name>北條光学入口</name>
<description></description>
<Point>
<coordinates>140.10655212402344,36.8719482421875,0</coordinates>
</Point>
</Placemark>
<Placemark>
<name>蜂巣十文字</name>
<description></description>
<Point>
<coordinates>140.1024169921875,36.87760925292969,0</coordinates>
</Point>
</Placemark>
<Placemark>
<name>狭原</name>
<description></description>
<Point>
<coordinates>140.1201171875,36.842498779296875,0</coordinates>
</Point>
</Placemark>
<Placemark>
<name>乙連沢上</name>
<description></description>
<Point>
<coordinates>140.07144165039062,36.910099029541016,0</coordinates>
</Point>
</Placemark>
<Placemark>
<name>乙連沢十文字</name>
<description></description>
<Point>
<coordinates>140.0787811279297,36.903839111328125,0</coordinates>
</Point>
</Placemark>
<Placemark>
<name>羽田小学校入口</name>
<description></description>
<Point>
<coordinates>140.08273315429688,36.90449142456055,0</coordinates>
</Point>
</Placemark>
<Placemark>
<name>乙連沢下</name>
<description></description>
<Point>
<coordinates>140.0833740234375,36.898765563964844,0</coordinates>
</Point>
</Placemark>
<Placemark>
<name>篠原境</name>
<description></description>
<Point>
<coordinates>140.0885772705078,36.89249801635742,0</coordinates>
</Point>
</Placemark>
<Placemark>
<name>篠原公民館前</name>
<description></description>
<Point>
<coordinates>140.0933074951172,36.8867301940918,0</coordinates>
</Point>
</Placemark>
<Placemark>
<name>多賀神社前</name>
<description></description>
<Point>
<coordinates>140.0980224609375,36.882266998291016,0</coordinates>
</Point>
</Placemark>
<Placemark>
<name>黒羽刑務所前</name>
<description></description>
<Point>
<coordinates>140.10626220703125,36.91099166870117,0</coordinates>
</Point>
</Placemark>
<Placemark>
<name>旧役場前</name>
<description></description>
<Point>
<coordinates>140.12051391601562,36.85935592651367,0</coordinates>
</Point>
</Placemark>
<Placemark>
<name>呑内</name>
<description></description>
<Point>
<coordinates>140.0972900390625,36.90736389160156,0</coordinates>
</Point>
</Placemark>
<Placemark>
<name>国際医療福祉大学</name>
<description></description>
<Point>
<coordinates>140.07167053222656,36.870506286621094,0</coordinates>
</Point>
</Placemark>
<Placemark>
<name>乙連沢</name>
<description></description>
<Point>
<coordinates>140.0795135498047,36.90398025512695,0</coordinates>
</Point>
</Placemark>
<Placemark>
<name>黒羽支所</name>
<description></description>
<Point>
<coordinates>140.121337890625,36.86284255981445,0</coordinates>
</Point>
</Placemark>
<Placemark>
<name>旧黒羽局前</name>
<description></description>
<Point>
<coordinates>140.1172332763672,36.86050033569336,0</coordinates>
</Point>
</Placemark>
<Placemark>
<name>くらしの館南</name>
<description></description>
<Point>
<coordinates>140.11935424804688,36.88119125366211,0</coordinates>
</Point>
</Placemark>
<Placemark>
<name>羽田</name>
<description></description>
<Point>
<coordinates>140.09402465820312,36.90592956542969,0</coordinates>
</Point>
</Placemark>
<Placemark>
<name>笠石神社前</name>
<description></description>
<Point>
<coordinates>140.1226806640625,36.81705093383789,0</coordinates>
</Point>
</Placemark>
<Placemark>
<name>旧玉生中学校入口</name>
<description></description>
<Point>
<coordinates>139.85369873046875,36.77870559692383,0</coordinates>
</Point>
</Placemark>
<Placemark>
<name>塩谷町役場</name>
<description></description>
<Point>
<coordinates>139.8511199951172,36.77751541137695,0</coordinates>
</Point>
</Placemark>
<Placemark>
<name>宇大前</name>
<description></description>
<Point>
<coordinates>139.91299438476562,36.55123519897461,0</coordinates>
</Point>
</Placemark>
<Placemark>
<name>ベルモール前</name>
<description></description>
<Point>
<coordinates>139.9283447265625,36.55298614501953,0</coordinates>
</Point>
</Placemark>
<Placemark>
<name>下彦間明神前</name>
<description></description>
<Point>
<coordinates>139.4903564453125,36.41731643676758,0</coordinates>
</Point>
</Placemark>
<Placemark>
<name>住山</name>
<description></description>
<Point>
<coordinates>139.80836486816406,36.518409729003906,0</coordinates>
</Point>
</Placemark>
<Placemark>
<name>イトーヨーカ堂・ハローワーク前</name>
<description></description>
<Point>
<coordinates>139.7528839111328,36.57057189941406,0</coordinates>
</Point>
</Placemark>
<Placemark>
<name>渋垂</name>
<description></description>
<Point>
<coordinates>139.56214904785156,36.52315139770508,0</coordinates>
</Point>
</Placemark>
<Placemark>
<name>山口</name>
<description></description>
<Point>
<coordinates>139.56915283203125,36.51262664794922,0</coordinates>
</Point>
</Placemark>
<Placemark>
<name>白桑田</name>
<description></description>
<Point>
<coordinates>139.8017578125,36.562400817871094,0</coordinates>
</Point>
</Placemark>
<Placemark>
<name>間々田小前</name>
<description></description>
<Point>
<coordinates>139.7644805908203,36.26816940307617,0</coordinates>
</Point>
</Placemark>
<Placemark>
<name>さくらのクリニック北</name>
<description></description>
<Point>
<coordinates>139.77914428710938,36.339324951171875,0</coordinates>
</Point>
</Placemark>
<Placemark>
<name>前田医院西</name>
<description></description>
<Point>
<coordinates>139.75381469726562,36.2592887878418,0</coordinates>
</Point>
</Placemark>
<Placemark>
<name>さくらのクリニック</name>
<description></description>
<Point>
<coordinates>139.7779083251953,36.337562561035156,0</coordinates>
</Point>
</Placemark>
<Placemark>
<name>喜連川仲町</name>
<description></description>
<Point>
<coordinates>140.0251007080078,36.7199821472168,0</coordinates>
</Point>
</Placemark>
<Placemark>
<name>烏山中学校</name>
<description></description>
<Point>
<coordinates>140.15234375,36.64777374267578,0</coordinates>
</Point>
</Placemark>
<Placemark>
<name>烏山駅前</name>
<description></description>
<Point>
<coordinates>140.15451049804688,36.650596618652344,0</coordinates>
</Point>
</Placemark>
<Placemark>
<name>烏山女子高校前</name>
<description></description>
<Point>
<coordinates>140.15341186523438,36.654212951660156,0</coordinates>
</Point>
</Placemark>
<Placemark>
<name>烏山仲町</name>
<description></description>
<Point>
<coordinates>140.15379333496094,36.655921936035156,0</coordinates>
</Point>
</Placemark>
<Placemark>
<name>石楠花橋</name>
<description></description>
<Point>
<coordinates>139.44627380371094,36.76552963256836,0</coordinates>
</Point>
</Placemark>
<Placemark>
<name>高校前</name>
<description></description>
<Point>
<coordinates>139.96461486816406,36.68918991088867,0</coordinates>
</Point>
</Placemark>
<Placemark>
<name>教習所</name>
<description></description>
<Point>
<coordinates>139.95782470703125,36.70929718017578,0</coordinates>
</Point>
</Placemark>
<Placemark>
<name>押上</name>
<description></description>
<Point>
<coordinates>139.9310760498047,36.71657180786133,0</coordinates>
</Point>
</Placemark>
<Placemark>
<name>大久保</name>
<description></description>
<Point>
<coordinates>139.90235900878906,36.731712341308594,0</coordinates>
</Point>
</Placemark>
<Placemark>
<name>上諸杉</name>
<description></description>
<Point>
<coordinates>139.8819580078125,36.73630142211914,0</coordinates>
</Point>
</Placemark>
<Placemark>
<name>大宮支所</name>
<description></description>
<Point>
<coordinates>139.87814331054688,36.73724365234375,0</coordinates>
</Point>
</Placemark>
<Placemark>
<name>金枝住宅</name>
<description></description>
<Point>
<coordinates>139.8646240234375,36.7547607421875,0</coordinates>
</Point>
</Placemark>
<Placemark>
<name>地蔵坂</name>
<description></description>
<Point>
<coordinates>139.84494018554688,36.77003479003906,0</coordinates>
</Point>
</Placemark>
<Placemark>
<name>幼稚園</name>
<description></description>
<Point>
<coordinates>139.83737182617188,36.76778793334961,0</coordinates>
</Point>
</Placemark>
<Placemark>
<name>芦場新田</name>
<description></description>
<Point>
<coordinates>139.8366241455078,36.768009185791016,0</coordinates>
</Point>
</Placemark>
<Placemark>
<name>芦場中央</name>
<description></description>
<Point>
<coordinates>139.8282012939453,36.77104187011719,0</coordinates>
</Point>
</Placemark>
<Placemark>
<name>芦場</name>
<description></description>
<Point>
<coordinates>139.82534790039062,36.772037506103516,0</coordinates>
</Point>
</Placemark>
<Placemark>
<name>宇大演習林</name>
<description></description>
<Point>
<coordinates>139.82040405273438,36.77451705932617,0</coordinates>
</Point>
</Placemark>
<Placemark>
<name>天頂</name>
<description></description>
<Point>
<coordinates>139.81484985351562,36.77664566040039,0</coordinates>
</Point>
</Placemark>
<Placemark>
<name>合柄橋</name>
<description></description>
<Point>
<coordinates>139.807373046875,36.776092529296875,0</coordinates>
</Point>
</Placemark>
<Placemark>
<name>船生板橋</name>
<description></description>
<Point>
<coordinates>139.8040313720703,36.774452209472656,0</coordinates>
</Point>
</Placemark>
<Placemark>
<name>船生東小</name>
<description></description>
<Point>
<coordinates>139.79983520507812,36.771480560302734,0</coordinates>
</Point>
</Placemark>
<Placemark>
<name>住宅入口</name>
<description></description>
<Point>
<coordinates>139.79583740234375,36.77053451538086,0</coordinates>
</Point>
</Placemark>
<Placemark>
<name>小学校前</name>
<description></description>
<Point>
<coordinates>139.78663635253906,36.768157958984375,0</coordinates>
</Point>
</Placemark>
<Placemark>
<name>清水</name>
<description></description>
<Point>
<coordinates>139.78189086914062,36.76749038696289,0</coordinates>
</Point>
</Placemark>
<Placemark>
<name>船生新谷</name>
<description></description>
<Point>
<coordinates>139.77574157714844,36.767555236816406,0</coordinates>
</Point>
</Placemark>
<Placemark>
<name>船生新田</name>
<description></description>
<Point>
<coordinates>139.7671661376953,36.76767349243164,0</coordinates>
</Point>
</Placemark>
<Placemark>
<name>駅入口</name>
<description></description>
<Point>
<coordinates>139.9254150390625,36.80337905883789,0</coordinates>
</Point>
</Placemark>
<Placemark>
<name>病院前</name>
<description></description>
<Point>
<coordinates>139.9265594482422,36.798057556152344,0</coordinates>
</Point>
</Placemark>
<Placemark>
<name>川崎小前</name>
<description></description>
<Point>
<coordinates>139.9241180419922,36.78812789916992,0</coordinates>
</Point>
</Placemark>
<Placemark>
<name>館ノ川</name>
<description></description>
<Point>
<coordinates>139.91920471191406,36.784881591796875,0</coordinates>
</Point>
</Placemark>
<Placemark>
<name>合会入口</name>
<description></description>
<Point>
<coordinates>139.91189575195312,36.78077697753906,0</coordinates>
</Point>
</Placemark>
<Placemark>
<name>高塩開拓入口</name>
<description></description>
<Point>
<coordinates>139.9002685546875,36.76767349243164,0</coordinates>
</Point>
</Placemark>
<Placemark>
<name>田所十文字</name>
<description></description>
<Point>
<coordinates>139.8865203857422,36.75350570678711,0</coordinates>
</Point>
</Placemark>
<Placemark>
<name>工業団地入口</name>
<description></description>
<Point>
<coordinates>139.8822021484375,36.752098083496094,0</coordinates>
</Point>
</Placemark>
<Placemark>
<name>柏屋酒店前</name>
<description></description>
<Point>
<coordinates>139.87313842773438,36.747379302978516,0</coordinates>
</Point>
</Placemark>
<Placemark>
<name>寿町</name>
<description></description>
<Point>
<coordinates>139.9277801513672,36.80922317504883,0</coordinates>
</Point>
</Placemark>
<Placemark>
<name>本町十字路</name>
<description></description>
<Point>
<coordinates>139.92361450195312,36.8082160949707,0</coordinates>
</Point>
</Placemark>
<Placemark>
<name>幸岡</name>
<description></description>
<Point>
<coordinates>139.91160583496094,36.801849365234375,0</coordinates>
</Point>
</Placemark>
<Placemark>
<name>公民館前</name>
<description></description>
<Point>
<coordinates>139.90768432617188,36.80008316040039,0</coordinates>
</Point>
</Placemark>
<Placemark>
<name>幸岡十字路</name>
<description></description>
<Point>
<coordinates>139.90403747558594,36.79927444458008,0</coordinates>
</Point>
</Placemark>
<Placemark>
<name>公園入口</name>
<description></description>
<Point>
<coordinates>139.89715576171875,36.80427551269531,0</coordinates>
</Point>
</Placemark>
<Placemark>
<name>合会</name>
<description></description>
<Point>
<coordinates>139.89505004882812,36.795631408691406,0</coordinates>
</Point>
</Placemark>
<Placemark>
<name>倉掛</name>
<description></description>
<Point>
<coordinates>139.8839874267578,36.79265213012695,0</coordinates>
</Point>
</Placemark>
<Placemark>
<name>喜佐見入口</name>
<description></description>
<Point>
<coordinates>139.87332153320312,36.789249420166016,0</coordinates>
</Point>
</Placemark>
<Placemark>
<name>田所入口</name>
<description></description>
<Point>
<coordinates>139.86383056640625,36.78290939331055,0</coordinates>
</Point>
</Placemark>
<Placemark>
<name>梍橋</name>
<description></description>
<Point>
<coordinates>139.8605194091797,36.7813835144043,0</coordinates>
</Point>
</Placemark>
<Placemark>
<name>道谷原</name>
<description></description>
<Point>
<coordinates>139.7484893798828,36.76933670043945,0</coordinates>
</Point>
</Placemark>
<Placemark>
<name>遅沢</name>
<description></description>
<Point>
<coordinates>139.7363739013672,36.77126693725586,0</coordinates>
</Point>
</Placemark>
<Placemark>
<name>下原</name>
<description></description>
<Point>
<coordinates>139.73062133789062,36.7715950012207,0</coordinates>
</Point>
</Placemark>
<Placemark>
<name>下高徳</name>
<description></description>
<Point>
<coordinates>139.72532653808594,36.77488327026367,0</coordinates>
</Point>
</Placemark>
<Placemark>
<name>合沢</name>
<description></description>
<Point>
<coordinates>139.71498107910156,36.778629302978516,0</coordinates>
</Point>
</Placemark>
<Placemark>
<name>高徳三叉路</name>
<description></description>
<Point>
<coordinates>139.71250915527344,36.781131744384766,0</coordinates>
</Point>
</Placemark>
<Placemark>
<name>新清水川橋</name>
<description></description>
<Point>
<coordinates>139.3703155517578,36.377864837646484,0</coordinates>
</Point>
</Placemark>
<Placemark>
<name>小俣駐在所前</name>
<description></description>
<Point>
<coordinates>139.3734130859375,36.37492370605469,0</coordinates>
</Point>
</Placemark>
<Placemark>
<name>野木明神</name>
<description></description>
<Point>
<coordinates>139.7110137939453,36.21134948730469,0</coordinates>
</Point>
</Placemark>
<Placemark>
<name>万町三丁目</name>
<description></description>
<Point>
<coordinates>139.7346954345703,36.382957458496094,0</coordinates>
</Point>
</Placemark>
<Placemark>
<name>栃木高校入口</name>
<description></description>
<Point>
<coordinates>139.7313995361328,36.38486099243164,0</coordinates>
</Point>
</Placemark>
<Placemark>
<name>野中</name>
<description></description>
<Point>
<coordinates>139.7201690673828,36.39687728881836,0</coordinates>
</Point>
</Placemark>
<Placemark>
<name>小林医院前</name>
<description></description>
<Point>
<coordinates>139.7072296142578,36.40679168701172,0</coordinates>
</Point>
</Placemark>
<Placemark>
<name>吹上新道</name>
<description></description>
<Point>
<coordinates>139.70460510253906,36.40879821777344,0</coordinates>
</Point>
</Placemark>
<Placemark>
<name>サントリー入口</name>
<description></description>
<Point>
<coordinates>139.69241333007812,36.418155670166016,0</coordinates>
</Point>
</Placemark>
<Placemark>
<name>万町一丁目</name>
<description></description>
<Point>
<coordinates>139.73387145996094,36.38020324707031,0</coordinates>
</Point>
</Placemark>
<Placemark>
<name>下都賀病院前</name>
<description></description>
<Point>
<coordinates>139.72642517089844,36.37876892089844,0</coordinates>
</Point>
</Placemark>
<Placemark>
<name>千塚小学校前</name>
<description></description>
<Point>
<coordinates>139.69952392578125,36.41266632080078,0</coordinates>
</Point>
</Placemark>
<Placemark>
<name>運動公園入口</name>
<description></description>
<Point>
<coordinates>139.71714782714844,36.399253845214844,0</coordinates>
</Point>
</Placemark>
<Placemark>
<name>十二社前</name>
<description></description>
<Point>
<coordinates>139.72413635253906,36.391387939453125,0</coordinates>
</Point>
</Placemark>
<Placemark>
<name>東武ギフト前</name>
<description></description>
<Point>
<coordinates>139.7337646484375,36.37989044189453,0</coordinates>
</Point>
</Placemark>
<Placemark>
<name>市役所前</name>
<description></description>
<Point>
<coordinates>139.72996520996094,36.38161849975586,0</coordinates>
</Point>
</Placemark>
<Placemark>
<name>日ノ出五差路北</name>
<description></description>
<Point>
<coordinates>139.7403106689453,36.38664627075195,0</coordinates>
</Point>
</Placemark>
<Placemark>
<name>新栃木駅前</name>
<description></description>
<Point>
<coordinates>139.74200439453125,36.38982391357422,0</coordinates>
</Point>
</Placemark>
<Placemark>
<name>新栃木駅西</name>
<description></description>
<Point>
<coordinates>139.73828125,36.38981246948242,0</coordinates>
</Point>
</Placemark>
<Placemark>
<name>ヤオハンアイム前</name>
<description></description>
<Point>
<coordinates>139.7350616455078,36.39023208618164,0</coordinates>
</Point>
</Placemark>
<Placemark>
<name>油伝前</name>
<description></description>
<Point>
<coordinates>139.73431396484375,36.38935470581055,0</coordinates>
</Point>
</Placemark>
<Placemark>
<name>岡田記念館前</name>
<description></description>
<Point>
<coordinates>139.73330688476562,36.38642120361328,0</coordinates>
</Point>
</Placemark>
<Placemark>
<name>嘉右衛門町通入口</name>
<description></description>
<Point>
<coordinates>139.7342071533203,36.38459014892578,0</coordinates>
</Point>
</Placemark>
<Placemark>
<name>大森町</name>
<description></description>
<Point>
<coordinates>139.69703674316406,36.414554595947266,0</coordinates>
</Point>
</Placemark>
<Placemark>
<name>梓</name>
<description></description>
<Point>
<coordinates>139.68763732910156,36.42570877075195,0</coordinates>
</Point>
</Placemark>
<Placemark>
<name>出流観音</name>
<description></description>
<Point>
<coordinates>139.5955047607422,36.472408294677734,0</coordinates>
</Point>
</Placemark>
<Placemark>
<name>出流中央</name>
<description></description>
<Point>
<coordinates>139.5961151123047,36.47117233276367,0</coordinates>
</Point>
</Placemark>
<Placemark>
<name>出流橋</name>
<description></description>
<Point>
<coordinates>139.59719848632812,36.46931457519531,0</coordinates>
</Point>
</Placemark>
<Placemark>
<name>出流工場</name>
<description></description>
<Point>
<coordinates>139.5989990234375,36.4655876159668,0</coordinates>
</Point>
</Placemark>
<Placemark>
<name>木村前</name>
<description></description>
<Point>
<coordinates>139.61215209960938,36.455230712890625,0</coordinates>
</Point>
</Placemark>
<Placemark>
<name>岡田前</name>
<description></description>
<Point>
<coordinates>139.6177520751953,36.45402526855469,0</coordinates>
</Point>
</Placemark>
<Placemark>
<name>横倉前</name>
<description></description>
<Point>
<coordinates>139.61614990234375,36.45405197143555,0</coordinates>
</Point>
</Placemark>
<Placemark>
<name>羽鶴</name>
<description></description>
<Point>
<coordinates>139.60552978515625,36.45887756347656,0</coordinates>
</Point>
</Placemark>
<Placemark>
<name>星野遺跡前</name>
<description></description>
<Point>
<coordinates>139.6295928955078,36.47073745727539,0</coordinates>
</Point>
</Placemark>
<Placemark>
<name>星野高内</name>
<description></description>
<Point>
<coordinates>139.63406372070312,36.46746826171875,0</coordinates>
</Point>
</Placemark>
<Placemark>
<name>熊下橋</name>
<description></description>
<Point>
<coordinates>139.63587951660156,36.462406158447266,0</coordinates>
</Point>
</Placemark>
<Placemark>
<name>熊下</name>
<description></description>
<Point>
<coordinates>139.63641357421875,36.45904541015625,0</coordinates>
</Point>
</Placemark>
<Placemark>
<name>鍋山新田</name>
<description></description>
<Point>
<coordinates>139.6370086669922,36.457183837890625,0</coordinates>
</Point>
</Placemark>
<Placemark>
<name>鍋山石川前</name>
<description></description>
<Point>
<coordinates>139.63844299316406,36.453617095947266,0</coordinates>
</Point>
</Placemark>
<Placemark>
<name>下河原</name>
<description></description>
<Point>
<coordinates>139.64002990722656,36.450592041015625,0</coordinates>
</Point>
</Placemark>
<Placemark>
<name>山際</name>
<description></description>
<Point>
<coordinates>139.6341552734375,36.45215606689453,0</coordinates>
</Point>
</Placemark>
<Placemark>
<name>田政前</name>
<description></description>
<Point>
<coordinates>139.62628173828125,36.45182800292969,0</coordinates>
</Point>
</Placemark>
<Placemark>
<name>宝蓮寺</name>
<description></description>
<Point>
<coordinates>139.64434814453125,36.44691848754883,0</coordinates>
</Point>
</Placemark>
<Placemark>
<name>寺尾学校前</name>
<description></description>
<Point>
<coordinates>139.646728515625,36.44484329223633,0</coordinates>
</Point>
</Placemark>
<Placemark>
<name>梅沢新町</name>
<description></description>
<Point>
<coordinates>139.65219116210938,36.44160842895508,0</coordinates>
</Point>
</Placemark>
<Placemark>
<name>梅沢ドライブイン</name>
<description></description>
<Point>
<coordinates>139.6579132080078,36.43790054321289,0</coordinates>
</Point>
</Placemark>
<Placemark>
<name>大久保</name>
<description></description>
<Point>
<coordinates>139.6671600341797,36.43499755859375,0</coordinates>
</Point>
</Placemark>
<Placemark>
<name>尻内篠崎前</name>
<description></description>
<Point>
<coordinates>139.67747497558594,36.431297302246094,0</coordinates>
</Point>
</Placemark>
<Placemark>
<name>尻内入口</name>
<description></description>
<Point>
<coordinates>139.6836395263672,36.42887878417969,0</coordinates>
</Point>
</Placemark>
<Placemark>
<name>尻内石井前</name>
<description></description>
<Point>
<coordinates>139.6746368408203,36.430076599121094,0</coordinates>
</Point>
</Placemark>
<Placemark>
<name>辻入口</name>
<description></description>
<Point>
<coordinates>139.6648406982422,36.43583297729492,0</coordinates>
</Point>
</Placemark>
<Placemark>
<name>根古屋</name>
<description></description>
<Point>
<coordinates>139.6374969482422,36.450828552246094,0</coordinates>
</Point>
</Placemark>
<Placemark>
<name>星野遺跡入口</name>
<description></description>
<Point>
<coordinates>139.6281280517578,36.475093841552734,0</coordinates>
</Point>
</Placemark>
<Placemark>
<name>福寿園</name>
<description></description>
<Point>
<coordinates>139.69424438476562,36.41556167602539,0</coordinates>
</Point>
</Placemark>
<Placemark>
<name>梅沢郵便局前</name>
<description></description>
<Point>
<coordinates>139.64881896972656,36.443790435791016,0</coordinates>
</Point>
</Placemark>
<Placemark>
<name>とりせん駅南店前</name>
<description></description>
<Point>
<coordinates>139.73008728027344,36.368431091308594,0</coordinates>
</Point>
</Placemark>
<Placemark>
<name>奈良渕</name>
<description></description>
<Point>
<coordinates>139.58067321777344,36.33462905883789,0</coordinates>
</Point>
</Placemark>
<Placemark>
<name>イオン佐野新都市ショッピングセンター</name>
<description></description>
<Point>
<coordinates>139.60496520996094,36.29903030395508,0</coordinates>
</Point>
</Placemark>
<Placemark>
<name>佐野駅</name>
<description></description>
<Point>
<coordinates>139.5790557861328,36.31632995605469,0</coordinates>
</Point>
</Placemark>
<Placemark>
<name>厚生病院</name>
<description></description>
<Point>
<coordinates>139.5723876953125,36.324066162109375,0</coordinates>
</Point>
</Placemark>
<Placemark>
<name>大坂入口</name>
<description></description>
<Point>
<coordinates>139.48155212402344,36.373748779296875,0</coordinates>
</Point>
</Placemark>
<Placemark>
<name>持船入口</name>
<description></description>
<Point>
<coordinates>139.4802703857422,36.37083053588867,0</coordinates>
</Point>
</Placemark>
<Placemark>
<name>登戸橋</name>
<description></description>
<Point>
<coordinates>139.478271484375,36.36553192138672,0</coordinates>
</Point>
</Placemark>
<Placemark>
<name>菅田</name>
<description></description>
<Point>
<coordinates>139.47657775878906,36.363059997558594,0</coordinates>
</Point>
</Placemark>
<Placemark>
<name>北郷支所前</name>
<description></description>
<Point>
<coordinates>139.47451782226562,36.35942840576172,0</coordinates>
</Point>
</Placemark>
<Placemark>
<name>北郷公民館前</name>
<description></description>
<Point>
<coordinates>139.47299194335938,36.35614013671875,0</coordinates>
</Point>
</Placemark>
<Placemark>
<name>江川火の見下</name>
<description></description>
<Point>
<coordinates>139.46405029296875,36.35410690307617,0</coordinates>
</Point>
</Placemark>
<Placemark>
<name>本城一丁目</name>
<description></description>
<Point>
<coordinates>139.45974731445312,36.34982681274414,0</coordinates>
</Point>
</Placemark>
<Placemark>
<name>蔵王様前</name>
<description></description>
<Point>
<coordinates>139.45587158203125,36.340248107910156,0</coordinates>
</Point>
</Placemark>
<Placemark>
<name>旭町</name>
<description></description>
<Point>
<coordinates>139.454345703125,36.33931350708008,0</coordinates>
</Point>
</Placemark>
<Placemark>
<name>入名草</name>
<description></description>
<Point>
<coordinates>139.45962524414062,36.417476654052734,0</coordinates>
</Point>
</Placemark>
<Placemark>
<name>箕輪</name>
<description></description>
<Point>
<coordinates>139.4626922607422,36.41687774658203,0</coordinates>
</Point>
</Placemark>
<Placemark>
<name>臥竜院</name>
<description></description>
<Point>
<coordinates>139.46629333496094,36.413578033447266,0</coordinates>
</Point>
</Placemark>
<Placemark>
<name>足松</name>
<description></description>
<Point>
<coordinates>139.4701385498047,36.41023254394531,0</coordinates>
</Point>
</Placemark>
<Placemark>
<name>須花</name>
<description></description>
<Point>
<coordinates>139.4955596923828,36.40925216674805,0</coordinates>
</Point>
</Placemark>
<Placemark>
<name>田中</name>
<description></description>
<Point>
<coordinates>139.47055053710938,36.40851593017578,0</coordinates>
</Point>
</Placemark>
<Placemark>
<name>大橋</name>
<description></description>
<Point>
<coordinates>139.4720458984375,36.404266357421875,0</coordinates>
</Point>
</Placemark>
<Placemark>
<name>江保地</name>
<description></description>
<Point>
<coordinates>139.47496032714844,36.39961242675781,0</coordinates>
</Point>
</Placemark>
<Placemark>
<name>日光神社</name>
<description></description>
<Point>
<coordinates>139.47813415527344,36.394775390625,0</coordinates>
</Point>
</Placemark>
<Placemark>
<name>峠下</name>
<description></description>
<Point>
<coordinates>139.48231506347656,36.3916015625,0</coordinates>
</Point>
</Placemark>
<Placemark>
<name>金蔵院</name>
<description></description>
<Point>
<coordinates>139.4800262451172,36.388328552246094,0</coordinates>
</Point>
</Placemark>
<Placemark>
<name>名草小学校</name>
<description></description>
<Point>
<coordinates>139.48016357421875,36.386531829833984,0</coordinates>
</Point>
</Placemark>
<Placemark>
<name>下宿橋</name>
<description></description>
<Point>
<coordinates>139.480224609375,36.384742736816406,0</coordinates>
</Point>
</Placemark>
<Placemark>
<name>診療所</name>
<description></description>
<Point>
<coordinates>139.48043823242188,36.37983703613281,0</coordinates>
</Point>
</Placemark>
<Placemark>
<name>稲荷前</name>
<description></description>
<Point>
<coordinates>139.49330139160156,36.40644836425781,0</coordinates>
</Point>
</Placemark>
<Placemark>
<name>上宿</name>
<description></description>
<Point>
<coordinates>139.50303649902344,36.40740203857422,0</coordinates>
</Point>
</Placemark>
<Placemark>
<name>本所入口</name>
<description></description>
<Point>
<coordinates>139.5108184814453,36.40229034423828,0</coordinates>
</Point>
</Placemark>
<Placemark>
<name>総合センター前</name>
<description></description>
<Point>
<coordinates>139.5208740234375,36.401798248291016,0</coordinates>
</Point>
</Placemark>
<Placemark>
<name>川西</name>
<description></description>
<Point>
<coordinates>139.5307159423828,36.397274017333984,0</coordinates>
</Point>
</Placemark>
<Placemark>
<name>梅園入口</name>
<description></description>
<Point>
<coordinates>139.53370666503906,36.3934211730957,0</coordinates>
</Point>
</Placemark>
<Placemark>
<name>山形小学校前</name>
<description></description>
<Point>
<coordinates>139.53713989257812,36.386680603027344,0</coordinates>
</Point>
</Placemark>
<Placemark>
<name>片峰</name>
<description></description>
<Point>
<coordinates>139.54539489746094,36.38405990600586,0</coordinates>
</Point>
</Placemark>
<Placemark>
<name>上西原</name>
<description></description>
<Point>
<coordinates>139.55052185058594,36.380428314208984,0</coordinates>
</Point>
</Placemark>
<Placemark>
<name>木戸内</name>
<description></description>
<Point>
<coordinates>139.55889892578125,36.375667572021484,0</coordinates>
</Point>
</Placemark>
<Placemark>
<name>羽室橋</name>
<description></description>
<Point>
<coordinates>139.56201171875,36.37337875366211,0</coordinates>
</Point>
</Placemark>
<Placemark>
<name>仲町</name>
<description></description>
<Point>
<coordinates>139.57786560058594,36.36878967285156,0</coordinates>
</Point>
</Placemark>
<Placemark>
<name>角町</name>
<description></description>
<Point>
<coordinates>139.5791015625,36.367469787597656,0</coordinates>
</Point>
</Placemark>
<Placemark>
<name>田沼駅前</name>
<description></description>
<Point>
<coordinates>139.5808563232422,36.367549896240234,0</coordinates>
</Point>
</Placemark>
<Placemark>
<name>佐野市民病院</name>
<description></description>
<Point>
<coordinates>139.5825958251953,36.37104034423828,0</coordinates>
</Point>
</Placemark>
<Placemark>
<name>梶内</name>
<description></description>
<Point>
<coordinates>139.57150268554688,36.404823303222656,0</coordinates>
</Point>
</Placemark>
<Placemark>
<name>三好小学校前</name>
<description></description>
<Point>
<coordinates>139.5702362060547,36.39830780029297,0</coordinates>
</Point>
</Placemark>
<Placemark>
<name>和田</name>
<description></description>
<Point>
<coordinates>139.57330322265625,36.39199447631836,0</coordinates>
</Point>
</Placemark>
<Placemark>
<name>戸室神社前</name>
<description></description>
<Point>
<coordinates>139.57379150390625,36.38651657104492,0</coordinates>
</Point>
</Placemark>
<Placemark>
<name>戸室</name>
<description></description>
<Point>
<coordinates>139.57394409179688,36.38151168823242,0</coordinates>
</Point>
</Placemark>
<Placemark>
<name>田沼小学校前</name>
<description></description>
<Point>
<coordinates>139.57818603515625,36.36555480957031,0</coordinates>
</Point>
</Placemark>
<Placemark>
<name>田沼下町</name>
<description></description>
<Point>
<coordinates>139.57594299316406,36.36176681518555,0</coordinates>
</Point>
</Placemark>