<?xml version="1.0" encoding="UTF-8" ?>
<gpx xmlns="http://www.topografix.com/GPX/1/1" version="1.1" creator="osmtracker-android" xmlns:xsi="http://www.w3.org/2001/XMLSchema-instance" xsi:schemaLocation="http://www.topografix.com/GPX/1/1 http://www.topografix.com/GPX/1/1/gpx.xsd ">
<metadata>
<name><![CDATA[バス停 : 宮城]]></name>
<desc><![CDATA[国土数値情報に基づく]]></desc>
</metadata>
<wpt lat="38.31411361694336" lon="141.02232360839844">
 <time>2015-12-06T02:24:46ZZ</time>
 <name><![CDATA[市役所]]></name>
</wpt>

<wpt lat="38.78056335449219" lon="141.11415100097656">
 <time>2015-12-06T02:24:46ZZ</time>
 <name><![CDATA[小谷町]]></name>
</wpt>

<wpt lat="38.261722564697266" lon="140.87399291992188">
 <time>2015-12-06T02:24:46ZZ</time>
 <name><![CDATA[仙台電力ビル前]]></name>
</wpt>

<wpt lat="38.263023376464844" lon="140.87933349609375">
 <time>2015-12-06T02:24:46ZZ</time>
 <name><![CDATA[仙台・宮城交通高速案内所]]></name>
</wpt>

<wpt lat="38.31757354736328" lon="141.0243377685547">
 <time>2015-12-06T02:24:46ZZ</time>
 <name><![CDATA[商工会議所前]]></name>
</wpt>

<wpt lat="38.325138092041016" lon="141.00555419921875">
 <time>2015-12-06T02:24:46ZZ</time>
 <name><![CDATA[後楽]]></name>
</wpt>

<wpt lat="38.328033447265625" lon="141.00743103027344">
 <time>2015-12-06T02:24:46ZZ</time>
 <name><![CDATA[清水沢アパート前]]></name>
</wpt>

<wpt lat="38.32992935180664" lon="141.0259246826172">
 <time>2015-12-06T02:24:46ZZ</time>
 <name><![CDATA[松陽台一丁目]]></name>
</wpt>

<wpt lat="38.32560348510742" lon="141.02943420410156">
 <time>2015-12-06T02:24:46ZZ</time>
 <name><![CDATA[藤倉二丁目]]></name>
</wpt>

<wpt lat="38.330257415771484" lon="141.0201873779297">
 <time>2015-12-06T02:24:46ZZ</time>
 <name><![CDATA[県営住宅前]]></name>
</wpt>

<wpt lat="38.33113098144531" lon="141.0234832763672">
 <time>2015-12-06T02:24:46ZZ</time>
 <name><![CDATA[松陽台三丁目]]></name>
</wpt>

<wpt lat="38.32884979248047" lon="141.045166015625">
 <time>2015-12-06T02:24:46ZZ</time>
 <name><![CDATA[水産加工団地]]></name>
</wpt>

<wpt lat="38.318233489990234" lon="141.02737426757812">
 <time>2015-12-06T02:24:46ZZ</time>
 <name><![CDATA[観光棧橋入口]]></name>
</wpt>

<wpt lat="38.31008529663086" lon="141.01417541503906">
 <time>2015-12-06T02:24:46ZZ</time>
 <name><![CDATA[市立病院入口]]></name>
</wpt>

<wpt lat="38.2503662109375" lon="141.4961700439453">
 <time>2015-12-06T02:24:46ZZ</time>
 <name><![CDATA[根組浜]]></name>
</wpt>

<wpt lat="38.273921966552734" lon="141.45985412597656">
 <time>2015-12-06T02:24:46ZZ</time>
 <name><![CDATA[網地港]]></name>
</wpt>

<wpt lat="38.2721061706543" lon="141.4597625732422">
 <time>2015-12-06T02:24:46ZZ</time>
 <name><![CDATA[上ノ山]]></name>
</wpt>

<wpt lat="38.279483795166016" lon="141.46578979492188">
 <time>2015-12-06T02:24:46ZZ</time>
 <name><![CDATA[池の浜]]></name>
</wpt>

<wpt lat="38.271358489990234" lon="141.46322631835938">
 <time>2015-12-06T02:24:46ZZ</time>
 <name><![CDATA[栗ヶ崎]]></name>
</wpt>

<wpt lat="38.266273498535156" lon="141.47885131835938">
 <time>2015-12-06T02:24:46ZZ</time>
 <name><![CDATA[網小医院]]></name>
</wpt>

<wpt lat="38.320655822753906" lon="141.4712371826172">
 <time>2015-12-06T02:24:46ZZ</time>
 <name><![CDATA[小渕公民館]]></name>
</wpt>

<wpt lat="38.29447937011719" lon="141.5095672607422">
 <time>2015-12-06T02:24:46ZZ</time>
 <name><![CDATA[鮎川港]]></name>
</wpt>

<wpt lat="38.30123519897461" lon="141.51011657714844">
 <time>2015-12-06T02:24:46ZZ</time>
 <name><![CDATA[第1保育所]]></name>
</wpt>

<wpt lat="38.299312591552734" lon="141.50003051757812">
 <time>2015-12-06T02:24:46ZZ</time>
 <name><![CDATA[牡鹿病院]]></name>
</wpt>

<wpt lat="38.29780960083008" lon="141.49945068359375">
 <time>2015-12-06T02:24:46ZZ</time>
 <name><![CDATA[福祉パーク]]></name>
</wpt>

<wpt lat="38.32795715332031" lon="141.52334594726562">
 <time>2015-12-06T02:24:46ZZ</time>
 <name><![CDATA[新山]]></name>
</wpt>

<wpt lat="38.3034782409668" lon="141.51220703125">
 <time>2015-12-06T02:24:46ZZ</time>
 <name><![CDATA[鮎川金山]]></name>
</wpt>

<wpt lat="38.29832458496094" lon="141.50376892089844">
 <time>2015-12-06T02:24:46ZZ</time>
 <name><![CDATA[牡鹿中学校]]></name>
</wpt>

<wpt lat="38.352378845214844" lon="141.46151733398438">
 <time>2015-12-06T02:24:46ZZ</time>
 <name><![CDATA[小網倉海岸]]></name>
</wpt>

<wpt lat="38.365753173828125" lon="141.48904418945312">
 <time>2015-12-06T02:24:46ZZ</time>
 <name><![CDATA[谷川]]></name>
</wpt>

<wpt lat="38.367122650146484" lon="141.48545837402344">
 <time>2015-12-06T02:24:46ZZ</time>
 <name><![CDATA[栽漁センター]]></name>
</wpt>

<wpt lat="38.368221282958984" lon="141.49586486816406">
 <time>2015-12-06T02:24:46ZZ</time>
 <name><![CDATA[祝浜]]></name>
</wpt>

<wpt lat="38.35563278198242" lon="141.51724243164062">
 <time>2015-12-06T02:24:46ZZ</time>
 <name><![CDATA[泊浜入口]]></name>
</wpt>

<wpt lat="38.356834411621094" lon="141.5222625732422">
 <time>2015-12-06T02:24:46ZZ</time>
 <name><![CDATA[泊浜海岸]]></name>
</wpt>

<wpt lat="38.33375930786133" lon="141.4744415283203">
 <time>2015-12-06T02:24:46ZZ</time>
 <name><![CDATA[大原出張所]]></name>
</wpt>

<wpt lat="38.295860290527344" lon="141.51025390625">
 <time>2015-12-06T02:24:46ZZ</time>
 <name><![CDATA[鮎川南]]></name>
</wpt>

<wpt lat="38.30108642578125" lon="141.509033203125">
 <time>2015-12-06T02:24:46ZZ</time>
 <name><![CDATA[牡鹿総合支所]]></name>
</wpt>

<wpt lat="38.3732795715332" lon="141.4816436767578">
 <time>2015-12-06T02:24:46ZZ</time>
 <name><![CDATA[大谷川]]></name>
</wpt>

<wpt lat="38.38225555419922" lon="141.48495483398438">
 <time>2015-12-06T02:24:46ZZ</time>
 <name><![CDATA[鮫浦入口]]></name>
</wpt>

<wpt lat="38.383636474609375" lon="141.48831176757812">
 <time>2015-12-06T02:24:46ZZ</time>
 <name><![CDATA[鮫浦]]></name>
</wpt>

<wpt lat="38.39053726196289" lon="141.5162811279297">
 <time>2015-12-06T02:24:46ZZ</time>
 <name><![CDATA[前網]]></name>
</wpt>

<wpt lat="38.38972854614258" lon="141.52566528320312">
 <time>2015-12-06T02:24:46ZZ</time>
 <name><![CDATA[寄磯]]></name>
</wpt>

<wpt lat="38.323272705078125" lon="141.49522399902344">
 <time>2015-12-06T02:24:46ZZ</time>
 <name><![CDATA[寺山]]></name>
</wpt>

<wpt lat="38.250850677490234" lon="141.49583435058594">
 <time>2015-12-06T02:24:46ZZ</time>
 <name><![CDATA[根組車庫]]></name>
</wpt>

<wpt lat="38.255699157714844" lon="141.49380493164062">
 <time>2015-12-06T02:24:46ZZ</time>
 <name><![CDATA[長渡港]]></name>
</wpt>

<wpt lat="38.32665252685547" lon="141.04498291015625">
 <time>2015-12-06T02:24:46ZZ</time>
 <name><![CDATA[魚卸市場前]]></name>
</wpt>

<wpt lat="38.30559539794922" lon="141.02357482910156">
 <time>2015-12-06T02:24:46ZZ</time>
 <name><![CDATA[三中]]></name>
</wpt>

<wpt lat="38.30885696411133" lon="141.00711059570312">
 <time>2015-12-06T02:24:46ZZ</time>
 <name><![CDATA[玉川一丁目]]></name>
</wpt>

<wpt lat="38.316402435302734" lon="141.00009155273438">
 <time>2015-12-06T02:24:46ZZ</time>
 <name><![CDATA[向ヶ丘]]></name>
</wpt>

<wpt lat="38.322898864746094" lon="141.00538635253906">
 <time>2015-12-06T02:24:46ZZ</time>
 <name><![CDATA[栄町]]></name>
</wpt>

<wpt lat="38.323360443115234" lon="141.02430725097656">
 <time>2015-12-06T02:24:46ZZ</time>
 <name><![CDATA[塩釜警察署前]]></name>
</wpt>

<wpt lat="38.30670928955078" lon="141.02137756347656">
 <time>2015-12-06T02:24:46ZZ</time>
 <name><![CDATA[花立]]></name>
</wpt>

<wpt lat="38.31711196899414" lon="141.0111083984375">
 <time>2015-12-06T02:24:46ZZ</time>
 <name><![CDATA[塩釜神社前]]></name>
</wpt>

<wpt lat="38.31698226928711" lon="141.02073669433594">
 <time>2015-12-06T02:24:46ZZ</time>
 <name><![CDATA[海岸通り]]></name>
</wpt>

<wpt lat="38.3217658996582" lon="141.00799560546875">
 <time>2015-12-06T02:24:46ZZ</time>
 <name><![CDATA[泉沢]]></name>
</wpt>

<wpt lat="38.3107795715332" lon="141.0106658935547">
 <time>2015-12-06T02:24:46ZZ</time>
 <name><![CDATA[塩釜公民館入口]]></name>
</wpt>

<wpt lat="38.31223678588867" lon="141.0176544189453">
 <time>2015-12-06T02:24:46ZZ</time>
 <name><![CDATA[西塩釜駅前]]></name>
</wpt>

<wpt lat="38.32921600341797" lon="141.0120849609375">
 <time>2015-12-06T02:24:46ZZ</time>
 <name><![CDATA[体育館ゴルフ場前]]></name>
</wpt>

<wpt lat="38.3294563293457" lon="141.01329040527344">
 <time>2015-12-06T02:24:46ZZ</time>
 <name><![CDATA[今宮町]]></name>
</wpt>

<wpt lat="38.32097625732422" lon="141.02256774902344">
 <time>2015-12-06T02:24:46ZZ</time>
 <name><![CDATA[北浜二丁目]]></name>
</wpt>

<wpt lat="38.32933807373047" lon="141.02821350097656">
 <time>2015-12-06T02:24:46ZZ</time>
 <name><![CDATA[藤倉三丁目]]></name>
</wpt>

<wpt lat="38.323951721191406" lon="141.0282745361328">
 <time>2015-12-06T02:24:46ZZ</time>
 <name><![CDATA[塩釜保健センター前]]></name>
</wpt>

<wpt lat="38.32996368408203" lon="141.037841796875">
 <time>2015-12-06T02:24:46ZZ</time>
 <name><![CDATA[塩釜営業所前]]></name>
</wpt>

<wpt lat="38.331417083740234" lon="141.04037475585938">
 <time>2015-12-06T02:24:46ZZ</time>
 <name><![CDATA[新浜保育所前]]></name>
</wpt>

<wpt lat="38.3316535949707" lon="141.04376220703125">
 <time>2015-12-06T02:24:46ZZ</time>
 <name><![CDATA[職業安定所前塩釜温水プール入口]]></name>
</wpt>

<wpt lat="38.315032958984375" lon="141.02630615234375">
 <time>2015-12-06T02:24:46ZZ</time>
 <name><![CDATA[尾島町]]></name>
</wpt>

<wpt lat="38.31529235839844" lon="141.00128173828125">
 <time>2015-12-06T02:24:46ZZ</time>
 <name><![CDATA[大日向]]></name>
</wpt>

<wpt lat="38.32640075683594" lon="141.04017639160156">
 <time>2015-12-06T02:24:46ZZ</time>
 <name><![CDATA[新浜町一丁目]]></name>
</wpt>

<wpt lat="38.3299446105957" lon="141.01527404785156">
 <time>2015-12-06T02:24:46ZZ</time>
 <name><![CDATA[吉津入口]]></name>
</wpt>

<wpt lat="38.31791687011719" lon="141.02052307128906">
 <time>2015-12-06T02:24:46ZZ</time>
 <name><![CDATA[本町]]></name>
</wpt>

<wpt lat="38.30120086669922" lon="141.03060913085938">
 <time>2015-12-06T02:24:46ZZ</time>
 <name><![CDATA[芦畔]]></name>
</wpt>

<wpt lat="38.33098602294922" lon="141.03367614746094">
 <time>2015-12-06T02:24:46ZZ</time>
 <name><![CDATA[杉の入小学校前]]></name>
</wpt>

<wpt lat="38.326087951660156" lon="141.03125">
 <time>2015-12-06T02:24:46ZZ</time>
 <name><![CDATA[東塩釜口駅西口]]></name>
</wpt>

<wpt lat="38.326454162597656" lon="141.0352020263672">
 <time>2015-12-06T02:24:46ZZ</time>
 <name><![CDATA[JA塩釜支所前]]></name>
</wpt>

<wpt lat="38.315120697021484" lon="141.02413940429688">
 <time>2015-12-06T02:24:46ZZ</time>
 <name><![CDATA[尾島中通り]]></name>
</wpt>

<wpt lat="38.33232879638672" lon="141.03585815429688">
 <time>2015-12-06T02:24:46ZZ</time>
 <name><![CDATA[杉の入一丁目]]></name>
</wpt>

<wpt lat="38.317352294921875" lon="141.02938842773438">
 <time>2015-12-06T02:24:46ZZ</time>
 <name><![CDATA[塩釜郵便局前]]></name>
</wpt>

<wpt lat="38.31730270385742" lon="141.0176544189453">
 <time>2015-12-06T02:24:46ZZ</time>
 <name><![CDATA[仁井町]]></name>
</wpt>

<wpt lat="38.31776809692383" lon="141.01953125">
 <time>2015-12-06T02:24:46ZZ</time>
 <name><![CDATA[釜の前]]></name>
</wpt>

<wpt lat="38.314998626708984" lon="141.03062438964844">
 <time>2015-12-06T02:24:46ZZ</time>
 <name><![CDATA[中の島北]]></name>
</wpt>

<wpt lat="38.313629150390625" lon="141.03211975097656">
 <time>2015-12-06T02:24:46ZZ</time>
 <name><![CDATA[中の島南]]></name>
</wpt>

<wpt lat="38.311431884765625" lon="141.0330047607422">
 <time>2015-12-06T02:24:46ZZ</time>
 <name><![CDATA[舟入]]></name>
</wpt>

<wpt lat="38.30256271362305" lon="141.03677368164062">
 <time>2015-12-06T02:24:46ZZ</time>
 <name><![CDATA[貞山通]]></name>
</wpt>

<wpt lat="38.30134582519531" lon="141.03219604492188">
 <time>2015-12-06T02:24:46ZZ</time>
 <name><![CDATA[牛生東]]></name>
</wpt>

<wpt lat="38.30293655395508" lon="141.02915954589844">
 <time>2015-12-06T02:24:46ZZ</time>
 <name><![CDATA[牛生西]]></name>
</wpt>

<wpt lat="38.30500411987305" lon="141.02606201171875">
 <time>2015-12-06T02:24:46ZZ</time>
 <name><![CDATA[笠神]]></name>
</wpt>

<wpt lat="38.30973815917969" lon="141.019775390625">
 <time>2015-12-06T02:24:46ZZ</time>
 <name><![CDATA[桜ヶ丘]]></name>
</wpt>

<wpt lat="38.30696487426758" lon="141.0072479248047">
 <time>2015-12-06T02:24:46ZZ</time>
 <name><![CDATA[野田の玉川]]></name>
</wpt>

<wpt lat="38.306190490722656" lon="141.0052032470703">
 <time>2015-12-06T02:24:46ZZ</time>
 <name><![CDATA[法務局]]></name>
</wpt>

<wpt lat="38.30629348754883" lon="141.00311279296875">
 <time>2015-12-06T02:24:46ZZ</time>
 <name><![CDATA[袖野田]]></name>
</wpt>

<wpt lat="38.309539794921875" lon="141.00074768066406">
 <time>2015-12-06T02:24:46ZZ</time>
 <name><![CDATA[新玉川]]></name>
</wpt>

<wpt lat="38.310455322265625" lon="140.9969940185547">
 <time>2015-12-06T02:24:46ZZ</time>
 <name><![CDATA[母子沢]]></name>
</wpt>

<wpt lat="38.3136100769043" lon="141.002197265625">
 <time>2015-12-06T02:24:46ZZ</time>
 <name><![CDATA[湯坪]]></name>
</wpt>

<wpt lat="38.31666564941406" lon="141.00743103027344">
 <time>2015-12-06T02:24:46ZZ</time>
 <name><![CDATA[赤坂]]></name>
</wpt>

<wpt lat="38.319297790527344" lon="141.00970458984375">
 <time>2015-12-06T02:24:46ZZ</time>
 <name><![CDATA[権現堂]]></name>
</wpt>

<wpt lat="38.313785552978516" lon="141.01832580566406">
 <time>2015-12-06T02:24:46ZZ</time>
 <name><![CDATA[南町]]></name>
</wpt>

<wpt lat="38.33309555053711" lon="141.02772521972656">
 <time>2015-12-06T02:24:46ZZ</time>
 <name><![CDATA[吉津南]]></name>
</wpt>

<wpt lat="38.340755462646484" lon="141.0338134765625">
 <time>2015-12-06T02:24:46ZZ</time>
 <name><![CDATA[青葉ヶ丘東]]></name>
</wpt>

<wpt lat="38.33880615234375" lon="141.0307159423828">
 <time>2015-12-06T02:24:46ZZ</time>
 <name><![CDATA[青葉ヶ丘西]]></name>
</wpt>

<wpt lat="38.338504791259766" lon="141.0280303955078">
 <time>2015-12-06T02:24:46ZZ</time>
 <name><![CDATA[吉津北]]></name>
</wpt>

<wpt lat="38.33498764038086" lon="141.02078247070312">
 <time>2015-12-06T02:24:46ZZ</time>
 <name><![CDATA[梅ヶ丘]]></name>
</wpt>

<wpt lat="38.33440399169922" lon="141.01686096191406">
 <time>2015-12-06T02:24:46ZZ</time>
 <name><![CDATA[庚塚]]></name>
</wpt>

<wpt lat="38.3318977355957" lon="141.01708984375">
 <time>2015-12-06T02:24:46ZZ</time>
 <name><![CDATA[ブライトヒルズ]]></name>
</wpt>

<wpt lat="38.3285026550293" lon="141.01565551757812">
 <time>2015-12-06T02:24:46ZZ</time>
 <name><![CDATA[梅の宮]]></name>
</wpt>

<wpt lat="38.32611846923828" lon="141.0127716064453">
 <time>2015-12-06T02:24:46ZZ</time>
 <name><![CDATA[長沢町]]></name>
</wpt>

<wpt lat="38.3230094909668" lon="141.0141143798828">
 <time>2015-12-06T02:24:46ZZ</time>
 <name><![CDATA[みのが丘]]></name>
</wpt>

<wpt lat="38.32371139526367" lon="141.01231384277344">
 <time>2015-12-06T02:24:46ZZ</time>
 <name><![CDATA[一森山]]></name>
</wpt>

<wpt lat="38.32493591308594" lon="141.01943969726562">
 <time>2015-12-06T02:24:46ZZ</time>
 <name><![CDATA[二小]]></name>
</wpt>

<wpt lat="38.3236083984375" lon="141.01919555664062">
 <time>2015-12-06T02:24:46ZZ</time>
 <name><![CDATA[小松崎]]></name>
</wpt>

<wpt lat="38.325870513916016" lon="141.02366638183594">
 <time>2015-12-06T02:24:46ZZ</time>
 <name><![CDATA[藤倉一丁目]]></name>
</wpt>

<wpt lat="38.3122673034668" lon="141.01451110839844">
 <time>2015-12-06T02:24:46ZZ</time>
 <name><![CDATA[市立病院]]></name>
</wpt>

<wpt lat="37.991390228271484" lon="140.61843872070312">
 <time>2015-12-06T02:24:46ZZ</time>
 <name><![CDATA[上久保]]></name>
</wpt>

<wpt lat="37.997215270996094" lon="140.6215362548828">
 <time>2015-12-06T02:24:46ZZ</time>
 <name><![CDATA[碧水園]]></name>
</wpt>

<wpt lat="37.98567581176758" lon="140.61593627929688">
 <time>2015-12-06T02:24:46ZZ</time>
 <name><![CDATA[清水田]]></name>
</wpt>

<wpt lat="38.00264358520508" lon="140.62115478515625">
 <time>2015-12-06T02:24:46ZZ</time>
 <name><![CDATA[市役所前]]></name>
</wpt>

<wpt lat="38.00008773803711" lon="140.62142944335938">
 <time>2015-12-06T02:24:46ZZ</time>
 <name><![CDATA[田町]]></name>
</wpt>

<wpt lat="37.98482894897461" lon="140.64431762695312">
 <time>2015-12-06T02:24:46ZZ</time>
 <name><![CDATA[大鷹沢小学校前]]></name>
</wpt>

<wpt lat="37.99406814575195" lon="140.635986328125">
 <time>2015-12-06T02:24:46ZZ</time>
 <name><![CDATA[宮下]]></name>
</wpt>

<wpt lat="37.99523162841797" lon="140.63189697265625">
 <time>2015-12-06T02:24:46ZZ</time>
 <name><![CDATA[白石蔵王駅]]></name>
</wpt>

<wpt lat="37.982975006103516" lon="140.64486694335938">
 <time>2015-12-06T02:24:46ZZ</time>
 <name><![CDATA[宿]]></name>
</wpt>

<wpt lat="37.98573303222656" lon="140.6519012451172">
 <time>2015-12-06T02:24:46ZZ</time>
 <name><![CDATA[大町]]></name>
</wpt>

<wpt lat="37.99016189575195" lon="140.6461181640625">
 <time>2015-12-06T02:24:46ZZ</time>
 <name><![CDATA[宮在家]]></name>
</wpt>

<wpt lat="37.99224090576172" lon="140.63861083984375">
 <time>2015-12-06T02:24:46ZZ</time>
 <name><![CDATA[坂端]]></name>
</wpt>

<wpt lat="37.99715805053711" lon="140.628662109375">
 <time>2015-12-06T02:24:46ZZ</time>
 <name><![CDATA[白石沖]]></name>
</wpt>

<wpt lat="38.00038528442383" lon="140.6227264404297">
 <time>2015-12-06T02:24:46ZZ</time>
 <name><![CDATA[田町]]></name>
</wpt>

<wpt lat="37.996604919433594" lon="140.63687133789062">
 <time>2015-12-06T02:24:46ZZ</time>
 <name><![CDATA[キューブ前]]></name>
</wpt>

<wpt lat="37.99790954589844" lon="140.63414001464844">
 <time>2015-12-06T02:24:46ZZ</time>
 <name><![CDATA[鷹巣]]></name>
</wpt>

<wpt lat="38.01081466674805" lon="140.6199188232422">
 <time>2015-12-06T02:24:46ZZ</time>
 <name><![CDATA[有志丁]]></name>
</wpt>

<wpt lat="38.016944885253906" lon="140.6214141845703">
 <time>2015-12-06T02:24:46ZZ</time>
 <name><![CDATA[山の下]]></name>
</wpt>

<wpt lat="38.006046295166016" lon="140.61477661132812">
 <time>2015-12-06T02:24:46ZZ</time>
 <name><![CDATA[新町]]></name>
</wpt>

<wpt lat="38.01022720336914" lon="140.6097869873047">
 <time>2015-12-06T02:24:46ZZ</time>
 <name><![CDATA[下原入口]]></name>
</wpt>

<wpt lat="38.013099670410156" lon="140.61880493164062">
 <time>2015-12-06T02:24:46ZZ</time>
 <name><![CDATA[大橋]]></name>
</wpt>

<wpt lat="38.023765563964844" lon="140.61898803710938">
 <time>2015-12-06T02:24:46ZZ</time>
 <name><![CDATA[坪家沢]]></name>
</wpt>

<wpt lat="38.00523376464844" lon="140.61244201660156">
 <time>2015-12-06T02:24:46ZZ</time>
 <name><![CDATA[葛西丁]]></name>
</wpt>

<wpt lat="38.01258087158203" lon="140.60479736328125">
 <time>2015-12-06T02:24:46ZZ</time>
 <name><![CDATA[下原]]></name>
</wpt>

<wpt lat="38.01055908203125" lon="140.60238647460938">
 <time>2015-12-06T02:24:46ZZ</time>
 <name><![CDATA[総合福祉センター前]]></name>
</wpt>

<wpt lat="38.0123176574707" lon="140.61878967285156">
 <time>2015-12-06T02:24:46ZZ</time>
 <name><![CDATA[白石大橋]]></name>
</wpt>

<wpt lat="38.00626754760742" lon="140.60447692871094">
 <time>2015-12-06T02:24:46ZZ</time>
 <name><![CDATA[薬師の湯]]></name>
</wpt>

<wpt lat="38.00435256958008" lon="140.60467529296875">
 <time>2015-12-06T02:24:46ZZ</time>
 <name><![CDATA[六本松]]></name>
</wpt>

<wpt lat="38.00324249267578" lon="140.6201629638672">
 <time>2015-12-06T02:24:46ZZ</time>
 <name><![CDATA[城下広場（旧刈田病院）]]></name>
</wpt>

<wpt lat="38.020992279052734" lon="140.62171936035156">
 <time>2015-12-06T02:24:46ZZ</time>
 <name><![CDATA[入田前]]></name>
</wpt>

<wpt lat="38.003177642822266" lon="140.62545776367188">
 <time>2015-12-06T02:24:46ZZ</time>
 <name><![CDATA[白石駅]]></name>
</wpt>

<wpt lat="38.00384521484375" lon="140.64743041992188">
 <time>2015-12-06T02:24:46ZZ</time>
 <name><![CDATA[虎子沢山団地]]></name>
</wpt>

<wpt lat="38.00533676147461" lon="140.6441650390625">
 <time>2015-12-06T02:24:46ZZ</time>
 <name><![CDATA[鍋石山入口]]></name>
</wpt>

<wpt lat="38.00550079345703" lon="140.63922119140625">
 <time>2015-12-06T02:24:46ZZ</time>
 <name><![CDATA[郡山飯塚]]></name>
</wpt>

<wpt lat="38.00557327270508" lon="140.6346893310547">
 <time>2015-12-06T02:24:46ZZ</time>
 <name><![CDATA[郡山橋]]></name>
</wpt>

<wpt lat="38.003562927246094" lon="140.6526641845703">
 <time>2015-12-06T02:24:46ZZ</time>
 <name><![CDATA[釜前]]></name>
</wpt>

<wpt lat="38.00514602661133" lon="140.6222381591797">
 <time>2015-12-06T02:24:46ZZ</time>
 <name><![CDATA[ポーチパーク]]></name>
</wpt>

<wpt lat="38.032649993896484" lon="140.69247436523438">
 <time>2015-12-06T02:24:46ZZ</time>
 <name><![CDATA[北白川駅]]></name>
</wpt>

<wpt lat="38.030494689941406" lon="140.68902587890625">
 <time>2015-12-06T02:24:46ZZ</time>
 <name><![CDATA[団地入口]]></name>
</wpt>

<wpt lat="38.03093719482422" lon="140.68556213378906">
 <time>2015-12-06T02:24:46ZZ</time>
 <name><![CDATA[高等技術専門校]]></name>
</wpt>

<wpt lat="38.02424621582031" lon="140.68731689453125">
 <time>2015-12-06T02:24:46ZZ</time>
 <name><![CDATA[椚林]]></name>
</wpt>

<wpt lat="37.913475036621094" lon="140.59036254882812">
 <time>2015-12-06T02:24:46ZZ</time>
 <name><![CDATA[越河清水]]></name>
</wpt>

<wpt lat="37.91764450073242" lon="140.5932159423828">
 <time>2015-12-06T02:24:46ZZ</time>
 <name><![CDATA[越河中央]]></name>
</wpt>

<wpt lat="37.915523529052734" lon="140.5916290283203">
 <time>2015-12-06T02:24:46ZZ</time>
 <name><![CDATA[越河]]></name>
</wpt>

<wpt lat="37.98062515258789" lon="140.61375427246094">
 <time>2015-12-06T02:24:46ZZ</time>
 <name><![CDATA[大平]]></name>
</wpt>

<wpt lat="37.97837448120117" lon="140.6127471923828">
 <time>2015-12-06T02:24:46ZZ</time>
 <name><![CDATA[田辺]]></name>
</wpt>

<wpt lat="37.9715690612793" lon="140.61155700683594">
 <time>2015-12-06T02:24:46ZZ</time>
 <name><![CDATA[中斎川]]></name>
</wpt>

<wpt lat="37.96550369262695" lon="140.61337280273438">
 <time>2015-12-06T02:24:46ZZ</time>
 <name><![CDATA[鳥居坂]]></name>
</wpt>

<wpt lat="37.947227478027344" lon="140.61123657226562">
 <time>2015-12-06T02:24:46ZZ</time>
 <name><![CDATA[馬牛沼]]></name>
</wpt>

<wpt lat="37.940208435058594" lon="140.61123657226562">
 <time>2015-12-06T02:24:46ZZ</time>
 <name><![CDATA[南中学校前]]></name>
</wpt>

<wpt lat="37.93413162231445" lon="140.6050262451172">
 <time>2015-12-06T02:24:46ZZ</time>
 <name><![CDATA[越河駅]]></name>
</wpt>

<wpt lat="37.92219924926758" lon="140.5980224609375">
 <time>2015-12-06T02:24:46ZZ</time>
 <name><![CDATA[越河小学校]]></name>
</wpt>

<wpt lat="37.95684051513672" lon="140.6090087890625">
 <time>2015-12-06T02:24:46ZZ</time>
 <name><![CDATA[甲冑堂]]></name>
</wpt>

<wpt lat="37.961708068847656" lon="140.61166381835938">
 <time>2015-12-06T02:24:46ZZ</time>
 <name><![CDATA[斎川]]></name>
</wpt>

<wpt lat="37.929420471191406" lon="140.603515625">
 <time>2015-12-06T02:24:46ZZ</time>
 <name><![CDATA[明神下]]></name>
</wpt>

<wpt lat="38.18174362182617" lon="140.9144287109375">
 <time>2015-12-06T02:24:46ZZ</time>
 <name><![CDATA[皇檀ヶ原]]></name>
</wpt>

<wpt lat="38.18165588378906" lon="140.9197998046875">
 <time>2015-12-06T02:24:46ZZ</time>
 <name><![CDATA[山神]]></name>
</wpt>

<wpt lat="38.178592681884766" lon="140.92489624023438">
 <time>2015-12-06T02:24:46ZZ</time>
 <name><![CDATA[名取岩沼農協閖上支店前]]></name>
</wpt>

<wpt lat="38.17625045776367" lon="140.92543029785156">
 <time>2015-12-06T02:24:46ZZ</time>
 <name><![CDATA[下北原]]></name>
</wpt>

<wpt lat="38.1713981628418" lon="140.92282104492188">
 <time>2015-12-06T02:24:46ZZ</time>
 <name><![CDATA[伊藤]]></name>
</wpt>

<wpt lat="38.182559967041016" lon="140.89242553710938">
 <time>2015-12-06T02:24:46ZZ</time>
 <name><![CDATA[大徳]]></name>
</wpt>

<wpt lat="38.177764892578125" lon="140.899658203125">
 <time>2015-12-06T02:24:46ZZ</time>
 <name><![CDATA[中荷北]]></name>
</wpt>

<wpt lat="38.17963790893555" lon="140.87789916992188">
 <time>2015-12-06T02:24:46ZZ</time>
 <name><![CDATA[田高]]></name>
</wpt>

<wpt lat="38.1729736328125" lon="140.87635803222656">
 <time>2015-12-06T02:24:46ZZ</time>
 <name><![CDATA[増田西公民館前]]></name>
</wpt>

<wpt lat="38.169857025146484" lon="140.87326049804688">
 <time>2015-12-06T02:24:46ZZ</time>
 <name><![CDATA[吉祥寺前]]></name>
</wpt>

<wpt lat="38.69441604614258" lon="141.20263671875">
 <time>2015-12-06T02:24:46ZZ</time>
 <name><![CDATA[八幡堂]]></name>
</wpt>

<wpt lat="38.69658660888672" lon="141.1925506591797">
 <time>2015-12-06T02:24:46ZZ</time>
 <name><![CDATA[佐沼中学校前]]></name>
</wpt>

<wpt lat="38.69786834716797" lon="141.21437072753906">
 <time>2015-12-06T02:24:46ZZ</time>
 <name><![CDATA[塚崎]]></name>
</wpt>

<wpt lat="38.70325469970703" lon="141.18626403808594">
 <time>2015-12-06T02:24:46ZZ</time>
 <name><![CDATA[舟橋前]]></name>
</wpt>

<wpt lat="38.7065544128418" lon="141.20367431640625">
 <time>2015-12-06T02:24:46ZZ</time>
 <name><![CDATA[境堀]]></name>
</wpt>

<wpt lat="38.785640716552734" lon="140.84664916992188">
 <time>2015-12-06T02:24:46ZZ</time>
 <name><![CDATA[花山小学校下]]></name>
</wpt>

<wpt lat="38.7755241394043" lon="140.85845947265625">
 <time>2015-12-06T02:24:46ZZ</time>
 <name><![CDATA[湖畔の店旬彩前]]></name>
</wpt>

<wpt lat="38.767051696777344" lon="140.86288452148438">
 <time>2015-12-06T02:24:46ZZ</time>
 <name><![CDATA[掛越]]></name>
</wpt>

<wpt lat="38.76505661010742" lon="140.87034606933594">
 <time>2015-12-06T02:24:46ZZ</time>
 <name><![CDATA[草木宿]]></name>
</wpt>

<wpt lat="38.77445983886719" lon="140.86195373535156">
 <time>2015-12-06T02:24:46ZZ</time>
 <name><![CDATA[花山ダム前]]></name>
</wpt>

<wpt lat="37.92469024658203" lon="140.59974670410156">
 <time>2015-12-06T02:24:46ZZ</time>
 <name><![CDATA[越河農協]]></name>
</wpt>

<wpt lat="37.98017501831055" lon="140.64794921875">
 <time>2015-12-06T02:24:46ZZ</time>
 <name><![CDATA[三沢]]></name>
</wpt>

<wpt lat="37.97626495361328" lon="140.66122436523438">
 <time>2015-12-06T02:24:46ZZ</time>
 <name><![CDATA[仙南サナトリウム]]></name>
</wpt>

<wpt lat="37.974517822265625" lon="140.66387939453125">
 <time>2015-12-06T02:24:46ZZ</time>
 <name><![CDATA[耳取]]></name>
</wpt>

<wpt lat="37.966068267822266" lon="140.68890380859375">
 <time>2015-12-06T02:24:46ZZ</time>
 <name><![CDATA[上代]]></name>
</wpt>

<wpt lat="37.95967483520508" lon="140.6889190673828">
 <time>2015-12-06T02:24:46ZZ</time>
 <name><![CDATA[広萱前]]></name>
</wpt>

<wpt lat="37.96733474731445" lon="140.68484497070312">
 <time>2015-12-06T02:24:46ZZ</time>
 <name><![CDATA[大原]]></name>
</wpt>

<wpt lat="37.96686553955078" lon="140.6564483642578">
 <time>2015-12-06T02:24:46ZZ</time>
 <name><![CDATA[黒内]]></name>
</wpt>

<wpt lat="37.96315383911133" lon="140.6568603515625">
 <time>2015-12-06T02:24:46ZZ</time>
 <name><![CDATA[中の内]]></name>
</wpt>

<wpt lat="37.957313537597656" lon="140.6571502685547">
 <time>2015-12-06T02:24:46ZZ</time>
 <name><![CDATA[十鉢]]></name>
</wpt>

<wpt lat="37.94336700439453" lon="140.65414428710938">
 <time>2015-12-06T02:24:46ZZ</time>
 <name><![CDATA[福田]]></name>
</wpt>

<wpt lat="37.95067596435547" lon="140.65145874023438">
 <time>2015-12-06T02:24:46ZZ</time>
 <name><![CDATA[赤沢]]></name>
</wpt>

<wpt lat="37.93471908569336" lon="140.6600799560547">
 <time>2015-12-06T02:24:46ZZ</time>
 <name><![CDATA[矢城]]></name>
</wpt>

<wpt lat="37.93576431274414" lon="140.67080688476562">
 <time>2015-12-06T02:24:46ZZ</time>
 <name><![CDATA[大張台西]]></name>
</wpt>

<wpt lat="37.93706512451172" lon="140.67674255371094">
 <time>2015-12-06T02:24:46ZZ</time>
 <name><![CDATA[大張公民館]]></name>
</wpt>

<wpt lat="37.979576110839844" lon="140.6604766845703">
 <time>2015-12-06T02:24:46ZZ</time>
 <name><![CDATA[不忘園前]]></name>
</wpt>

<wpt lat="37.97115707397461" lon="140.67913818359375">
 <time>2015-12-06T02:24:46ZZ</time>
 <name><![CDATA[十文字]]></name>
</wpt>

<wpt lat="37.99773025512695" lon="140.68429565429688">
 <time>2015-12-06T02:24:46ZZ</time>
 <name><![CDATA[家老沢]]></name>
</wpt>

<wpt lat="37.956993103027344" lon="140.68988037109375">
 <time>2015-12-06T02:24:46ZZ</time>
 <name><![CDATA[柳沢公民館]]></name>
</wpt>

<wpt lat="38.01277542114258" lon="140.58424377441406">
 <time>2015-12-06T02:24:46ZZ</time>
 <name><![CDATA[作屋]]></name>
</wpt>

<wpt lat="38.02074432373047" lon="140.58090209960938">
 <time>2015-12-06T02:24:46ZZ</time>
 <name><![CDATA[割山]]></name>
</wpt>

<wpt lat="38.02517318725586" lon="140.57666015625">
 <time>2015-12-06T02:24:46ZZ</time>
 <name><![CDATA[鎌先温泉]]></name>
</wpt>

<wpt lat="38.03322982788086" lon="140.57318115234375">
 <time>2015-12-06T02:24:46ZZ</time>
 <name><![CDATA[弥治郎]]></name>
</wpt>

<wpt lat="38.036930084228516" lon="140.61062622070312">
 <time>2015-12-06T02:24:46ZZ</time>
 <name><![CDATA[三本木]]></name>
</wpt>

<wpt lat="38.03112030029297" lon="140.61123657226562">
 <time>2015-12-06T02:24:46ZZ</time>
 <name><![CDATA[館前]]></name>
</wpt>

<wpt lat="38.02775573730469" lon="140.61172485351562">
 <time>2015-12-06T02:24:46ZZ</time>
 <name><![CDATA[馬場先]]></name>
</wpt>

<wpt lat="38.0256233215332" lon="140.6150360107422">
 <time>2015-12-06T02:24:46ZZ</time>
 <name><![CDATA[楢原下]]></name>
</wpt>

<wpt lat="38.01177215576172" lon="140.5863800048828">
 <time>2015-12-06T02:24:46ZZ</time>
 <name><![CDATA[原]]></name>
</wpt>

<wpt lat="38.035423278808594" lon="140.5741424560547">
 <time>2015-12-06T02:24:46ZZ</time>
 <name><![CDATA[弥治郎こけし村]]></name>
</wpt>

<wpt lat="38.07528305053711" lon="140.56472778320312">
 <time>2015-12-06T02:24:46ZZ</time>
 <name><![CDATA[三住研修センター]]></name>
</wpt>

<wpt lat="38.06074905395508" lon="140.57052612304688">
 <time>2015-12-06T02:24:46ZZ</time>
 <name><![CDATA[巻平]]></name>
</wpt>

<wpt lat="38.06754684448242" lon="140.55494689941406">
 <time>2015-12-06T02:24:46ZZ</time>
 <name><![CDATA[二の萱]]></name>
</wpt>

<wpt lat="38.06333923339844" lon="140.5408935546875">
 <time>2015-12-06T02:24:46ZZ</time>
 <name><![CDATA[荻平]]></name>
</wpt>

<wpt lat="38.061649322509766" lon="140.5356903076172">
 <time>2015-12-06T02:24:46ZZ</time>
 <name><![CDATA[不忘の碑]]></name>
</wpt>

<wpt lat="38.04716110229492" lon="140.52090454101562">
 <time>2015-12-06T02:24:46ZZ</time>
 <name><![CDATA[神嶺]]></name>
</wpt>

<wpt lat="38.0440673828125" lon="140.50914001464844">
 <time>2015-12-06T02:24:46ZZ</time>
 <name><![CDATA[不忘分校入口]]></name>
</wpt>

<wpt lat="38.046409606933594" lon="140.50111389160156">
 <time>2015-12-06T02:24:46ZZ</time>
 <name><![CDATA[泉]]></name>
</wpt>

<wpt lat="38.04425811767578" lon="140.57687377929688">
 <time>2015-12-06T02:24:46ZZ</time>
 <name><![CDATA[大網]]></name>
</wpt>

<wpt lat="38.03298568725586" lon="140.5907745361328">
 <time>2015-12-06T02:24:46ZZ</time>
 <name><![CDATA[番子沢前]]></name>
</wpt>

<wpt lat="38.0268669128418" lon="140.5970916748047">
 <time>2015-12-06T02:24:46ZZ</time>
 <name><![CDATA[芹沢集会所]]></name>
</wpt>

<wpt lat="38.008384704589844" lon="140.55252075195312">
 <time>2015-12-06T02:24:46ZZ</time>
 <name><![CDATA[沼]]></name>
</wpt>

<wpt lat="38.024044036865234" lon="140.5443572998047">
 <time>2015-12-06T02:24:46ZZ</time>
 <name><![CDATA[川原子]]></name>
</wpt>

<wpt lat="38.030941009521484" lon="140.540771484375">
 <time>2015-12-06T02:24:46ZZ</time>
 <name><![CDATA[樋の塚]]></name>
</wpt>

<wpt lat="38.035888671875" lon="140.6161651611328">
 <time>2015-12-06T02:24:46ZZ</time>
 <name><![CDATA[西区上集会所]]></name>
</wpt>

<wpt lat="38.03889465332031" lon="140.62005615234375">
 <time>2015-12-06T02:24:46ZZ</time>
 <name><![CDATA[上屋敷前]]></name>
</wpt>

<wpt lat="38.034786224365234" lon="140.67218017578125">
 <time>2015-12-06T02:24:46ZZ</time>
 <name><![CDATA[青木前入口]]></name>
</wpt>

<wpt lat="38.02597427368164" lon="140.68280029296875">
 <time>2015-12-06T02:24:46ZZ</time>
 <name><![CDATA[中丸橋]]></name>
</wpt>

<wpt lat="38.018463134765625" lon="140.68223571777344">
 <time>2015-12-06T02:24:46ZZ</time>
 <name><![CDATA[諏訪田]]></name>
</wpt>

<wpt lat="38.02130889892578" lon="140.67820739746094">
 <time>2015-12-06T02:24:46ZZ</time>
 <name><![CDATA[五合田橋]]></name>
</wpt>

<wpt lat="38.01759719848633" lon="140.67478942871094">
 <time>2015-12-06T02:24:46ZZ</time>
 <name><![CDATA[若円入口]]></name>
</wpt>

<wpt lat="38.01410675048828" lon="140.67893981933594">
 <time>2015-12-06T02:24:46ZZ</time>
 <name><![CDATA[赤丸集荷所]]></name>
</wpt>

<wpt lat="38.01070022583008" lon="140.67506408691406">
 <time>2015-12-06T02:24:46ZZ</time>
 <name><![CDATA[赤丸橋]]></name>
</wpt>

<wpt lat="38.00558853149414" lon="140.6791534423828">
 <time>2015-12-06T02:24:46ZZ</time>
 <name><![CDATA[吉ノ入]]></name>
</wpt>

<wpt lat="38.005924224853516" lon="140.67050170898438">
 <time>2015-12-06T02:24:46ZZ</time>
 <name><![CDATA[犬卒都婆]]></name>
</wpt>

<wpt lat="38.00556945800781" lon="140.66098022460938">
 <time>2015-12-06T02:24:46ZZ</time>
 <name><![CDATA[白坂]]></name>
</wpt>

<wpt lat="38.04938507080078" lon="140.6240692138672">
 <time>2015-12-06T02:24:46ZZ</time>
 <name><![CDATA[牧場入口]]></name>
</wpt>

<wpt lat="38.044105529785156" lon="140.6230010986328">
 <time>2015-12-06T02:24:46ZZ</time>
 <name><![CDATA[中丸]]></name>
</wpt>

<wpt lat="38.038673400878906" lon="140.64324951171875">
 <time>2015-12-06T02:24:46ZZ</time>
 <name><![CDATA[大泉病院]]></name>
</wpt>

<wpt lat="38.00338363647461" lon="140.62254333496094">
 <time>2015-12-06T02:24:46ZZ</time>
 <name><![CDATA[すまiる広場]]></name>
</wpt>

<wpt lat="38.03908920288086" lon="140.58509826660156">
 <time>2015-12-06T02:24:46ZZ</time>
 <name><![CDATA[担い手センター]]></name>
</wpt>

<wpt lat="38.036712646484375" lon="140.64173889160156">
 <time>2015-12-06T02:24:46ZZ</time>
 <name><![CDATA[大黒天]]></name>
</wpt>

<wpt lat="38.033050537109375" lon="140.6359100341797">
 <time>2015-12-06T02:24:46ZZ</time>
 <name><![CDATA[深谷小学校前]]></name>
</wpt>

<wpt lat="38.02383041381836" lon="140.6256866455078">
 <time>2015-12-06T02:24:46ZZ</time>
 <name><![CDATA[深谷公民館前]]></name>
</wpt>

<wpt lat="38.00364303588867" lon="140.65090942382812">
 <time>2015-12-06T02:24:46ZZ</time>
 <name><![CDATA[白石今野病院]]></name>
</wpt>

<wpt lat="38.0374870300293" lon="140.65313720703125">
 <time>2015-12-06T02:24:46ZZ</time>
 <name><![CDATA[内親生活センター]]></name>
</wpt>

<wpt lat="38.04117965698242" lon="140.58432006835938">
 <time>2015-12-06T02:24:46ZZ</time>
 <name><![CDATA[八宮分校前]]></name>
</wpt>

<wpt lat="38.16227340698242" lon="140.853515625">
 <time>2015-12-06T02:24:46ZZ</time>
 <name><![CDATA[西野田]]></name>
</wpt>

<wpt lat="38.16298294067383" lon="140.8589324951172">
 <time>2015-12-06T02:24:46ZZ</time>
 <name><![CDATA[前野田]]></name>
</wpt>

<wpt lat="38.167179107666016" lon="140.86204528808594">
 <time>2015-12-06T02:24:46ZZ</time>
 <name><![CDATA[県立がんセンター]]></name>
</wpt>

<wpt lat="38.16902160644531" lon="140.86273193359375">
 <time>2015-12-06T02:24:46ZZ</time>
 <name><![CDATA[県高等看護学校前]]></name>
</wpt>

<wpt lat="38.161842346191406" lon="140.84754943847656">
 <time>2015-12-06T02:24:46ZZ</time>
 <name><![CDATA[道祖神前]]></name>
</wpt>

<wpt lat="38.15040969848633" lon="140.84848022460938">
 <time>2015-12-06T02:24:46ZZ</time>
 <name><![CDATA[愛島小学校前]]></name>
</wpt>

<wpt lat="38.14730453491211" lon="140.84805297851562">
 <time>2015-12-06T02:24:46ZZ</time>
 <name><![CDATA[西上平]]></name>
</wpt>

<wpt lat="38.164276123046875" lon="140.86082458496094">
 <time>2015-12-06T02:24:46ZZ</time>
 <name><![CDATA[東野田]]></name>
</wpt>

<wpt lat="38.13272476196289" lon="140.85745239257812">
 <time>2015-12-06T02:24:46ZZ</time>
 <name><![CDATA[北目上原]]></name>
</wpt>

<wpt lat="38.13557052612305" lon="140.84649658203125">
 <time>2015-12-06T02:24:46ZZ</time>
 <name><![CDATA[八幡前]]></name>
</wpt>

<wpt lat="38.142066955566406" lon="140.8489227294922">
 <time>2015-12-06T02:24:46ZZ</time>
 <name><![CDATA[山崎]]></name>
</wpt>

<wpt lat="38.152565002441406" lon="140.84840393066406">
 <time>2015-12-06T02:24:46ZZ</time>
 <name><![CDATA[桜町]]></name>
</wpt>

<wpt lat="38.15483474731445" lon="140.8457489013672">
 <time>2015-12-06T02:24:46ZZ</time>
 <name><![CDATA[智福院前]]></name>
</wpt>

<wpt lat="38.1595573425293" lon="140.84164428710938">
 <time>2015-12-06T02:24:46ZZ</time>
 <name><![CDATA[南沢]]></name>
</wpt>

<wpt lat="38.163856506347656" lon="140.840576171875">
 <time>2015-12-06T02:24:46ZZ</time>
 <name><![CDATA[愛島老人憩の家前]]></name>
</wpt>

<wpt lat="38.11442565917969" lon="140.87770080566406">
 <time>2015-12-06T02:24:46ZZ</time>
 <name><![CDATA[堀内南竹]]></name>
</wpt>

<wpt lat="38.11791229248047" lon="140.8789520263672">
 <time>2015-12-06T02:24:46ZZ</time>
 <name><![CDATA[梅]]></name>
</wpt>

<wpt lat="38.1212043762207" lon="140.87911987304688">
 <time>2015-12-06T02:24:46ZZ</time>
 <name><![CDATA[北竹]]></name>
</wpt>

<wpt lat="38.124046325683594" lon="140.87924194335938">
 <time>2015-12-06T02:24:46ZZ</time>
 <name><![CDATA[亀]]></name>
</wpt>

<wpt lat="38.16734313964844" lon="140.8994598388672">
 <time>2015-12-06T02:24:46ZZ</time>
 <name><![CDATA[矢畑]]></name>
</wpt>

<wpt lat="38.14532470703125" lon="140.8783721923828">
 <time>2015-12-06T02:24:46ZZ</time>
 <name><![CDATA[植松四丁目]]></name>
</wpt>

<wpt lat="38.15158462524414" lon="140.88270568847656">
 <time>2015-12-06T02:24:46ZZ</time>
 <name><![CDATA[館腰学校前]]></name>
</wpt>

<wpt lat="38.16401290893555" lon="140.876708984375">
 <time>2015-12-06T02:24:46ZZ</time>
 <name><![CDATA[名取が丘入口]]></name>
</wpt>

<wpt lat="38.165321350097656" lon="140.87904357910156">
 <time>2015-12-06T02:24:46ZZ</time>
 <name><![CDATA[小山住宅前]]></name>
</wpt>

<wpt lat="38.1665153503418" lon="140.8841552734375">
 <time>2015-12-06T02:24:46ZZ</time>
 <name><![CDATA[名取郵便局前]]></name>
</wpt>

<wpt lat="38.164939880371094" lon="140.9051971435547">
 <time>2015-12-06T02:24:46ZZ</time>
 <name><![CDATA[薬師前]]></name>
</wpt>

<wpt lat="38.15824508666992" lon="140.91099548339844">
 <time>2015-12-06T02:24:46ZZ</time>
 <name><![CDATA[下増田公民館前]]></name>
</wpt>

<wpt lat="38.156654357910156" lon="140.93138122558594">
 <time>2015-12-06T02:24:46ZZ</time>
 <name><![CDATA[下増田宝橋前]]></name>
</wpt>

<wpt lat="38.15439987182617" lon="140.91647338867188">
 <time>2015-12-06T02:24:46ZZ</time>
 <name><![CDATA[谷地中前]]></name>
</wpt>

<wpt lat="38.15081787109375" lon="140.92013549804688">
 <time>2015-12-06T02:24:46ZZ</time>
 <name><![CDATA[辻]]></name>
</wpt>

<wpt lat="38.14801025390625" lon="140.9226837158203">
 <time>2015-12-06T02:24:46ZZ</time>
 <name><![CDATA[西経塚]]></name>
</wpt>

<wpt lat="38.143577575683594" lon="140.87969970703125">
 <time>2015-12-06T02:24:46ZZ</time>
 <name><![CDATA[館腰駅前]]></name>
</wpt>

<wpt lat="38.147220611572266" lon="140.88021850585938">
 <time>2015-12-06T02:24:46ZZ</time>
 <name><![CDATA[舘腰公民館前]]></name>
</wpt>

<wpt lat="38.16359329223633" lon="140.88357543945312">
 <time>2015-12-06T02:24:46ZZ</time>
 <name><![CDATA[名取一中前]]></name>
</wpt>

<wpt lat="38.160770416259766" lon="140.88328552246094">
 <time>2015-12-06T02:24:46ZZ</time>
 <name><![CDATA[飯野坂四丁目]]></name>
</wpt>

<wpt lat="38.156654357910156" lon="140.88400268554688">
 <time>2015-12-06T02:24:46ZZ</time>
 <name><![CDATA[飯野坂六丁目]]></name>
</wpt>

<wpt lat="38.159523010253906" lon="140.88394165039062">
 <time>2015-12-06T02:24:46ZZ</time>
 <name><![CDATA[明観寺前]]></name>
</wpt>

<wpt lat="38.15409851074219" lon="140.88323974609375">
 <time>2015-12-06T02:24:46ZZ</time>
 <name><![CDATA[植松一丁目]]></name>
</wpt>

<wpt lat="38.1494255065918" lon="140.91513061523438">
 <time>2015-12-06T02:24:46ZZ</time>
 <name><![CDATA[横手]]></name>
</wpt>

<wpt lat="38.15373611450195" lon="140.90335083007812">
 <time>2015-12-06T02:24:46ZZ</time>
 <name><![CDATA[土手東]]></name>
</wpt>

<wpt lat="38.15568542480469" lon="140.900146484375">
 <time>2015-12-06T02:24:46ZZ</time>
 <name><![CDATA[中江東]]></name>
</wpt>

<wpt lat="38.167537689208984" lon="140.92018127441406">
 <time>2015-12-06T02:24:46ZZ</time>
 <name><![CDATA[内海]]></name>
</wpt>

<wpt lat="38.15715408325195" lon="140.92213439941406">
 <time>2015-12-06T02:24:46ZZ</time>
 <name><![CDATA[飯塚生活センター前]]></name>
</wpt>

<wpt lat="38.144073486328125" lon="140.8777313232422">
 <time>2015-12-06T02:24:46ZZ</time>
 <name><![CDATA[館腰郵便局前]]></name>
</wpt>

<wpt lat="38.13749694824219" lon="140.8723907470703">
 <time>2015-12-06T02:24:46ZZ</time>
 <name><![CDATA[西六軒]]></name>
</wpt>

<wpt lat="38.13401794433594" lon="140.8731231689453">
 <time>2015-12-06T02:24:46ZZ</time>
 <name><![CDATA[東六軒]]></name>
</wpt>

<wpt lat="38.12896728515625" lon="140.87660217285156">
 <time>2015-12-06T02:24:46ZZ</time>
 <name><![CDATA[本郷団地前]]></name>
</wpt>

<wpt lat="38.12813186645508" lon="140.87889099121094">
 <time>2015-12-06T02:24:46ZZ</time>
 <name><![CDATA[町田]]></name>
</wpt>

<wpt lat="38.13017272949219" lon="140.8800506591797">
 <time>2015-12-06T02:24:46ZZ</time>
 <name><![CDATA[本郷幼稚園前]]></name>
</wpt>

<wpt lat="38.16511154174805" lon="140.8881378173828">
 <time>2015-12-06T02:24:46ZZ</time>
 <name><![CDATA[名取市図書館前]]></name>
</wpt>

<wpt lat="38.16796875" lon="140.8922882080078">
 <time>2015-12-06T02:24:46ZZ</time>
 <name><![CDATA[名取市文化会館前]]></name>
</wpt>

<wpt lat="38.165321350097656" lon="140.8960418701172">
 <time>2015-12-06T02:24:46ZZ</time>
 <name><![CDATA[杜せきのした駅前]]></name>
</wpt>

<wpt lat="38.16543197631836" lon="140.89454650878906">
 <time>2015-12-06T02:24:46ZZ</time>
 <name><![CDATA[名取エアリ]]></name>
</wpt>

<wpt lat="38.16021728515625" lon="140.9173583984375">
 <time>2015-12-06T02:24:46ZZ</time>
 <name><![CDATA[美田園駅前]]></name>
</wpt>

<wpt lat="38.15199279785156" lon="140.92002868652344">
 <time>2015-12-06T02:24:46ZZ</time>
 <name><![CDATA[辻北]]></name>
</wpt>

<wpt lat="38.13670349121094" lon="140.93638610839844">
 <time>2015-12-06T02:24:46ZZ</time>
 <name><![CDATA[北釜北]]></name>
</wpt>

<wpt lat="38.16767501831055" lon="140.94972229003906">
 <time>2015-12-06T02:24:46ZZ</time>
 <name><![CDATA[閖上六丁目]]></name>
</wpt>

<wpt lat="38.135921478271484" lon="140.9364776611328">
 <time>2015-12-06T02:24:46ZZ</time>
 <name><![CDATA[北釜]]></name>
</wpt>

<wpt lat="38.14372634887695" lon="140.9346160888672">
 <time>2015-12-06T02:24:46ZZ</time>
 <name><![CDATA[宮城農高入口]]></name>
</wpt>

<wpt lat="38.15415954589844" lon="140.93540954589844">
 <time>2015-12-06T02:24:46ZZ</time>
 <name><![CDATA[広浦・宮城農高前]]></name>
</wpt>

<wpt lat="38.200557708740234" lon="140.80563354492188">
 <time>2015-12-06T02:24:46ZZ</time>
 <name><![CDATA[相互台三丁目]]></name>
</wpt>

<wpt lat="38.1860466003418" lon="140.8539276123047">
 <time>2015-12-06T02:24:46ZZ</time>
 <name><![CDATA[高舘]]></name>
</wpt>

<wpt lat="38.19044494628906" lon="140.85316467285156">
 <time>2015-12-06T02:24:46ZZ</time>
 <name><![CDATA[吸川]]></name>
</wpt>

<wpt lat="38.20864486694336" lon="140.83438110351562">
 <time>2015-12-06T02:24:46ZZ</time>
 <name><![CDATA[ゆりが丘入口]]></name>
</wpt>

<wpt lat="38.18111801147461" lon="140.85403442382812">
 <time>2015-12-06T02:24:46ZZ</time>
 <name><![CDATA[八反]]></name>
</wpt>

<wpt lat="38.19532775878906" lon="140.84124755859375">
 <time>2015-12-06T02:24:46ZZ</time>
 <name><![CDATA[那智が丘二丁目]]></name>
</wpt>

<wpt lat="38.19570541381836" lon="140.85134887695312">
 <time>2015-12-06T02:24:46ZZ</time>
 <name><![CDATA[南]]></name>
</wpt>

<wpt lat="38.186397552490234" lon="140.85568237304688">
 <time>2015-12-06T02:24:46ZZ</time>
 <name><![CDATA[高舘小学校前]]></name>
</wpt>

<wpt lat="38.17573928833008" lon="140.85055541992188">
 <time>2015-12-06T02:24:46ZZ</time>
 <name><![CDATA[農業園芸研究所入口]]></name>
</wpt>

<wpt lat="38.185508728027344" lon="140.86456298828125">
 <time>2015-12-06T02:24:46ZZ</time>
 <name><![CDATA[三条郷]]></name>
</wpt>

<wpt lat="38.18645095825195" lon="140.8600616455078">
 <time>2015-12-06T02:24:46ZZ</time>
 <name><![CDATA[内舘]]></name>
</wpt>

<wpt lat="38.18437957763672" lon="140.87045288085938">
 <time>2015-12-06T02:24:46ZZ</time>
 <name><![CDATA[宮神明]]></name>
</wpt>

<wpt lat="38.174163818359375" lon="140.9031982421875">
 <time>2015-12-06T02:24:46ZZ</time>
 <name><![CDATA[下余田生活センター前]]></name>
</wpt>

<wpt lat="38.17955017089844" lon="140.88565063476562">
 <time>2015-12-06T02:24:46ZZ</time>
 <name><![CDATA[増田六丁目]]></name>
</wpt>

<wpt lat="38.19709396362305" lon="140.877685546875">
 <time>2015-12-06T02:24:46ZZ</time>
 <name><![CDATA[西中田五丁目東]]></name>
</wpt>

<wpt lat="38.18214797973633" lon="140.88548278808594">
 <time>2015-12-06T02:24:46ZZ</time>
 <name><![CDATA[増田八丁目]]></name>
</wpt>

<wpt lat="38.17669677734375" lon="140.8859405517578">
 <time>2015-12-06T02:24:46ZZ</time>
 <name><![CDATA[増田四丁目]]></name>
</wpt>

<wpt lat="38.17178726196289" lon="140.8927001953125">
 <time>2015-12-06T02:24:46ZZ</time>
 <name><![CDATA[名取市役所前]]></name>
</wpt>

<wpt lat="38.18598175048828" lon="140.8854217529297">
 <time>2015-12-06T02:24:46ZZ</time>
 <name><![CDATA[上余田]]></name>
</wpt>

<wpt lat="38.16972351074219" lon="140.89251708984375">
 <time>2015-12-06T02:24:46ZZ</time>
 <name><![CDATA[名取市民体育館前]]></name>
</wpt>

<wpt lat="38.173221588134766" lon="140.88314819335938">
 <time>2015-12-06T02:24:46ZZ</time>
 <name><![CDATA[名取駅前]]></name>
</wpt>

<wpt lat="38.173248291015625" lon="140.88211059570312">
 <time>2015-12-06T02:24:46ZZ</time>
 <name><![CDATA[名取駅西口]]></name>
</wpt>

<wpt lat="38.17094039916992" lon="140.8802032470703">
 <time>2015-12-06T02:24:46ZZ</time>
 <name><![CDATA[手倉田八幡]]></name>
</wpt>

<wpt lat="38.18357467651367" lon="140.87368774414062">
 <time>2015-12-06T02:24:46ZZ</time>
 <name><![CDATA[早渕]]></name>
</wpt>

<wpt lat="38.17000198364258" lon="140.87692260742188">
 <time>2015-12-06T02:24:46ZZ</time>
 <name><![CDATA[手倉田諏訪]]></name>
</wpt>

<wpt lat="38.19108581542969" lon="140.90023803710938">
 <time>2015-12-06T02:24:46ZZ</time>
 <name><![CDATA[社会保険病院前]]></name>
</wpt>

<wpt lat="38.1895751953125" lon="140.89573669433594">
 <time>2015-12-06T02:24:46ZZ</time>
 <name><![CDATA[吉原]]></name>
</wpt>

<wpt lat="38.1859245300293" lon="140.8890380859375">
 <time>2015-12-06T02:24:46ZZ</time>
 <name><![CDATA[千刈田]]></name>
</wpt>

<wpt lat="38.17708206176758" lon="140.91473388671875">
 <time>2015-12-06T02:24:46ZZ</time>
 <name><![CDATA[多賀神社前]]></name>
</wpt>

<wpt lat="38.16994094848633" lon="140.95152282714844">
 <time>2015-12-06T02:24:46ZZ</time>
 <name><![CDATA[閖上五丁目]]></name>
</wpt>

<wpt lat="38.1784553527832" lon="140.94985961914062">
 <time>2015-12-06T02:24:46ZZ</time>
 <name><![CDATA[閖上公民館前]]></name>
</wpt>

<wpt lat="38.19565963745117" lon="140.86476135253906">
 <time>2015-12-06T02:24:46ZZ</time>
 <name><![CDATA[柳生四丁目南]]></name>
</wpt>

<wpt lat="38.19290542602539" lon="140.8648223876953">
 <time>2015-12-06T02:24:46ZZ</time>
 <name><![CDATA[高舘窪田]]></name>
</wpt>

<wpt lat="38.1885871887207" lon="140.86534118652344">
 <time>2015-12-06T02:24:46ZZ</time>
 <name><![CDATA[高舘吉田]]></name>
</wpt>

<wpt lat="38.17897033691406" lon="140.87933349609375">
 <time>2015-12-06T02:24:46ZZ</time>
 <name><![CDATA[田高南]]></name>
</wpt>

<wpt lat="38.19329833984375" lon="140.843505859375">
 <time>2015-12-06T02:24:46ZZ</time>
 <name><![CDATA[那智が丘小学校前]]></name>
</wpt>

<wpt lat="38.20930480957031" lon="140.8137664794922">
 <time>2015-12-06T02:24:46ZZ</time>
 <name><![CDATA[新豊橋]]></name>
</wpt>

<wpt lat="38.213905334472656" lon="140.81573486328125">
 <time>2015-12-06T02:24:46ZZ</time>
 <name><![CDATA[相互台入口]]></name>
</wpt>

<wpt lat="38.16783142089844" lon="140.87612915039062">
 <time>2015-12-06T02:24:46ZZ</time>
 <name><![CDATA[大手町四丁目]]></name>
</wpt>

<wpt lat="38.17041778564453" lon="140.8759765625">
 <time>2015-12-06T02:24:46ZZ</time>
 <name><![CDATA[大手町六丁目]]></name>
</wpt>

<wpt lat="38.16143798828125" lon="140.9114227294922">
 <time>2015-12-06T02:24:46ZZ</time>
 <name><![CDATA[本村下区公会堂前]]></name>
</wpt>

<wpt lat="38.16922378540039" lon="140.8685760498047">
 <time>2015-12-06T02:24:46ZZ</time>
 <name><![CDATA[仙台高専名取キャンパス前]]></name>
</wpt>

<wpt lat="38.17700958251953" lon="140.89447021484375">
 <time>2015-12-06T02:24:46ZZ</time>
 <name><![CDATA[県営名取田高住宅前]]></name>
</wpt>

<wpt lat="38.182655334472656" lon="140.90345764160156">
 <time>2015-12-06T02:24:46ZZ</time>
 <name><![CDATA[草倉田]]></name>
</wpt>

<wpt lat="38.15553665161133" lon="140.91574096679688">
 <time>2015-12-06T02:24:46ZZ</time>
 <name><![CDATA[美田園駅南]]></name>
</wpt>

<wpt lat="38.17219924926758" lon="140.93394470214844">
 <time>2015-12-06T02:24:46ZZ</time>
 <name><![CDATA[小塚原南]]></name>
</wpt>

<wpt lat="38.17802810668945" lon="140.95091247558594">
 <time>2015-12-06T02:24:46ZZ</time>
 <name><![CDATA[閖上新町]]></name>
</wpt>

<wpt lat="38.17934799194336" lon="140.94480895996094">
 <time>2015-12-06T02:24:46ZZ</time>
 <name><![CDATA[閖上中学校前]]></name>
</wpt>

<wpt lat="38.154666900634766" lon="140.92446899414062">
 <time>2015-12-06T02:24:46ZZ</time>
 <name><![CDATA[美田園東]]></name>
</wpt>

<wpt lat="38.15708923339844" lon="140.91024780273438">
 <time>2015-12-06T02:24:46ZZ</time>
 <name><![CDATA[下増田小学校前]]></name>
</wpt>

<wpt lat="38.15774917602539" lon="140.9070281982422">
 <time>2015-12-06T02:24:46ZZ</time>
 <name><![CDATA[美田園西]]></name>
</wpt>

<wpt lat="38.15904998779297" lon="140.9029998779297">
 <time>2015-12-06T02:24:46ZZ</time>
 <name><![CDATA[杜さくら公園前]]></name>
</wpt>

<wpt lat="38.12947082519531" lon="140.87664794921875">
 <time>2015-12-06T02:24:46ZZ</time>
 <name><![CDATA[本郷団地]]></name>
</wpt>

<wpt lat="38.19847106933594" lon="140.85028076171875">
 <time>2015-12-06T02:24:46ZZ</time>
 <name><![CDATA[岩口下]]></name>
</wpt>

<wpt lat="38.08525848388672" lon="140.8376922607422">
 <time>2015-12-06T02:24:46ZZ</time>
 <name><![CDATA[玉崎西]]></name>
</wpt>

<wpt lat="38.08578109741211" lon="140.8446502685547">
 <time>2015-12-06T02:24:46ZZ</time>
 <name><![CDATA[玉崎]]></name>
</wpt>

<wpt lat="38.07005310058594" lon="140.91696166992188">
 <time>2015-12-06T02:24:46ZZ</time>
 <name><![CDATA[蒲崎南]]></name>
</wpt>

<wpt lat="38.080562591552734" lon="140.91323852539062">
 <time>2015-12-06T02:24:46ZZ</time>
 <name><![CDATA[曲戸]]></name>
</wpt>

<wpt lat="38.074859619140625" lon="140.9183349609375">
 <time>2015-12-06T02:24:46ZZ</time>
 <name><![CDATA[専光寺前]]></name>
</wpt>

<wpt lat="38.08391571044922" lon="140.91078186035156">
 <time>2015-12-06T02:24:46ZZ</time>
 <name><![CDATA[寺島]]></name>
</wpt>

<wpt lat="38.057804107666016" lon="140.91375732421875">
 <time>2015-12-06T02:24:46ZZ</time>
 <name><![CDATA[新浜]]></name>
</wpt>

<wpt lat="38.07304382324219" lon="140.91749572753906">
 <time>2015-12-06T02:24:46ZZ</time>
 <name><![CDATA[蒲崎]]></name>
</wpt>

<wpt lat="38.07386016845703" lon="140.92245483398438">
 <time>2015-12-06T02:24:46ZZ</time>
 <name><![CDATA[川向]]></name>
</wpt>

<wpt lat="38.10099411010742" lon="140.8679962158203">
 <time>2015-12-06T02:24:46ZZ</time>
 <name><![CDATA[藤浪]]></name>
</wpt>

<wpt lat="38.10184097290039" lon="140.86004638671875">
 <time>2015-12-06T02:24:46ZZ</time>
 <name><![CDATA[桑原]]></name>
</wpt>

<wpt lat="38.11333465576172" lon="140.86643981933594">
 <time>2015-12-06T02:24:46ZZ</time>
 <name><![CDATA[館下]]></name>
</wpt>

<wpt lat="38.117149353027344" lon="140.85736083984375">
 <time>2015-12-06T02:24:46ZZ</time>
 <name><![CDATA[武隈団地入口]]></name>
</wpt>

<wpt lat="38.11577224731445" lon="140.86434936523438">
 <time>2015-12-06T02:24:46ZZ</time>
 <name><![CDATA[栄町]]></name>
</wpt>

<wpt lat="38.112979888916016" lon="140.8458251953125">
 <time>2015-12-06T02:24:46ZZ</time>
 <name><![CDATA[平等団地入口]]></name>
</wpt>

<wpt lat="38.120452880859375" lon="140.87110900878906">
 <time>2015-12-06T02:24:46ZZ</time>
 <name><![CDATA[相の原団地入口]]></name>
</wpt>

<wpt lat="38.11447525024414" lon="140.8573760986328">
 <time>2015-12-06T02:24:46ZZ</time>
 <name><![CDATA[名取高校前]]></name>
</wpt>

<wpt lat="38.104736328125" lon="140.8662109375">
 <time>2015-12-06T02:24:46ZZ</time>
 <name><![CDATA[竹駒神社前]]></name>
</wpt>

<wpt lat="38.09955978393555" lon="140.8696746826172">
 <time>2015-12-06T02:24:46ZZ</time>
 <name><![CDATA[阿武隈]]></name>
</wpt>

<wpt lat="38.107444763183594" lon="140.86717224121094">
 <time>2015-12-06T02:24:46ZZ</time>
 <name><![CDATA[中央一丁目]]></name>
</wpt>

<wpt lat="38.11037826538086" lon="140.84918212890625">
 <time>2015-12-06T02:24:46ZZ</time>
 <name><![CDATA[松ヶ丘]]></name>
</wpt>

<wpt lat="38.11259841918945" lon="140.8504180908203">
 <time>2015-12-06T02:24:46ZZ</time>
 <name><![CDATA[西小学校前]]></name>
</wpt>

<wpt lat="38.11732864379883" lon="140.8455352783203">
 <time>2015-12-06T02:24:46ZZ</time>
 <name><![CDATA[西中学校前]]></name>
</wpt>

<wpt lat="38.08903503417969" lon="140.85308837890625">
 <time>2015-12-06T02:24:46ZZ</time>
 <name><![CDATA[原]]></name>
</wpt>

<wpt lat="38.08929443359375" lon="140.85635375976562">
 <time>2015-12-06T02:24:46ZZ</time>
 <name><![CDATA[大昭和]]></name>
</wpt>

<wpt lat="38.09305953979492" lon="140.85726928710938">
 <time>2015-12-06T02:24:46ZZ</time>
 <name><![CDATA[吹上三丁目]]></name>
</wpt>

<wpt lat="38.09638214111328" lon="140.858642578125">
 <time>2015-12-06T02:24:46ZZ</time>
 <name><![CDATA[吹上二丁目]]></name>
</wpt>

<wpt lat="38.097293853759766" lon="140.8616180419922">
 <time>2015-12-06T02:24:46ZZ</time>
 <name><![CDATA[吹上一丁目]]></name>
</wpt>

<wpt lat="38.09953308105469" lon="140.8633575439453">
 <time>2015-12-06T02:24:46ZZ</time>
 <name><![CDATA[南小学校前]]></name>
</wpt>

<wpt lat="38.101097106933594" lon="140.86203002929688">
 <time>2015-12-06T02:24:46ZZ</time>
 <name><![CDATA[岩沼中学校前]]></name>
</wpt>

<wpt lat="38.104679107666016" lon="140.86080932617188">
 <time>2015-12-06T02:24:46ZZ</time>
 <name><![CDATA[竹駒神社西]]></name>
</wpt>

<wpt lat="38.108360290527344" lon="140.86300659179688">
 <time>2015-12-06T02:24:46ZZ</time>
 <name><![CDATA[二木]]></name>
</wpt>

<wpt lat="38.11244201660156" lon="140.86351013183594">
 <time>2015-12-06T02:24:46ZZ</time>
 <name><![CDATA[駅西口]]></name>
</wpt>

<wpt lat="38.11709213256836" lon="140.8601531982422">
 <time>2015-12-06T02:24:46ZZ</time>
 <name><![CDATA[土ヶ崎北]]></name>
</wpt>

<wpt lat="38.12196731567383" lon="140.8459930419922">
 <time>2015-12-06T02:24:46ZZ</time>
 <name><![CDATA[ハナトピア前]]></name>
</wpt>

<wpt lat="38.1245231628418" lon="140.8496551513672">
 <time>2015-12-06T02:24:46ZZ</time>
 <name><![CDATA[三色吉北]]></name>
</wpt>

<wpt lat="38.123619079589844" lon="140.8570098876953">
 <time>2015-12-06T02:24:46ZZ</time>
 <name><![CDATA[長岡]]></name>
</wpt>

<wpt lat="38.113861083984375" lon="140.84376525878906">
 <time>2015-12-06T02:24:46ZZ</time>
 <name><![CDATA[平等団地]]></name>
</wpt>

<wpt lat="38.10818862915039" lon="140.8416290283203">
 <time>2015-12-06T02:24:46ZZ</time>
 <name><![CDATA[グリーンピア入口]]></name>
</wpt>

<wpt lat="38.10531997680664" lon="140.8426513671875">
 <time>2015-12-06T02:24:46ZZ</time>
 <name><![CDATA[北長谷公会堂前]]></name>
</wpt>

<wpt lat="38.09908676147461" lon="140.84169006347656">
 <time>2015-12-06T02:24:46ZZ</time>
 <name><![CDATA[根方]]></name>
</wpt>

<wpt lat="38.09400177001953" lon="140.844482421875">
 <time>2015-12-06T02:24:46ZZ</time>
 <name><![CDATA[根方公会堂前]]></name>
</wpt>

<wpt lat="38.11202621459961" lon="140.86447143554688">
 <time>2015-12-06T02:24:46ZZ</time>
 <name><![CDATA[岩沼駅前]]></name>
</wpt>

<wpt lat="38.11122131347656" lon="140.8683624267578">
 <time>2015-12-06T02:24:46ZZ</time>
 <name><![CDATA[中央三丁目]]></name>
</wpt>

<wpt lat="38.11160659790039" lon="140.86912536621094">
 <time>2015-12-06T02:24:46ZZ</time>
 <name><![CDATA[中央三丁目東]]></name>
</wpt>

<wpt lat="38.11351013183594" lon="140.8688201904297">
 <time>2015-12-06T02:24:46ZZ</time>
 <name><![CDATA[中央三丁目北]]></name>
</wpt>

<wpt lat="38.1127815246582" lon="140.85829162597656">
 <time>2015-12-06T02:24:46ZZ</time>
 <name><![CDATA[土ヶ崎三丁目]]></name>
</wpt>

<wpt lat="38.11589431762695" lon="140.87054443359375">
 <time>2015-12-06T02:24:46ZZ</time>
 <name><![CDATA[相の原]]></name>
</wpt>

<wpt lat="38.10955047607422" lon="140.86788940429688">
 <time>2015-12-06T02:24:46ZZ</time>
 <name><![CDATA[中央二丁目]]></name>
</wpt>

<wpt lat="38.10512161254883" lon="140.87095642089844">
 <time>2015-12-06T02:24:46ZZ</time>
 <name><![CDATA[市役所前]]></name>
</wpt>

<wpt lat="38.11804962158203" lon="140.85215759277344">
 <time>2015-12-06T02:24:46ZZ</time>
 <name><![CDATA[朝日山公園入口]]></name>
</wpt>

<wpt lat="38.117958068847656" lon="140.8560333251953">
 <time>2015-12-06T02:24:46ZZ</time>
 <name><![CDATA[朝日]]></name>
</wpt>

<wpt lat="38.106441497802734" lon="140.82823181152344">
 <time>2015-12-06T02:24:46ZZ</time>
 <name><![CDATA[グリーンピア岩沼]]></name>
</wpt>

<wpt lat="38.108821868896484" lon="140.84336853027344">
 <time>2015-12-06T02:24:46ZZ</time>
 <name><![CDATA[岩沼高等学校北門前]]></name>
</wpt>

<wpt lat="38.11914825439453" lon="140.84645080566406">
 <time>2015-12-06T02:24:46ZZ</time>
 <name><![CDATA[三色吉]]></name>
</wpt>

<wpt lat="38.124794006347656" lon="140.8437957763672">
 <time>2015-12-06T02:24:46ZZ</time>
 <name><![CDATA[大窪]]></name>
</wpt>

<wpt lat="38.11733627319336" lon="140.86997985839844">
 <time>2015-12-06T02:24:46ZZ</time>
 <name><![CDATA[中央四丁目]]></name>
</wpt>

<wpt lat="38.10380172729492" lon="140.86582946777344">
 <time>2015-12-06T02:24:46ZZ</time>
 <name><![CDATA[竹駒神社本町]]></name>
</wpt>

<wpt lat="38.105648040771484" lon="140.86741638183594">
 <time>2015-12-06T02:24:46ZZ</time>
 <name><![CDATA[中央一丁目南]]></name>
</wpt>

<wpt lat="38.10811233520508" lon="140.8549041748047">
 <time>2015-12-06T02:24:46ZZ</time>
 <name><![CDATA[武隈]]></name>
</wpt>

<wpt lat="38.11238479614258" lon="140.85272216796875">
 <time>2015-12-06T02:24:46ZZ</time>
 <name><![CDATA[土ヶ崎郵便局西]]></name>
</wpt>

<wpt lat="38.132179260253906" lon="140.80653381347656">
 <time>2015-12-06T02:24:46ZZ</time>
 <name><![CDATA[中井]]></name>
</wpt>

<wpt lat="38.131622314453125" lon="140.79574584960938">
 <time>2015-12-06T02:24:46ZZ</time>
 <name><![CDATA[大師]]></name>
</wpt>

<wpt lat="38.12947463989258" lon="140.84722900390625">
 <time>2015-12-06T02:24:46ZZ</time>
 <name><![CDATA[小川]]></name>
</wpt>

<wpt lat="38.130287170410156" lon="140.84072875976562">
 <time>2015-12-06T02:24:46ZZ</time>
 <name><![CDATA[旧千貫農協前]]></name>
</wpt>

<wpt lat="38.13247299194336" lon="140.83016967773438">
 <time>2015-12-06T02:24:46ZZ</time>
 <name><![CDATA[田尻]]></name>
</wpt>

<wpt lat="38.13234329223633" lon="140.82534790039062">
 <time>2015-12-06T02:24:46ZZ</time>
 <name><![CDATA[八幡神社前]]></name>
</wpt>

<wpt lat="38.131534576416016" lon="140.82012939453125">
 <time>2015-12-06T02:24:46ZZ</time>
 <name><![CDATA[長坂]]></name>
</wpt>

<wpt lat="38.132469177246094" lon="140.8109893798828">
 <time>2015-12-06T02:24:46ZZ</time>
 <name><![CDATA[銅谷]]></name>
</wpt>

<wpt lat="38.111507415771484" lon="140.8916015625">
 <time>2015-12-06T02:24:46ZZ</time>
 <name><![CDATA[中条]]></name>
</wpt>

<wpt lat="38.11695861816406" lon="140.89791870117188">
 <time>2015-12-06T02:24:46ZZ</time>
 <name><![CDATA[竹の内]]></name>
</wpt>

<wpt lat="38.12406921386719" lon="140.9022979736328">
 <time>2015-12-06T02:24:46ZZ</time>
 <name><![CDATA[矢野目]]></name>
</wpt>

<wpt lat="38.118431091308594" lon="140.90281677246094">
 <time>2015-12-06T02:24:46ZZ</time>
 <name><![CDATA[間堀]]></name>
</wpt>

<wpt lat="38.12752151489258" lon="140.90399169921875">
 <time>2015-12-06T02:24:46ZZ</time>
 <name><![CDATA[谷地]]></name>
</wpt>

<wpt lat="38.09505844116211" lon="140.92684936523438">
 <time>2015-12-06T02:24:46ZZ</time>
 <name><![CDATA[長谷釜]]></name>
</wpt>

<wpt lat="38.10592269897461" lon="140.90406799316406">
 <time>2015-12-06T02:24:46ZZ</time>
 <name><![CDATA[玉浦中学校前]]></name>
</wpt>

<wpt lat="38.11111068725586" lon="140.8723602294922">
 <time>2015-12-06T02:24:46ZZ</time>
 <name><![CDATA[桜五丁目]]></name>
</wpt>

<wpt lat="38.10969924926758" lon="140.8778533935547">
 <time>2015-12-06T02:24:46ZZ</time>
 <name><![CDATA[市民会館北]]></name>
</wpt>

<wpt lat="38.109493255615234" lon="140.8821563720703">
 <time>2015-12-06T02:24:46ZZ</time>
 <name><![CDATA[押分団地前]]></name>
</wpt>

<wpt lat="38.10485076904297" lon="140.91090393066406">
 <time>2015-12-06T02:24:46ZZ</time>
 <name><![CDATA[玉浦小学校前]]></name>
</wpt>

<wpt lat="38.098121643066406" lon="140.91339111328125">
 <time>2015-12-06T02:24:46ZZ</time>
 <name><![CDATA[長者森]]></name>
</wpt>

<wpt lat="38.12254333496094" lon="140.87197875976562">
 <time>2015-12-06T02:24:46ZZ</time>
 <name><![CDATA[梶橋]]></name>
</wpt>

<wpt lat="38.10734176635742" lon="140.87799072265625">
 <time>2015-12-06T02:24:46ZZ</time>
 <name><![CDATA[市民会館前]]></name>
</wpt>

<wpt lat="38.10310363769531" lon="140.87672424316406">
 <time>2015-12-06T02:24:46ZZ</time>
 <name><![CDATA[里の杜]]></name>
</wpt>

<wpt lat="38.10157012939453" lon="140.8814239501953">
 <time>2015-12-06T02:24:46ZZ</time>
 <name><![CDATA[押分]]></name>
</wpt>

<wpt lat="38.10491943359375" lon="140.8753662109375">
 <time>2015-12-06T02:24:46ZZ</time>
 <name><![CDATA[陸上競技場前]]></name>
</wpt>

<wpt lat="38.096675872802734" lon="140.89410400390625">
 <time>2015-12-06T02:24:46ZZ</time>
 <name><![CDATA[早股上]]></name>
</wpt>

<wpt lat="38.092041015625" lon="140.90191650390625">
 <time>2015-12-06T02:24:46ZZ</time>
 <name><![CDATA[早股中]]></name>
</wpt>

<wpt lat="38.109107971191406" lon="140.8846893310547">
 <time>2015-12-06T02:24:46ZZ</time>
 <name><![CDATA[前条]]></name>
</wpt>

<wpt lat="38.10172653198242" lon="140.9239959716797">
 <time>2015-12-06T02:24:46ZZ</time>
 <name><![CDATA[二野倉]]></name>
</wpt>

<wpt lat="38.12745666503906" lon="140.9084014892578">
 <time>2015-12-06T02:24:46ZZ</time>
 <name><![CDATA[矢野目集会所前]]></name>
</wpt>

<wpt lat="38.10158920288086" lon="140.92864990234375">
 <time>2015-12-06T02:24:46ZZ</time>
 <name><![CDATA[市営プール前]]></name>
</wpt>

<wpt lat="38.113956451416016" lon="140.9057159423828">
 <time>2015-12-06T02:24:46ZZ</time>
 <name><![CDATA[西土手]]></name>
</wpt>

<wpt lat="38.11161422729492" lon="140.9099578857422">
 <time>2015-12-06T02:24:46ZZ</time>
 <name><![CDATA[恵洪寺前]]></name>
</wpt>

<wpt lat="38.10298156738281" lon="140.8739013671875">
 <time>2015-12-06T02:24:46ZZ</time>
 <name><![CDATA[志引橋]]></name>
</wpt>

<wpt lat="38.11577606201172" lon="140.87266540527344">
 <time>2015-12-06T02:24:46ZZ</time>
 <name><![CDATA[北中学校前]]></name>
</wpt>

<wpt lat="38.1125602722168" lon="140.9241943359375">
 <time>2015-12-06T02:24:46ZZ</time>
 <name><![CDATA[藤曽根]]></name>
</wpt>

<wpt lat="38.10783004760742" lon="140.91078186035156">
 <time>2015-12-06T02:24:46ZZ</time>
 <name><![CDATA[林住宅西口]]></name>
</wpt>

<wpt lat="38.132259368896484" lon="140.9167938232422">
 <time>2015-12-06T02:24:46ZZ</time>
 <name><![CDATA[航空大学校前]]></name>
</wpt>

<wpt lat="38.13180923461914" lon="140.90602111816406">
 <time>2015-12-06T02:24:46ZZ</time>
 <name><![CDATA[北谷地]]></name>
</wpt>

<wpt lat="38.1298828125" lon="140.91119384765625">
 <time>2015-12-06T02:24:46ZZ</time>
 <name><![CDATA[臨空工業団地]]></name>
</wpt>

<wpt lat="38.13352584838867" lon="140.91256713867188">
 <time>2015-12-06T02:24:46ZZ</time>
 <name><![CDATA[関迎]]></name>
</wpt>

<wpt lat="38.1375732421875" lon="140.9290008544922">
 <time>2015-12-06T02:24:46ZZ</time>
 <name><![CDATA[仙台空港]]></name>
</wpt>

<wpt lat="38.1312255859375" lon="140.91079711914062">
 <time>2015-12-06T02:24:46ZZ</time>
 <name><![CDATA[新田]]></name>
</wpt>

<wpt lat="38.13013458251953" lon="140.9283905029297">
 <time>2015-12-06T02:24:46ZZ</time>
 <name><![CDATA[相野釜橋]]></name>
</wpt>

<wpt lat="38.10334014892578" lon="140.86563110351562">
 <time>2015-12-06T02:24:46ZZ</time>
 <name><![CDATA[本町]]></name>
</wpt>

<wpt lat="38.13119125366211" lon="140.93222045898438">
 <time>2015-12-06T02:24:46ZZ</time>
 <name><![CDATA[相野釜]]></name>
</wpt>

<wpt lat="38.12443923950195" lon="140.93606567382812">
 <time>2015-12-06T02:24:46ZZ</time>
 <name><![CDATA[千寿荘]]></name>
</wpt>

<wpt lat="38.6649055480957" lon="141.2676239013672">
 <time>2015-12-06T02:24:46ZZ</time>
 <name><![CDATA[赤坂]]></name>
</wpt>

<wpt lat="38.66510009765625" lon="141.27418518066406">
 <time>2015-12-06T02:24:46ZZ</time>
 <name><![CDATA[蛭沢]]></name>
</wpt>

<wpt lat="38.652488708496094" lon="141.28736877441406">
 <time>2015-12-06T02:24:46ZZ</time>
 <name><![CDATA[日根牛]]></name>
</wpt>

<wpt lat="38.64878845214844" lon="141.2866668701172">
 <time>2015-12-06T02:24:46ZZ</time>
 <name><![CDATA[登米電子前]]></name>
</wpt>

<wpt lat="38.65131378173828" lon="141.27928161621094">
 <time>2015-12-06T02:24:46ZZ</time>
 <name><![CDATA[八幡神社前]]></name>
</wpt>

<wpt lat="38.65087127685547" lon="141.2726287841797">
 <time>2015-12-06T02:24:46ZZ</time>
 <name><![CDATA[鉄砲町]]></name>
</wpt>

<wpt lat="38.64854431152344" lon="141.25775146484375">
 <time>2015-12-06T02:24:46ZZ</time>
 <name><![CDATA[小島]]></name>
</wpt>

<wpt lat="38.64494705200195" lon="141.24679565429688">
 <time>2015-12-06T02:24:46ZZ</time>
 <name><![CDATA[森の腰]]></name>
</wpt>

<wpt lat="38.63553237915039" lon="141.28904724121094">
 <time>2015-12-06T02:24:46ZZ</time>
 <name><![CDATA[峰畑]]></name>
</wpt>

<wpt lat="38.65237808227539" lon="141.2822265625">
 <time>2015-12-06T02:24:46ZZ</time>
 <name><![CDATA[九日町]]></name>
</wpt>

<wpt lat="38.65452575683594" lon="141.2816619873047">
 <time>2015-12-06T02:24:46ZZ</time>
 <name><![CDATA[登米三日町]]></name>
</wpt>

<wpt lat="38.646175384521484" lon="141.2548065185547">
 <time>2015-12-06T02:24:46ZZ</time>
 <name><![CDATA[西針田]]></name>
</wpt>

<wpt lat="38.648616790771484" lon="141.26779174804688">
 <time>2015-12-06T02:24:46ZZ</time>
 <name><![CDATA[金沢山]]></name>
</wpt>

<wpt lat="38.65986633300781" lon="141.2711181640625">
 <time>2015-12-06T02:24:46ZZ</time>
 <name><![CDATA[渋江]]></name>
</wpt>

<wpt lat="38.6573600769043" lon="141.27719116210938">
 <time>2015-12-06T02:24:46ZZ</time>
 <name><![CDATA[登米総合支所]]></name>
</wpt>

<wpt lat="38.64694595336914" lon="141.249755859375">
 <time>2015-12-06T02:24:46ZZ</time>
 <name><![CDATA[針田橋]]></name>
</wpt>

<wpt lat="38.70608901977539" lon="141.18287658691406">
 <time>2015-12-06T02:24:46ZZ</time>
 <name><![CDATA[舟橋]]></name>
</wpt>

<wpt lat="38.67435836791992" lon="141.17083740234375">
 <time>2015-12-06T02:24:46ZZ</time>
 <name><![CDATA[板倉]]></name>
</wpt>

<wpt lat="38.71001434326172" lon="141.17816162109375">
 <time>2015-12-06T02:24:46ZZ</time>
 <name><![CDATA[JA北方支店前]]></name>
</wpt>

<wpt lat="38.685482025146484" lon="141.19679260253906">
 <time>2015-12-06T02:24:46ZZ</time>
 <name><![CDATA[津島神社前]]></name>
</wpt>

<wpt lat="38.68584060668945" lon="141.18641662597656">
 <time>2015-12-06T02:24:46ZZ</time>
 <name><![CDATA[萩洗]]></name>
</wpt>

<wpt lat="38.68967056274414" lon="141.19007873535156">
 <time>2015-12-06T02:24:46ZZ</time>
 <name><![CDATA[ミヤコーバス佐沼営業所]]></name>
</wpt>

<wpt lat="38.68584442138672" lon="141.20384216308594">
 <time>2015-12-06T02:24:46ZZ</time>
 <name><![CDATA[光ヶ丘]]></name>
</wpt>

<wpt lat="38.687652587890625" lon="141.1968231201172">
 <time>2015-12-06T02:24:46ZZ</time>
 <name><![CDATA[一市]]></name>
</wpt>

<wpt lat="38.68913269042969" lon="141.19862365722656">
 <time>2015-12-06T02:24:46ZZ</time>
 <name><![CDATA[五日町]]></name>
</wpt>

<wpt lat="38.6906852722168" lon="141.2015380859375">
 <time>2015-12-06T02:24:46ZZ</time>
 <name><![CDATA[的場]]></name>
</wpt>

<wpt lat="38.69377517700195" lon="141.2071075439453">
 <time>2015-12-06T02:24:46ZZ</time>
 <name><![CDATA[東佐沼]]></name>
</wpt>

<wpt lat="38.698612213134766" lon="141.19168090820312">
 <time>2015-12-06T02:24:46ZZ</time>
 <name><![CDATA[西館]]></name>
</wpt>

<wpt lat="38.68675231933594" lon="141.1929931640625">
 <time>2015-12-06T02:24:46ZZ</time>
 <name><![CDATA[佐沼病院前]]></name>
</wpt>

<wpt lat="38.69157409667969" lon="141.20315551757812">
 <time>2015-12-06T02:24:46ZZ</time>
 <name><![CDATA[佐沼高校前]]></name>
</wpt>

<wpt lat="38.681087493896484" lon="141.18431091308594">
 <time>2015-12-06T02:24:46ZZ</time>
 <name><![CDATA[飯島]]></name>
</wpt>

<wpt lat="38.68867111206055" lon="141.19219970703125">
 <time>2015-12-06T02:24:46ZZ</time>
 <name><![CDATA[佐沼郵便局前]]></name>
</wpt>

<wpt lat="38.670597076416016" lon="141.1881866455078">
 <time>2015-12-06T02:24:46ZZ</time>
 <name><![CDATA[辻橋]]></name>
</wpt>

<wpt lat="38.674461364746094" lon="141.19229125976562">
 <time>2015-12-06T02:24:46ZZ</time>
 <name><![CDATA[本郷]]></name>
</wpt>

<wpt lat="38.679630279541016" lon="141.19473266601562">
 <time>2015-12-06T02:24:46ZZ</time>
 <name><![CDATA[大網]]></name>
</wpt>

<wpt lat="38.682273864746094" lon="141.19459533691406">
 <time>2015-12-06T02:24:46ZZ</time>
 <name><![CDATA[南佐沼]]></name>
</wpt>

<wpt lat="38.691307067871094" lon="141.18679809570312">
 <time>2015-12-06T02:24:46ZZ</time>
 <name><![CDATA[登米市役所]]></name>
</wpt>

<wpt lat="38.58782196044922" lon="141.25152587890625">
 <time>2015-12-06T02:24:46ZZ</time>
 <name><![CDATA[豊里総合支所]]></name>
</wpt>

<wpt lat="38.58345031738281" lon="141.25094604492188">
 <time>2015-12-06T02:24:46ZZ</time>
 <name><![CDATA[JA豊里支店前]]></name>
</wpt>

<wpt lat="38.58452606201172" lon="141.25413513183594">
 <time>2015-12-06T02:24:46ZZ</time>
 <name><![CDATA[ミヤコーバス豊里車庫]]></name>
</wpt>

<wpt lat="38.58583450317383" lon="141.25271606445312">
 <time>2015-12-06T02:24:46ZZ</time>
 <name><![CDATA[豊里病院前]]></name>
</wpt>

<wpt lat="38.653648376464844" lon="141.1185760498047">
 <time>2015-12-06T02:24:46ZZ</time>
 <name><![CDATA[西郷]]></name>
</wpt>

<wpt lat="38.653289794921875" lon="141.06863403320312">
 <time>2015-12-06T02:24:46ZZ</time>
 <name><![CDATA[県立瀬峰病院]]></name>
</wpt>

<wpt lat="38.653038024902344" lon="141.07200622558594">
 <time>2015-12-06T02:24:46ZZ</time>
 <name><![CDATA[県立病院入口]]></name>
</wpt>

<wpt lat="38.650428771972656" lon="141.07659912109375">
 <time>2015-12-06T02:24:46ZZ</time>
 <name><![CDATA[宮小路原]]></name>
</wpt>

<wpt lat="38.64936447143555" lon="141.0805206298828">
 <time>2015-12-06T02:24:46ZZ</time>
 <name><![CDATA[下山団地入口]]></name>
</wpt>

<wpt lat="38.64741897583008" lon="141.09335327148438">
 <time>2015-12-06T02:24:46ZZ</time>
 <name><![CDATA[上沼崎]]></name>
</wpt>

<wpt lat="38.649696350097656" lon="141.0988006591797">
 <time>2015-12-06T02:24:46ZZ</time>
 <name><![CDATA[沼崎下]]></name>
</wpt>

<wpt lat="38.652442932128906" lon="141.10556030273438">
 <time>2015-12-06T02:24:46ZZ</time>
 <name><![CDATA[大平]]></name>
</wpt>

<wpt lat="38.661643981933594" lon="141.2153778076172">
 <time>2015-12-06T02:24:46ZZ</time>
 <name><![CDATA[首無]]></name>
</wpt>

<wpt lat="38.655269622802734" lon="141.2130889892578">
 <time>2015-12-06T02:24:46ZZ</time>
 <name><![CDATA[町吉田]]></name>
</wpt>

<wpt lat="38.6610107421875" lon="141.157958984375">
 <time>2015-12-06T02:24:46ZZ</time>
 <name><![CDATA[南方中学校前]]></name>
</wpt>

<wpt lat="38.65818786621094" lon="141.15203857421875">
 <time>2015-12-06T02:24:46ZZ</time>
 <name><![CDATA[高石]]></name>
</wpt>

<wpt lat="38.658897399902344" lon="141.1400909423828">
 <time>2015-12-06T02:24:46ZZ</time>
 <name><![CDATA[大坂]]></name>
</wpt>

<wpt lat="38.65504455566406" lon="141.12623596191406">
 <time>2015-12-06T02:24:46ZZ</time>
 <name><![CDATA[狼の欠]]></name>
</wpt>

<wpt lat="38.64565658569336" lon="141.1725616455078">
 <time>2015-12-06T02:24:46ZZ</time>
 <name><![CDATA[砥落橋]]></name>
</wpt>

<wpt lat="38.64768981933594" lon="141.21653747558594">
 <time>2015-12-06T02:24:46ZZ</time>
 <name><![CDATA[田畑]]></name>
</wpt>

<wpt lat="38.64256286621094" lon="141.24176025390625">
 <time>2015-12-06T02:24:46ZZ</time>
 <name><![CDATA[和道]]></name>
</wpt>

<wpt lat="38.640380859375" lon="141.23275756835938">
 <time>2015-12-06T02:24:46ZZ</time>
 <name><![CDATA[中新田]]></name>
</wpt>

<wpt lat="38.64290237426758" lon="141.2108612060547">
 <time>2015-12-06T02:24:46ZZ</time>
 <name><![CDATA[山吉田橋]]></name>
</wpt>

<wpt lat="38.62944793701172" lon="141.19297790527344">
 <time>2015-12-06T02:24:46ZZ</time>
 <name><![CDATA[米岡新町]]></name>
</wpt>

<wpt lat="38.63658905029297" lon="141.20440673828125">
 <time>2015-12-06T02:24:46ZZ</time>
 <name><![CDATA[後小路]]></name>
</wpt>

<wpt lat="38.632896423339844" lon="141.20245361328125">
 <time>2015-12-06T02:24:46ZZ</time>
 <name><![CDATA[上小路]]></name>
</wpt>

<wpt lat="38.632083892822266" lon="141.2202911376953">
 <time>2015-12-06T02:24:46ZZ</time>
 <name><![CDATA[相の山]]></name>
</wpt>

<wpt lat="38.63777542114258" lon="141.23004150390625">
 <time>2015-12-06T02:24:46ZZ</time>
 <name><![CDATA[大久保]]></name>
</wpt>

<wpt lat="38.63500213623047" lon="141.22605895996094">
 <time>2015-12-06T02:24:46ZZ</time>
 <name><![CDATA[朝来]]></name>
</wpt>

<wpt lat="38.6292839050293" lon="141.21453857421875">
 <time>2015-12-06T02:24:46ZZ</time>
 <name><![CDATA[よねやま病院前]]></name>
</wpt>

<wpt lat="38.62730407714844" lon="141.2123260498047">
 <time>2015-12-06T02:24:46ZZ</time>
 <name><![CDATA[吉田門前]]></name>
</wpt>

<wpt lat="38.62193298339844" lon="141.21693420410156">
 <time>2015-12-06T02:24:46ZZ</time>
 <name><![CDATA[鈴根]]></name>
</wpt>

<wpt lat="38.6269645690918" lon="141.20347595214844">
 <time>2015-12-06T02:24:46ZZ</time>
 <name><![CDATA[米岡十日町]]></name>
</wpt>

<wpt lat="38.62953186035156" lon="141.1967010498047">
 <time>2015-12-06T02:24:46ZZ</time>
 <name><![CDATA[米岡仲町]]></name>
</wpt>

<wpt lat="38.623043060302734" lon="141.158935546875">
 <time>2015-12-06T02:24:46ZZ</time>
 <name><![CDATA[谷地渕]]></name>
</wpt>

<wpt lat="38.62348556518555" lon="141.15533447265625">
 <time>2015-12-06T02:24:46ZZ</time>
 <name><![CDATA[六軒屋敷]]></name>
</wpt>

<wpt lat="38.61848068237305" lon="141.1806182861328">
 <time>2015-12-06T02:24:46ZZ</time>
 <name><![CDATA[柳渕]]></name>
</wpt>

<wpt lat="38.6103515625" lon="141.2232666015625">
 <time>2015-12-06T02:24:46ZZ</time>
 <name><![CDATA[狐崎]]></name>
</wpt>

<wpt lat="38.60731506347656" lon="141.225341796875">
 <time>2015-12-06T02:24:46ZZ</time>
 <name><![CDATA[畑崎]]></name>
</wpt>

<wpt lat="38.614986419677734" lon="141.1777801513672">
 <time>2015-12-06T02:24:46ZZ</time>
 <name><![CDATA[米山高校前]]></name>
</wpt>

<wpt lat="38.60310745239258" lon="141.22906494140625">
 <time>2015-12-06T02:24:46ZZ</time>
 <name><![CDATA[唐崎]]></name>
</wpt>

<wpt lat="38.59843826293945" lon="141.23019409179688">
 <time>2015-12-06T02:24:46ZZ</time>
 <name><![CDATA[大曲]]></name>
</wpt>

<wpt lat="38.66877365112305" lon="141.1652374267578">
 <time>2015-12-06T02:24:46ZZ</time>
 <name><![CDATA[松島屋敷]]></name>
</wpt>

<wpt lat="38.65758514404297" lon="141.14761352539062">
 <time>2015-12-06T02:24:46ZZ</time>
 <name><![CDATA[中高石]]></name>
</wpt>

<wpt lat="38.64992904663086" lon="141.14418029785156">
 <time>2015-12-06T02:24:46ZZ</time>
 <name><![CDATA[大袋]]></name>
</wpt>

<wpt lat="38.64691162109375" lon="141.16061401367188">
 <time>2015-12-06T02:24:46ZZ</time>
 <name><![CDATA[米袋]]></name>
</wpt>

<wpt lat="38.65245056152344" lon="141.21551513671875">
 <time>2015-12-06T02:24:46ZZ</time>
 <name><![CDATA[中道前]]></name>
</wpt>

<wpt lat="38.62950897216797" lon="141.20018005371094">
 <time>2015-12-06T02:24:46ZZ</time>
 <name><![CDATA[米山郵便局前]]></name>
</wpt>

<wpt lat="38.628177642822266" lon="141.1900634765625">
 <time>2015-12-06T02:24:46ZZ</time>
 <name><![CDATA[米山総合支所]]></name>
</wpt>

<wpt lat="38.62871170043945" lon="141.1571502685547">
 <time>2015-12-06T02:24:46ZZ</time>
 <name><![CDATA[粟ヶ崎]]></name>
</wpt>

<wpt lat="38.6197395324707" lon="141.16558837890625">
 <time>2015-12-06T02:24:46ZZ</time>
 <name><![CDATA[追土地]]></name>
</wpt>

<wpt lat="38.66764450073242" lon="141.1850128173828">
 <time>2015-12-06T02:24:46ZZ</time>
 <name><![CDATA[大門]]></name>
</wpt>

<wpt lat="38.66437530517578" lon="141.17529296875">
 <time>2015-12-06T02:24:46ZZ</time>
 <name><![CDATA[原]]></name>
</wpt>

<wpt lat="38.660614013671875" lon="141.16781616210938">
 <time>2015-12-06T02:24:46ZZ</time>
 <name><![CDATA[山成]]></name>
</wpt>

<wpt lat="38.66365051269531" lon="141.16043090820312">
 <time>2015-12-06T02:24:46ZZ</time>
 <name><![CDATA[南方総合支所]]></name>
</wpt>

<wpt lat="38.623802185058594" lon="141.16639709472656">
 <time>2015-12-06T02:24:46ZZ</time>
 <name><![CDATA[中津山小学校前]]></name>
</wpt>

<wpt lat="38.65977478027344" lon="141.22415161132812">
 <time>2015-12-06T02:24:46ZZ</time>
 <name><![CDATA[吐出公民館前]]></name>
</wpt>

<wpt lat="38.59838104248047" lon="141.24142456054688">
 <time>2015-12-06T02:24:46ZZ</time>
 <name><![CDATA[竹花団地前]]></name>
</wpt>

<wpt lat="38.623451232910156" lon="141.29592895507812">
 <time>2015-12-06T02:24:46ZZ</time>
 <name><![CDATA[黄牛]]></name>
</wpt>

<wpt lat="38.611732482910156" lon="141.3056182861328">
 <time>2015-12-06T02:24:46ZZ</time>
 <name><![CDATA[柳津駅前]]></name>
</wpt>

<wpt lat="38.612937927246094" lon="141.3000030517578">
 <time>2015-12-06T02:24:46ZZ</time>
 <name><![CDATA[柳津三丁目]]></name>
</wpt>

<wpt lat="38.615142822265625" lon="141.29983520507812">
 <time>2015-12-06T02:24:46ZZ</time>
 <name><![CDATA[柳津小学校前]]></name>
</wpt>

<wpt lat="38.58961868286133" lon="141.24742126464844">
 <time>2015-12-06T02:24:46ZZ</time>
 <name><![CDATA[肘曲]]></name>
</wpt>

<wpt lat="38.61273193359375" lon="141.30169677734375">
 <time>2015-12-06T02:24:46ZZ</time>
 <name><![CDATA[津山総合支所前]]></name>
</wpt>

<wpt lat="38.61964416503906" lon="141.32667541503906">
 <time>2015-12-06T02:24:46ZZ</time>
 <name><![CDATA[もくもくランド前]]></name>
</wpt>

<wpt lat="38.63066101074219" lon="141.3506317138672">
 <time>2015-12-06T02:24:46ZZ</time>
 <name><![CDATA[津山公民館前]]></name>
</wpt>

<wpt lat="38.6097297668457" lon="141.30142211914062">
 <time>2015-12-06T02:24:46ZZ</time>
 <name><![CDATA[谷木]]></name>
</wpt>

<wpt lat="38.61510467529297" lon="141.32064819335938">
 <time>2015-12-06T02:24:46ZZ</time>
 <name><![CDATA[津山中学校前]]></name>
</wpt>

<wpt lat="38.62887191772461" lon="141.34962463378906">
 <time>2015-12-06T02:24:46ZZ</time>
 <name><![CDATA[南沢]]></name>
</wpt>

<wpt lat="38.63688278198242" lon="141.3621368408203">
 <time>2015-12-06T02:24:46ZZ</time>
 <name><![CDATA[元木橋]]></name>
</wpt>

<wpt lat="38.637855529785156" lon="141.36720275878906">
 <time>2015-12-06T02:24:46ZZ</time>
 <name><![CDATA[黒沢]]></name>
</wpt>

<wpt lat="38.6418342590332" lon="141.37342834472656">
 <time>2015-12-06T02:24:46ZZ</time>
 <name><![CDATA[竹の沢]]></name>
</wpt>

<wpt lat="38.711669921875" lon="141.12039184570312">
 <time>2015-12-06T02:24:46ZZ</time>
 <name><![CDATA[新田駅前]]></name>
</wpt>

<wpt lat="38.71001052856445" lon="141.1178436279297">
 <time>2015-12-06T02:24:46ZZ</time>
 <name><![CDATA[JA新田支店前]]></name>
</wpt>

<wpt lat="38.748260498046875" lon="141.14712524414062">
 <time>2015-12-06T02:24:46ZZ</time>
 <name><![CDATA[大目]]></name>
</wpt>

<wpt lat="38.72967529296875" lon="141.1614532470703">
 <time>2015-12-06T02:24:46ZZ</time>
 <name><![CDATA[三方島]]></name>
</wpt>

<wpt lat="38.72712326049805" lon="141.16336059570312">
 <time>2015-12-06T02:24:46ZZ</time>
 <name><![CDATA[東新土手]]></name>
</wpt>

<wpt lat="38.71714782714844" lon="141.1700897216797">
 <time>2015-12-06T02:24:46ZZ</time>
 <name><![CDATA[仮屋]]></name>
</wpt>

<wpt lat="38.72052764892578" lon="141.1409454345703">
 <time>2015-12-06T02:24:46ZZ</time>
 <name><![CDATA[穴山]]></name>
</wpt>

<wpt lat="38.71874237060547" lon="141.13209533691406">
 <time>2015-12-06T02:24:46ZZ</time>
 <name><![CDATA[沼口]]></name>
</wpt>

<wpt lat="38.714839935302734" lon="141.127197265625">
 <time>2015-12-06T02:24:46ZZ</time>
 <name><![CDATA[坂戸]]></name>
</wpt>

<wpt lat="38.71217346191406" lon="141.17552185058594">
 <time>2015-12-06T02:24:46ZZ</time>
 <name><![CDATA[斜橋]]></name>
</wpt>

<wpt lat="38.67908477783203" lon="141.21658325195312">
 <time>2015-12-06T02:24:46ZZ</time>
 <name><![CDATA[平柳]]></name>
</wpt>

<wpt lat="38.75203323364258" lon="141.18849182128906">
 <time>2015-12-06T02:24:46ZZ</time>
 <name><![CDATA[矢作]]></name>
</wpt>

<wpt lat="38.749271392822266" lon="141.19192504882812">
 <time>2015-12-06T02:24:46ZZ</time>
 <name><![CDATA[大根の沢]]></name>
</wpt>

<wpt lat="38.746124267578125" lon="141.19631958007812">
 <time>2015-12-06T02:24:46ZZ</time>
 <name><![CDATA[新墓]]></name>
</wpt>

<wpt lat="38.74198913574219" lon="141.19996643066406">
 <time>2015-12-06T02:24:46ZZ</time>
 <name><![CDATA[平町]]></name>
</wpt>

<wpt lat="38.73185729980469" lon="141.19642639160156">
 <time>2015-12-06T02:24:46ZZ</time>
 <name><![CDATA[口梨]]></name>
</wpt>

<wpt lat="38.72526931762695" lon="141.20108032226562">
 <time>2015-12-06T02:24:46ZZ</time>
 <name><![CDATA[今堂]]></name>
</wpt>

<wpt lat="38.72370529174805" lon="141.20596313476562">
 <time>2015-12-06T02:24:46ZZ</time>
 <name><![CDATA[川前]]></name>
</wpt>

<wpt lat="38.722206115722656" lon="141.20933532714844">
 <time>2015-12-06T02:24:46ZZ</time>
 <name><![CDATA[石森新町]]></name>
</wpt>

<wpt lat="38.720584869384766" lon="141.2119903564453">
 <time>2015-12-06T02:24:46ZZ</time>
 <name><![CDATA[石森仲町]]></name>
</wpt>

<wpt lat="38.71929931640625" lon="141.21266174316406">
 <time>2015-12-06T02:24:46ZZ</time>
 <name><![CDATA[章太郎記念館前]]></name>
</wpt>

<wpt lat="38.69971466064453" lon="141.21766662597656">
 <time>2015-12-06T02:24:46ZZ</time>
 <name><![CDATA[加賀野]]></name>
</wpt>

<wpt lat="38.70212173461914" lon="141.22366333007812">
 <time>2015-12-06T02:24:46ZZ</time>
 <name><![CDATA[駒牽]]></name>
</wpt>

<wpt lat="38.69971466064453" lon="141.22691345214844">
 <time>2015-12-06T02:24:46ZZ</time>
 <name><![CDATA[野元]]></name>
</wpt>

<wpt lat="38.696136474609375" lon="141.23875427246094">
 <time>2015-12-06T02:24:46ZZ</time>
 <name><![CDATA[JA宝江支店前]]></name>
</wpt>

<wpt lat="38.69637680053711" lon="141.2412872314453">
 <time>2015-12-06T02:24:46ZZ</time>
 <name><![CDATA[黒沼]]></name>
</wpt>

<wpt lat="38.6944465637207" lon="141.24305725097656">
 <time>2015-12-06T02:24:46ZZ</time>
 <name><![CDATA[宝江小学校前]]></name>
</wpt>

<wpt lat="38.7106819152832" lon="141.23716735839844">
 <time>2015-12-06T02:24:46ZZ</time>
 <name><![CDATA[十文字]]></name>
</wpt>

<wpt lat="38.7055778503418" lon="141.22808837890625">
 <time>2015-12-06T02:24:46ZZ</time>
 <name><![CDATA[蓬田]]></name>
</wpt>

<wpt lat="38.71513748168945" lon="141.24496459960938">
 <time>2015-12-06T02:24:46ZZ</time>
 <name><![CDATA[籠壇]]></name>
</wpt>

<wpt lat="38.72245788574219" lon="141.14834594726562">
 <time>2015-12-06T02:24:46ZZ</time>
 <name><![CDATA[北方飯土井]]></name>
</wpt>

<wpt lat="38.71430587768555" lon="141.23941040039062">
 <time>2015-12-06T02:24:46ZZ</time>
 <name><![CDATA[中田総合支所]]></name>
</wpt>

<wpt lat="38.7420539855957" lon="141.15115356445312">
 <time>2015-12-06T02:24:46ZZ</time>
 <name><![CDATA[下大目]]></name>
</wpt>

<wpt lat="38.75248336791992" lon="141.14295959472656">
 <time>2015-12-06T02:24:46ZZ</time>
 <name><![CDATA[南二又]]></name>
</wpt>

<wpt lat="38.670013427734375" lon="141.21636962890625">
 <time>2015-12-06T02:24:46ZZ</time>
 <name><![CDATA[森小学校前]]></name>
</wpt>

<wpt lat="38.74800491333008" lon="141.31983947753906">
 <time>2015-12-06T02:24:46ZZ</time>
 <name><![CDATA[飯土井]]></name>
</wpt>

<wpt lat="38.74237823486328" lon="141.31492614746094">
 <time>2015-12-06T02:24:46ZZ</time>
 <name><![CDATA[東和総合支所]]></name>
</wpt>

<wpt lat="38.68858337402344" lon="141.27716064453125">
 <time>2015-12-06T02:24:46ZZ</time>
 <name><![CDATA[巻]]></name>
</wpt>

<wpt lat="38.740623474121094" lon="141.31182861328125">
 <time>2015-12-06T02:24:46ZZ</time>
 <name><![CDATA[堺]]></name>
</wpt>

<wpt lat="38.73682403564453" lon="141.29725646972656">
 <time>2015-12-06T02:24:46ZZ</time>
 <name><![CDATA[米谷大沢]]></name>
</wpt>

<wpt lat="38.73246383666992" lon="141.29238891601562">
 <time>2015-12-06T02:24:46ZZ</time>
 <name><![CDATA[蛇沼]]></name>
</wpt>

<wpt lat="38.73038864135742" lon="141.28456115722656">
 <time>2015-12-06T02:24:46ZZ</time>
 <name><![CDATA[赤坂]]></name>
</wpt>

<wpt lat="38.73165512084961" lon="141.2771453857422">
 <time>2015-12-06T02:24:46ZZ</time>
 <name><![CDATA[JA東和支店前]]></name>
</wpt>

<wpt lat="38.7311897277832" lon="141.2736053466797">
 <time>2015-12-06T02:24:46ZZ</time>
 <name><![CDATA[大町]]></name>
</wpt>

<wpt lat="38.72732925415039" lon="141.27146911621094">
 <time>2015-12-06T02:24:46ZZ</time>
 <name><![CDATA[錦織]]></name>
</wpt>

<wpt lat="38.718074798583984" lon="141.25010681152344">
 <time>2015-12-06T02:24:46ZZ</time>
 <name><![CDATA[上沼高校前]]></name>
</wpt>

<wpt lat="38.719642639160156" lon="141.25538635253906">
 <time>2015-12-06T02:24:46ZZ</time>
 <name><![CDATA[谷地前]]></name>
</wpt>

<wpt lat="38.71516799926758" lon="141.25840759277344">
 <time>2015-12-06T02:24:46ZZ</time>
 <name><![CDATA[川面]]></name>
</wpt>

<wpt lat="38.708717346191406" lon="141.2596435546875">
 <time>2015-12-06T02:24:46ZZ</time>
 <name><![CDATA[馬込屋]]></name>
</wpt>

<wpt lat="38.70768737792969" lon="141.26373291015625">
 <time>2015-12-06T02:24:46ZZ</time>
 <name><![CDATA[浅水]]></name>
</wpt>

<wpt lat="38.71141052246094" lon="141.29269409179688">
 <time>2015-12-06T02:24:46ZZ</time>
 <name><![CDATA[米谷工高前]]></name>
</wpt>

<wpt lat="38.707130432128906" lon="141.28823852539062">
 <time>2015-12-06T02:24:46ZZ</time>
 <name><![CDATA[米谷仲町]]></name>
</wpt>

<wpt lat="38.70537567138672" lon="141.2849578857422">
 <time>2015-12-06T02:24:46ZZ</time>
 <name><![CDATA[浅水舟場]]></name>
</wpt>

<wpt lat="38.704551696777344" lon="141.2801971435547">
 <time>2015-12-06T02:24:46ZZ</time>
 <name><![CDATA[長谷山]]></name>
</wpt>

<wpt lat="38.69982147216797" lon="141.2728271484375">
 <time>2015-12-06T02:24:46ZZ</time>
 <name><![CDATA[長谷]]></name>
</wpt>

<wpt lat="38.69317626953125" lon="141.27005004882812">
 <time>2015-12-06T02:24:46ZZ</time>
 <name><![CDATA[小島]]></name>
</wpt>

<wpt lat="38.69075012207031" lon="141.24903869628906">
 <time>2015-12-06T02:24:46ZZ</time>
 <name><![CDATA[細谷]]></name>
</wpt>

<wpt lat="38.67958450317383" lon="141.25119018554688">
 <time>2015-12-06T02:24:46ZZ</time>
 <name><![CDATA[新井田]]></name>
</wpt>

<wpt lat="38.6784782409668" lon="141.26971435546875">
 <time>2015-12-06T02:24:46ZZ</time>
 <name><![CDATA[久根崎]]></name>
</wpt>

<wpt lat="38.677528381347656" lon="141.2555389404297">
 <time>2015-12-06T02:24:46ZZ</time>
 <name><![CDATA[後谷地]]></name>
</wpt>

<wpt lat="38.673404693603516" lon="141.25982666015625">
 <time>2015-12-06T02:24:46ZZ</time>
 <name><![CDATA[並柳]]></name>
</wpt>

<wpt lat="38.669795989990234" lon="141.2631072998047">
 <time>2015-12-06T02:24:46ZZ</time>
 <name><![CDATA[二ッ矢]]></name>
</wpt>

<wpt lat="38.72587203979492" lon="141.2710723876953">
 <time>2015-12-06T02:24:46ZZ</time>
 <name><![CDATA[錦織教会前]]></name>
</wpt>

<wpt lat="38.67438507080078" lon="141.27001953125">
 <time>2015-12-06T02:24:46ZZ</time>
 <name><![CDATA[浅部]]></name>
</wpt>

<wpt lat="38.707603454589844" lon="141.26589965820312">
 <time>2015-12-06T02:24:46ZZ</time>
 <name><![CDATA[浅水小学校前]]></name>
</wpt>

<wpt lat="38.70314025878906" lon="141.28890991210938">
 <time>2015-12-06T02:24:46ZZ</time>
 <name><![CDATA[米谷病院前]]></name>
</wpt>

<wpt lat="38.75722122192383" lon="141.17996215820312">
 <time>2015-12-06T02:24:46ZZ</time>
 <name><![CDATA[八嶋中央診療所前]]></name>
</wpt>

<wpt lat="38.75855255126953" lon="141.17848205566406">
 <time>2015-12-06T02:24:46ZZ</time>
 <name><![CDATA[御伊勢堂前]]></name>
</wpt>

<wpt lat="38.765785217285156" lon="141.17343139648438">
 <time>2015-12-06T02:24:46ZZ</time>
 <name><![CDATA[芦倉]]></name>
</wpt>

<wpt lat="38.76729202270508" lon="141.16983032226562">
 <time>2015-12-06T02:24:46ZZ</time>
 <name><![CDATA[新道]]></name>
</wpt>

<wpt lat="38.76716995239258" lon="141.16322326660156">
 <time>2015-12-06T02:24:46ZZ</time>
 <name><![CDATA[割山]]></name>
</wpt>

<wpt lat="38.77003479003906" lon="141.15203857421875">
 <time>2015-12-06T02:24:46ZZ</time>
 <name><![CDATA[東並柳]]></name>
</wpt>

<wpt lat="38.77066421508789" lon="141.1380615234375">
 <time>2015-12-06T02:24:46ZZ</time>
 <name><![CDATA[若柳病院前]]></name>
</wpt>

<wpt lat="38.77314758300781" lon="141.13539123535156">
 <time>2015-12-06T02:24:46ZZ</time>
 <name><![CDATA[若柳片町]]></name>
</wpt>

<wpt lat="38.76606369018555" lon="141.13108825683594">
 <time>2015-12-06T02:24:46ZZ</time>
 <name><![CDATA[若柳球場前]]></name>
</wpt>

<wpt lat="38.760833740234375" lon="141.1339569091797">
 <time>2015-12-06T02:24:46ZZ</time>
 <name><![CDATA[上川原]]></name>
</wpt>

<wpt lat="38.76895523071289" lon="141.1259765625">
 <time>2015-12-06T02:24:46ZZ</time>
 <name><![CDATA[南大通り]]></name>
</wpt>

<wpt lat="38.756072998046875" lon="141.18316650390625">
 <time>2015-12-06T02:24:46ZZ</time>
 <name><![CDATA[長根]]></name>
</wpt>

<wpt lat="38.768672943115234" lon="141.1282958984375">
 <time>2015-12-06T02:24:46ZZ</time>
 <name><![CDATA[柳徳寺前]]></name>
</wpt>

<wpt lat="38.75751876831055" lon="141.17758178710938">
 <time>2015-12-06T02:24:46ZZ</time>
 <name><![CDATA[石越総合支所]]></name>
</wpt>

<wpt lat="38.76331329345703" lon="141.17681884765625">
 <time>2015-12-06T02:24:46ZZ</time>
 <name><![CDATA[市営住宅前]]></name>
</wpt>

<wpt lat="38.76681900024414" lon="141.32762145996094">
 <time>2015-12-06T02:24:46ZZ</time>
 <name><![CDATA[米川診療所前]]></name>
</wpt>

<wpt lat="38.768798828125" lon="141.32870483398438">
 <time>2015-12-06T02:24:46ZZ</time>
 <name><![CDATA[米川]]></name>
</wpt>

<wpt lat="38.77132797241211" lon="141.32977294921875">
 <time>2015-12-06T02:24:46ZZ</time>
 <name><![CDATA[米川元町]]></name>
</wpt>

<wpt lat="38.774112701416016" lon="141.32904052734375">
 <time>2015-12-06T02:24:46ZZ</time>
 <name><![CDATA[若草園]]></name>
</wpt>

<wpt lat="38.772098541259766" lon="141.140625">
 <time>2015-12-06T02:24:46ZZ</time>
 <name><![CDATA[北辰神社前]]></name>
</wpt>

<wpt lat="38.63418197631836" lon="141.35768127441406">
 <time>2015-12-06T02:24:46ZZ</time>
 <name><![CDATA[上の山]]></name>
</wpt>

<wpt lat="38.60649871826172" lon="141.30088806152344">
 <time>2015-12-06T02:24:46ZZ</time>
 <name><![CDATA[柳津元町]]></name>
</wpt>

<wpt lat="38.70216369628906" lon="141.1151580810547">
 <time>2015-12-06T02:24:46ZZ</time>
 <name><![CDATA[新田公民館前]]></name>
</wpt>

<wpt lat="38.61989212036133" lon="141.16319274902344">
 <time>2015-12-06T02:24:46ZZ</time>
 <name><![CDATA[清水]]></name>
</wpt>

<wpt lat="38.625450134277344" lon="141.15286254882812">
 <time>2015-12-06T02:24:46ZZ</time>
 <name><![CDATA[町田]]></name>
</wpt>

<wpt lat="38.64216613769531" lon="141.16993713378906">
 <time>2015-12-06T02:24:46ZZ</time>
 <name><![CDATA[砥落]]></name>
</wpt>

<wpt lat="38.58427429199219" lon="141.2488250732422">
 <time>2015-12-06T02:24:46ZZ</time>
 <name><![CDATA[豊里郵便局前]]></name>
</wpt>

<wpt lat="38.6182861328125" lon="141.2194366455078">
 <time>2015-12-06T02:24:46ZZ</time>
 <name><![CDATA[米山東小学校前]]></name>
</wpt>

<wpt lat="38.68289566040039" lon="141.2081756591797">
 <time>2015-12-06T02:24:46ZZ</time>
 <name><![CDATA[登米祝祭劇場前]]></name>
</wpt>

<wpt lat="38.72208023071289" lon="141.25942993164062">
 <time>2015-12-06T02:24:46ZZ</time>
 <name><![CDATA[堀米]]></name>
</wpt>

<wpt lat="38.6906623840332" lon="141.20330810546875">
 <time>2015-12-06T02:24:46ZZ</time>
 <name><![CDATA[佐沼高校西門前]]></name>
</wpt>

<wpt lat="38.768959045410156" lon="141.12400817871094">
 <time>2015-12-06T02:24:46ZZ</time>
 <name><![CDATA[若柳総合支所前]]></name>
</wpt>

<wpt lat="38.5758171081543" lon="140.95785522460938">
 <time>2015-12-06T02:24:46ZZ</time>
 <name><![CDATA[古川七日町]]></name>
</wpt>

<wpt lat="38.57463455200195" lon="140.9610595703125">
 <time>2015-12-06T02:24:46ZZ</time>
 <name><![CDATA[古川台町]]></name>
</wpt>

<wpt lat="38.585575103759766" lon="140.96812438964844">
 <time>2015-12-06T02:24:46ZZ</time>
 <name><![CDATA[江合団地入口]]></name>
</wpt>

<wpt lat="38.57097625732422" lon="140.96742248535156">
 <time>2015-12-06T02:24:46ZZ</time>
 <name><![CDATA[古川駅]]></name>
</wpt>

<wpt lat="38.571868896484375" lon="140.9642333984375">
 <time>2015-12-06T02:24:46ZZ</time>
 <name><![CDATA[駅前大通一丁目]]></name>
</wpt>

<wpt lat="38.58173370361328" lon="140.9644775390625">
 <time>2015-12-06T02:24:46ZZ</time>
 <name><![CDATA[古川工業高校前]]></name>
</wpt>

<wpt lat="38.599853515625" lon="140.97755432128906">
 <time>2015-12-06T02:24:46ZZ</time>
 <name><![CDATA[後田]]></name>
</wpt>

<wpt lat="38.752708435058594" lon="141.0124969482422">
 <time>2015-12-06T02:24:46ZZ</time>
 <name><![CDATA[幼稚園前]]></name>
</wpt>

<wpt lat="38.75067138671875" lon="141.01341247558594">
 <time>2015-12-06T02:24:46ZZ</time>
 <name><![CDATA[宮野]]></name>
</wpt>

<wpt lat="38.73538589477539" lon="141.02740478515625">
 <time>2015-12-06T02:24:46ZZ</time>
 <name><![CDATA[油橋]]></name>
</wpt>

<wpt lat="38.74251174926758" lon="141.0403289794922">
 <time>2015-12-06T02:24:46ZZ</time>
 <name><![CDATA[堀口]]></name>
</wpt>

<wpt lat="38.7467041015625" lon="141.04953002929688">
 <time>2015-12-06T02:24:46ZZ</time>
 <name><![CDATA[八樟]]></name>
</wpt>

<wpt lat="38.7498664855957" lon="141.05494689941406">
 <time>2015-12-06T02:24:46ZZ</time>
 <name><![CDATA[貝の堀]]></name>
</wpt>

<wpt lat="38.73355484008789" lon="141.0189666748047">
 <time>2015-12-06T02:24:46ZZ</time>
 <name><![CDATA[築館町]]></name>
</wpt>

<wpt lat="38.73240661621094" lon="141.02037048339844">
 <time>2015-12-06T02:24:46ZZ</time>
 <name><![CDATA[築館小学校前]]></name>
</wpt>

<wpt lat="38.73171615600586" lon="141.02340698242188">
 <time>2015-12-06T02:24:46ZZ</time>
 <name><![CDATA[伊豆一丁目]]></name>
</wpt>

<wpt lat="38.72071075439453" lon="141.03480529785156">
 <time>2015-12-06T02:24:46ZZ</time>
 <name><![CDATA[三峰]]></name>
</wpt>

<wpt lat="38.73246383666992" lon="141.0473175048828">
 <time>2015-12-06T02:24:46ZZ</time>
 <name><![CDATA[萩沢]]></name>
</wpt>

<wpt lat="38.73857498168945" lon="141.03468322753906">
 <time>2015-12-06T02:24:46ZZ</time>
 <name><![CDATA[大木戸]]></name>
</wpt>

<wpt lat="38.7486572265625" lon="141.0016326904297">
 <time>2015-12-06T02:24:46ZZ</time>
 <name><![CDATA[本木上]]></name>
</wpt>

<wpt lat="38.72235107421875" lon="141.033447265625">
 <time>2015-12-06T02:24:46ZZ</time>
 <name><![CDATA[東北職能大学校前]]></name>
</wpt>

<wpt lat="38.74604034423828" lon="141.0191650390625">
 <time>2015-12-06T02:24:46ZZ</time>
 <name><![CDATA[栗原中央病院]]></name>
</wpt>

<wpt lat="38.66425704956055" lon="140.9890899658203">
 <time>2015-12-06T02:24:46ZZ</time>
 <name><![CDATA[東浅野]]></name>
</wpt>

<wpt lat="38.6606559753418" lon="140.99452209472656">
 <time>2015-12-06T02:24:46ZZ</time>
 <name><![CDATA[明官]]></name>
</wpt>

<wpt lat="38.65864562988281" lon="140.9911651611328">
 <time>2015-12-06T02:24:46ZZ</time>
 <name><![CDATA[新堤]]></name>
</wpt>

<wpt lat="38.66902542114258" lon="140.9962921142578">
 <time>2015-12-06T02:24:46ZZ</time>
 <name><![CDATA[小山田]]></name>
</wpt>

<wpt lat="38.66537094116211" lon="141.0669708251953">
 <time>2015-12-06T02:24:46ZZ</time>
 <name><![CDATA[瀬嶺元町]]></name>
</wpt>

<wpt lat="38.66413497924805" lon="141.06561279296875">
 <time>2015-12-06T02:24:46ZZ</time>
 <name><![CDATA[瀬嶺新町]]></name>
</wpt>

<wpt lat="38.66079330444336" lon="141.06800842285156">
 <time>2015-12-06T02:24:46ZZ</time>
 <name><![CDATA[長者原住宅前]]></name>
</wpt>

<wpt lat="38.658267974853516" lon="141.0706024169922">
 <time>2015-12-06T02:24:46ZZ</time>
 <name><![CDATA[下藤沢]]></name>
</wpt>

<wpt lat="38.65511703491211" lon="141.07321166992188">
 <time>2015-12-06T02:24:46ZZ</time>
 <name><![CDATA[瀬峰駅前]]></name>
</wpt>

<wpt lat="38.65519714355469" lon="141.01092529296875">
 <time>2015-12-06T02:24:46ZZ</time>
 <name><![CDATA[高清水仲町]]></name>
</wpt>

<wpt lat="38.64216613769531" lon="141.00242614746094">
 <time>2015-12-06T02:24:46ZZ</time>
 <name><![CDATA[立街道]]></name>
</wpt>

<wpt lat="38.641639709472656" lon="141.0081787109375">
 <time>2015-12-06T02:24:46ZZ</time>
 <name><![CDATA[中の茎住宅前]]></name>
</wpt>

<wpt lat="38.63911437988281" lon="141.00901794433594">
 <time>2015-12-06T02:24:46ZZ</time>
 <name><![CDATA[南中の茎]]></name>
</wpt>

<wpt lat="38.634376525878906" lon="141.01220703125">
 <time>2015-12-06T02:24:46ZZ</time>
 <name><![CDATA[萱刈入口]]></name>
</wpt>

<wpt lat="38.63789367675781" lon="141.0227813720703">
 <time>2015-12-06T02:24:46ZZ</time>
 <name><![CDATA[東覚満寺]]></name>
</wpt>

<wpt lat="38.653594970703125" lon="141.0167236328125">
 <time>2015-12-06T02:24:46ZZ</time>
 <name><![CDATA[東館]]></name>
</wpt>

<wpt lat="38.66099166870117" lon="141.00753784179688">
 <time>2015-12-06T02:24:46ZZ</time>
 <name><![CDATA[東五輪]]></name>
</wpt>

<wpt lat="38.66864013671875" lon="141.00970458984375">
 <time>2015-12-06T02:24:46ZZ</time>
 <name><![CDATA[来光沢]]></name>
</wpt>

<wpt lat="38.66892623901367" lon="141.01905822753906">
 <time>2015-12-06T02:24:46ZZ</time>
 <name><![CDATA[東影の沢]]></name>
</wpt>

<wpt lat="38.749576568603516" lon="140.94256591796875">
 <time>2015-12-06T02:24:46ZZ</time>
 <name><![CDATA[川内]]></name>
</wpt>

<wpt lat="38.74372482299805" lon="140.95449829101562">
 <time>2015-12-06T02:24:46ZZ</time>
 <name><![CDATA[真坂大橋]]></name>
</wpt>

<wpt lat="38.74705123901367" lon="140.94822692871094">
 <time>2015-12-06T02:24:46ZZ</time>
 <name><![CDATA[広川原]]></name>
</wpt>

<wpt lat="38.74073791503906" lon="140.9550018310547">
 <time>2015-12-06T02:24:46ZZ</time>
 <name><![CDATA[真坂本町]]></name>
</wpt>

<wpt lat="38.73969650268555" lon="140.95494079589844">
 <time>2015-12-06T02:24:46ZZ</time>
 <name><![CDATA[真坂仲町]]></name>
</wpt>

<wpt lat="38.736873626708984" lon="140.95481872558594">
 <time>2015-12-06T02:24:46ZZ</time>
 <name><![CDATA[真坂荒町]]></name>
</wpt>

<wpt lat="38.73467254638672" lon="140.95565795898438">
 <time>2015-12-06T02:24:46ZZ</time>
 <name><![CDATA[真坂御免角]]></name>
</wpt>

<wpt lat="38.74698257446289" lon="140.98880004882812">
 <time>2015-12-06T02:24:46ZZ</time>
 <name><![CDATA[秋山下]]></name>
</wpt>

<wpt lat="38.74594497680664" lon="140.98146057128906">
 <time>2015-12-06T02:24:46ZZ</time>
 <name><![CDATA[秋山上]]></name>
</wpt>

<wpt lat="38.740108489990234" lon="140.96786499023438">
 <time>2015-12-06T02:24:46ZZ</time>
 <name><![CDATA[曽根生活センター前]]></name>
</wpt>

<wpt lat="38.73799514770508" lon="140.95962524414062">
 <time>2015-12-06T02:24:46ZZ</time>
 <name><![CDATA[一迫商業高校前]]></name>
</wpt>

<wpt lat="38.7354850769043" lon="140.95889282226562">
 <time>2015-12-06T02:24:46ZZ</time>
 <name><![CDATA[真坂町東]]></name>
</wpt>

<wpt lat="38.73826599121094" lon="140.95420837402344">
 <time>2015-12-06T02:24:46ZZ</time>
 <name><![CDATA[ふれあいホール前]]></name>
</wpt>

<wpt lat="38.685577392578125" lon="140.9728546142578">
 <time>2015-12-06T02:24:46ZZ</time>
 <name><![CDATA[三森]]></name>
</wpt>

<wpt lat="38.6815299987793" lon="140.97604370117188">
 <time>2015-12-06T02:24:46ZZ</time>
 <name><![CDATA[要の森入口]]></name>
</wpt>

<wpt lat="38.679344177246094" lon="140.9796905517578">
 <time>2015-12-06T02:24:46ZZ</time>
 <name><![CDATA[運難神社前]]></name>
</wpt>

<wpt lat="38.67694854736328" lon="140.97848510742188">
 <time>2015-12-06T02:24:46ZZ</time>
 <name><![CDATA[沖]]></name>
</wpt>

<wpt lat="38.671993255615234" lon="140.97909545898438">
 <time>2015-12-06T02:24:46ZZ</time>
 <name><![CDATA[天神橋]]></name>
</wpt>

<wpt lat="38.67574691772461" lon="140.98348999023438">
 <time>2015-12-06T02:24:46ZZ</time>
 <name><![CDATA[日向]]></name>
</wpt>

<wpt lat="38.672367095947266" lon="140.98724365234375">
 <time>2015-12-06T02:24:46ZZ</time>
 <name><![CDATA[若宮]]></name>
</wpt>

<wpt lat="38.672000885009766" lon="140.99179077148438">
 <time>2015-12-06T02:24:46ZZ</time>
 <name><![CDATA[熊野]]></name>
</wpt>

<wpt lat="38.68313980102539" lon="140.98492431640625">
 <time>2015-12-06T02:24:46ZZ</time>
 <name><![CDATA[石沢]]></name>
</wpt>

<wpt lat="38.79195785522461" lon="140.8459014892578">
 <time>2015-12-06T02:24:46ZZ</time>
 <name><![CDATA[座主]]></name>
</wpt>

<wpt lat="38.78861999511719" lon="140.84458923339844">
 <time>2015-12-06T02:24:46ZZ</time>
 <name><![CDATA[山下]]></name>
</wpt>

<wpt lat="38.832733154296875" lon="140.99627685546875">
 <time>2015-12-06T02:24:46ZZ</time>
 <name><![CDATA[四日町]]></name>
</wpt>

<wpt lat="38.830623626708984" lon="140.9957275390625">
 <time>2015-12-06T02:24:46ZZ</time>
 <name><![CDATA[元病院前]]></name>
</wpt>

<wpt lat="38.83076477050781" lon="140.99380493164062">
 <time>2015-12-06T02:24:46ZZ</time>
 <name><![CDATA[八日町]]></name>
</wpt>

<wpt lat="38.83003234863281" lon="140.9914093017578">
 <time>2015-12-06T02:24:46ZZ</time>
 <name><![CDATA[栗駒]]></name>
</wpt>

<wpt lat="38.83121109008789" lon="140.99002075195312">
 <time>2015-12-06T02:24:46ZZ</time>
 <name><![CDATA[六日町]]></name>
</wpt>

<wpt lat="38.83400344848633" lon="140.98245239257812">
 <time>2015-12-06T02:24:46ZZ</time>
 <name><![CDATA[土川]]></name>
</wpt>

<wpt lat="38.8346061706543" lon="140.97491455078125">
 <time>2015-12-06T02:24:46ZZ</time>
 <name><![CDATA[一本杉]]></name>
</wpt>

<wpt lat="38.82670211791992" lon="140.98561096191406">
 <time>2015-12-06T02:24:46ZZ</time>
 <name><![CDATA[田町]]></name>
</wpt>

<wpt lat="38.81954574584961" lon="140.98565673828125">
 <time>2015-12-06T02:24:46ZZ</time>
 <name><![CDATA[岩ケ崎高校前]]></name>
</wpt>

<wpt lat="38.81599807739258" lon="140.98590087890625">
 <time>2015-12-06T02:24:46ZZ</time>
 <name><![CDATA[栗駒中学校入口]]></name>
</wpt>

<wpt lat="38.813934326171875" lon="140.98521423339844">
 <time>2015-12-06T02:24:46ZZ</time>
 <name><![CDATA[尾松農協前]]></name>
</wpt>

<wpt lat="38.809104919433594" lon="140.9929656982422">
 <time>2015-12-06T02:24:46ZZ</time>
 <name><![CDATA[八幡神社]]></name>
</wpt>

<wpt lat="38.80893325805664" lon="140.98361206054688">
 <time>2015-12-06T02:24:46ZZ</time>
 <name><![CDATA[坂口]]></name>
</wpt>

<wpt lat="38.80665588378906" lon="140.98329162597656">
 <time>2015-12-06T02:24:46ZZ</time>
 <name><![CDATA[三ツ橋沖]]></name>
</wpt>

<wpt lat="38.80055236816406" lon="140.98033142089844">
 <time>2015-12-06T02:24:46ZZ</time>
 <name><![CDATA[三ツ橋]]></name>
</wpt>

<wpt lat="38.799285888671875" lon="140.9908447265625">
 <time>2015-12-06T02:24:46ZZ</time>
 <name><![CDATA[高木]]></name>
</wpt>

<wpt lat="38.796451568603516" lon="140.9937286376953">
 <time>2015-12-06T02:24:46ZZ</time>
 <name><![CDATA[桜田]]></name>
</wpt>

<wpt lat="38.79289627075195" lon="140.9793243408203">
 <time>2015-12-06T02:24:46ZZ</time>
 <name><![CDATA[有賀沢]]></name>
</wpt>

<wpt lat="38.784358978271484" lon="140.98793029785156">
 <time>2015-12-06T02:24:46ZZ</time>
 <name><![CDATA[片子沢]]></name>
</wpt>

<wpt lat="38.778961181640625" lon="140.99343872070312">
 <time>2015-12-06T02:24:46ZZ</time>
 <name><![CDATA[割山]]></name>
</wpt>

<wpt lat="38.8187141418457" lon="140.97523498535156">
 <time>2015-12-06T02:24:46ZZ</time>
 <name><![CDATA[宝領]]></name>
</wpt>

<wpt lat="38.82411193847656" lon="140.9647674560547">
 <time>2015-12-06T02:24:46ZZ</time>
 <name><![CDATA[清水田]]></name>
</wpt>