<?xml version="1.0" encoding="UTF-8" ?>
<gpx xmlns="http://www.topografix.com/GPX/1/1" version="1.1" creator="osmtracker-android" xmlns:xsi="http://www.w3.org/2001/XMLSchema-instance" xsi:schemaLocation="http://www.topografix.com/GPX/1/1 http://www.topografix.com/GPX/1/1/gpx.xsd ">
<metadata>
<name><![CDATA[バス停 : 福島]]></name>
<desc><![CDATA[国土数値情報に基づく]]></desc>
</metadata>
<wpt lat="37.49859619140625" lon="139.92872619628906">
 <time>2015-12-06T02:24:46ZZ</time>
 <name><![CDATA[郵便局前]]></name>
</wpt>

<wpt lat="37.50737762451172" lon="139.93124389648438">
 <time>2015-12-06T02:24:46ZZ</time>
 <name><![CDATA[若松駅前]]></name>
</wpt>

<wpt lat="37.12655258178711" lon="140.2163543701172">
 <time>2015-12-06T02:24:46ZZ</time>
 <name><![CDATA[本町]]></name>
</wpt>

<wpt lat="37.1253776550293" lon="140.2194366455078">
 <time>2015-12-06T02:24:46ZZ</time>
 <name><![CDATA[本町四辻]]></name>
</wpt>

<wpt lat="37.12485885620117" lon="140.2206573486328">
 <time>2015-12-06T02:24:46ZZ</time>
 <name><![CDATA[白河第三小学校]]></name>
</wpt>

<wpt lat="37.100059509277344" lon="140.19760131835938">
 <time>2015-12-06T02:24:46ZZ</time>
 <name><![CDATA[新白河中央病院入口]]></name>
</wpt>

<wpt lat="37.10029602050781" lon="140.20021057128906">
 <time>2015-12-06T02:24:46ZZ</time>
 <name><![CDATA[ライフパーク]]></name>
</wpt>

<wpt lat="37.099639892578125" lon="140.20608520507812">
 <time>2015-12-06T02:24:46ZZ</time>
 <name><![CDATA[まほろん]]></name>
</wpt>

<wpt lat="37.11875915527344" lon="140.22952270507812">
 <time>2015-12-06T02:24:46ZZ</time>
 <name><![CDATA[結城西]]></name>
</wpt>

<wpt lat="37.644317626953125" lon="139.8681640625">
 <time>2015-12-06T02:24:46ZZ</time>
 <name><![CDATA[喜多方駅前]]></name>
</wpt>

<wpt lat="37.571041107177734" lon="140.57203674316406">
 <time>2015-12-06T02:24:46ZZ</time>
 <name><![CDATA[鷹巣]]></name>
</wpt>

<wpt lat="37.57828903198242" lon="140.57736206054688">
 <time>2015-12-06T02:24:46ZZ</time>
 <name><![CDATA[桑曽根]]></name>
</wpt>

<wpt lat="37.57289123535156" lon="140.5788116455078">
 <time>2015-12-06T02:24:46ZZ</time>
 <name><![CDATA[万城]]></name>
</wpt>

<wpt lat="37.58552551269531" lon="140.57740783691406">
 <time>2015-12-06T02:24:46ZZ</time>
 <name><![CDATA[十郎内]]></name>
</wpt>

<wpt lat="37.60139083862305" lon="140.57916259765625">
 <time>2015-12-06T02:24:46ZZ</time>
 <name><![CDATA[針道上町]]></name>
</wpt>

<wpt lat="37.590293884277344" lon="140.5777130126953">
 <time>2015-12-06T02:24:46ZZ</time>
 <name><![CDATA[大町]]></name>
</wpt>

<wpt lat="37.56828308105469" lon="140.57742309570312">
 <time>2015-12-06T02:24:46ZZ</time>
 <name><![CDATA[道の駅前]]></name>
</wpt>

<wpt lat="37.58902359008789" lon="140.54263305664062">
 <time>2015-12-06T02:24:46ZZ</time>
 <name><![CDATA[管二集会所]]></name>
</wpt>

<wpt lat="37.518707275390625" lon="140.40208435058594">
 <time>2015-12-06T02:24:46ZZ</time>
 <name><![CDATA[愛宕下]]></name>
</wpt>

<wpt lat="37.51738357543945" lon="140.4044952392578">
 <time>2015-12-06T02:24:46ZZ</time>
 <name><![CDATA[荒町]]></name>
</wpt>

<wpt lat="37.51586151123047" lon="140.4033660888672">
 <time>2015-12-06T02:24:46ZZ</time>
 <name><![CDATA[下町]]></name>
</wpt>

<wpt lat="37.51429748535156" lon="140.40235900878906">
 <time>2015-12-06T02:24:46ZZ</time>
 <name><![CDATA[本宮駅入口]]></name>
</wpt>

<wpt lat="37.5196647644043" lon="140.39649963378906">
 <time>2015-12-06T02:24:46ZZ</time>
 <name><![CDATA[戸崎]]></name>
</wpt>

<wpt lat="37.6655387878418" lon="140.6028289794922">
 <time>2015-12-06T02:24:46ZZ</time>
 <name><![CDATA[瓦町]]></name>
</wpt>

<wpt lat="37.66633605957031" lon="140.61398315429688">
 <time>2015-12-06T02:24:46ZZ</time>
 <name><![CDATA[福交川俣営業所]]></name>
</wpt>

<wpt lat="37.66788864135742" lon="140.61891174316406">
 <time>2015-12-06T02:24:46ZZ</time>
 <name><![CDATA[川俣高校前]]></name>
</wpt>

<wpt lat="37.096954345703125" lon="139.5894317626953">
 <time>2015-12-06T02:24:46ZZ</time>
 <name><![CDATA[八総]]></name>
</wpt>

<wpt lat="37.0931282043457" lon="139.53369140625">
 <time>2015-12-06T02:24:46ZZ</time>
 <name><![CDATA[松戸原]]></name>
</wpt>

<wpt lat="37.041656494140625" lon="139.47804260253906">
 <time>2015-12-06T02:24:46ZZ</time>
 <name><![CDATA[川衣]]></name>
</wpt>

<wpt lat="37.5527458190918" lon="140.10552978515625">
 <time>2015-12-06T02:24:46ZZ</time>
 <name><![CDATA[町立病院]]></name>
</wpt>

<wpt lat="37.49003982543945" lon="139.6774444580078">
 <time>2015-12-06T02:24:46ZZ</time>
 <name><![CDATA[桧原]]></name>
</wpt>

<wpt lat="37.4698600769043" lon="139.64181518554688">
 <time>2015-12-06T02:24:46ZZ</time>
 <name><![CDATA[菅家商店前]]></name>
</wpt>

<wpt lat="37.04481506347656" lon="140.50572204589844">
 <time>2015-12-06T02:24:46ZZ</time>
 <name><![CDATA[道少田]]></name>
</wpt>

<wpt lat="37.486080169677734" lon="140.54139709472656">
 <time>2015-12-06T02:24:46ZZ</time>
 <name><![CDATA[楢梨]]></name>
</wpt>

<wpt lat="37.28116989135742" lon="141.0003662109375">
 <time>2015-12-06T02:24:46ZZ</time>
 <name><![CDATA[楢葉郵便局前]]></name>
</wpt>

<wpt lat="37.430076599121094" lon="140.97061157226562">
 <time>2015-12-06T02:24:46ZZ</time>
 <name><![CDATA[西川原]]></name>
</wpt>

<wpt lat="37.50242614746094" lon="140.7641143798828">
 <time>2015-12-06T02:24:46ZZ</time>
 <name><![CDATA[落合]]></name>
</wpt>

<wpt lat="37.65522766113281" lon="140.0930938720703">
 <time>2015-12-06T02:24:46ZZ</time>
 <name><![CDATA[裏磐梯ロイヤルホテル]]></name>
</wpt>

<wpt lat="37.667442321777344" lon="140.60284423828125">
 <time>2015-12-06T02:24:46ZZ</time>
 <name><![CDATA[川俣町]]></name>
</wpt>

<wpt lat="37.58885955810547" lon="139.6398162841797">
 <time>2015-12-06T02:24:46ZZ</time>
 <name><![CDATA[かわちや前]]></name>
</wpt>

<wpt lat="37.12342071533203" lon="140.18223571777344">
 <time>2015-12-06T02:24:46ZZ</time>
 <name><![CDATA[三菱パルプ]]></name>
</wpt>

<wpt lat="37.1253547668457" lon="140.19569396972656">
 <time>2015-12-06T02:24:46ZZ</time>
 <name><![CDATA[御台場]]></name>
</wpt>

<wpt lat="37.125450134277344" lon="140.1877899169922">
 <time>2015-12-06T02:24:46ZZ</time>
 <name><![CDATA[二中入口]]></name>
</wpt>

<wpt lat="37.127864837646484" lon="140.21408081054688">
 <time>2015-12-06T02:24:46ZZ</time>
 <name><![CDATA[中町]]></name>
</wpt>

<wpt lat="37.12636947631836" lon="140.19747924804688">
 <time>2015-12-06T02:24:46ZZ</time>
 <name><![CDATA[立石]]></name>
</wpt>

<wpt lat="37.09366989135742" lon="140.186767578125">
 <time>2015-12-06T02:24:46ZZ</time>
 <name><![CDATA[大倉矢見]]></name>
</wpt>

<wpt lat="37.09437561035156" lon="140.18458557128906">
 <time>2015-12-06T02:24:46ZZ</time>
 <name><![CDATA[白坂駅]]></name>
</wpt>

<wpt lat="37.13066864013672" lon="140.1750946044922">
 <time>2015-12-06T02:24:46ZZ</time>
 <name><![CDATA[下西原]]></name>
</wpt>

<wpt lat="37.13789367675781" lon="140.15806579589844">
 <time>2015-12-06T02:24:46ZZ</time>
 <name><![CDATA[折口原]]></name>
</wpt>

<wpt lat="37.135318756103516" lon="140.16464233398438">
 <time>2015-12-06T02:24:46ZZ</time>
 <name><![CDATA[西原上]]></name>
</wpt>

<wpt lat="37.133296966552734" lon="140.1696319580078">
 <time>2015-12-06T02:24:46ZZ</time>
 <name><![CDATA[西原]]></name>
</wpt>

<wpt lat="37.29929733276367" lon="140.368896484375">
 <time>2015-12-06T02:24:46ZZ</time>
 <name><![CDATA[新道]]></name>
</wpt>

<wpt lat="37.40900802612305" lon="140.33790588378906">
 <time>2015-12-06T02:24:46ZZ</time>
 <name><![CDATA[希望ヶ丘]]></name>
</wpt>

<wpt lat="37.38823318481445" lon="140.36170959472656">
 <time>2015-12-06T02:24:46ZZ</time>
 <name><![CDATA[第一中学校南]]></name>
</wpt>

<wpt lat="37.390716552734375" lon="140.36203002929688">
 <time>2015-12-06T02:24:46ZZ</time>
 <name><![CDATA[第一中学校]]></name>
</wpt>

<wpt lat="37.39559555053711" lon="140.36875915527344">
 <time>2015-12-06T02:24:46ZZ</time>
 <name><![CDATA[郡山水道局]]></name>
</wpt>

<wpt lat="37.39848327636719" lon="140.33937072753906">
 <time>2015-12-06T02:24:46ZZ</time>
 <name><![CDATA[堤東]]></name>
</wpt>

<wpt lat="37.40010452270508" lon="140.334228515625">
 <time>2015-12-06T02:24:46ZZ</time>
 <name><![CDATA[小金林]]></name>
</wpt>

<wpt lat="37.40504455566406" lon="140.33734130859375">
 <time>2015-12-06T02:24:46ZZ</time>
 <name><![CDATA[小山田団地]]></name>
</wpt>

<wpt lat="37.284446716308594" lon="140.37423706054688">
 <time>2015-12-06T02:24:46ZZ</time>
 <name><![CDATA[大町]]></name>
</wpt>

<wpt lat="37.28594207763672" lon="140.37501525878906">
 <time>2015-12-06T02:24:46ZZ</time>
 <name><![CDATA[本町]]></name>
</wpt>

<wpt lat="37.2895622253418" lon="140.37567138671875">
 <time>2015-12-06T02:24:46ZZ</time>
 <name><![CDATA[宮先町]]></name>
</wpt>

<wpt lat="37.287784576416016" lon="140.37290954589844">
 <time>2015-12-06T02:24:46ZZ</time>
 <name><![CDATA[八幡町]]></name>
</wpt>

<wpt lat="37.28769302368164" lon="140.3754425048828">
 <time>2015-12-06T02:24:46ZZ</time>
 <name><![CDATA[中町]]></name>
</wpt>

<wpt lat="37.348445892333984" lon="140.36276245117188">
 <time>2015-12-06T02:24:46ZZ</time>
 <name><![CDATA[西笹川]]></name>
</wpt>

<wpt lat="37.35564422607422" lon="140.36529541015625">
 <time>2015-12-06T02:24:46ZZ</time>
 <name><![CDATA[檜の下]]></name>
</wpt>

<wpt lat="37.36472702026367" lon="140.3691864013672">
 <time>2015-12-06T02:24:46ZZ</time>
 <name><![CDATA[永盛橋]]></name>
</wpt>

<wpt lat="37.362178802490234" lon="140.36810302734375">
 <time>2015-12-06T02:24:46ZZ</time>
 <name><![CDATA[安積行政センター入口]]></name>
</wpt>

<wpt lat="37.35839080810547" lon="140.36647033691406">
 <time>2015-12-06T02:24:46ZZ</time>
 <name><![CDATA[安積二丁目]]></name>
</wpt>

<wpt lat="37.386409759521484" lon="140.33506774902344">
 <time>2015-12-06T02:24:46ZZ</time>
 <name><![CDATA[静御前堂]]></name>
</wpt>

<wpt lat="37.389434814453125" lon="140.33541870117188">
 <time>2015-12-06T02:24:46ZZ</time>
 <name><![CDATA[静団地中央]]></name>
</wpt>

<wpt lat="37.398719787597656" lon="140.33660888671875">
 <time>2015-12-06T02:24:46ZZ</time>
 <name><![CDATA[堤]]></name>
</wpt>

<wpt lat="37.40278625488281" lon="140.33509826660156">
 <time>2015-12-06T02:24:46ZZ</time>
 <name><![CDATA[郡山高校]]></name>
</wpt>

<wpt lat="37.39147186279297" lon="140.33934020996094">
 <time>2015-12-06T02:24:46ZZ</time>
 <name><![CDATA[大成小学校入口]]></name>
</wpt>

<wpt lat="37.40773391723633" lon="140.3400115966797">
 <time>2015-12-06T02:24:46ZZ</time>
 <name><![CDATA[希望ヶ丘入口]]></name>
</wpt>

<wpt lat="37.39112854003906" lon="140.33544921875">
 <time>2015-12-06T02:24:46ZZ</time>
 <name><![CDATA[静団地入口]]></name>
</wpt>

<wpt lat="37.390201568603516" lon="140.3328399658203">
 <time>2015-12-06T02:24:46ZZ</time>
 <name><![CDATA[谷地]]></name>
</wpt>

<wpt lat="37.38823318481445" lon="140.33255004882812">
 <time>2015-12-06T02:24:46ZZ</time>
 <name><![CDATA[辰巳田]]></name>
</wpt>

<wpt lat="37.38608932495117" lon="140.33221435546875">
 <time>2015-12-06T02:24:46ZZ</time>
 <name><![CDATA[御前]]></name>
</wpt>

<wpt lat="37.391605377197266" lon="140.34600830078125">
 <time>2015-12-06T02:24:46ZZ</time>
 <name><![CDATA[台新東]]></name>
</wpt>

<wpt lat="37.3717155456543" lon="140.37222290039062">
 <time>2015-12-06T02:24:46ZZ</time>
 <name><![CDATA[川向]]></name>
</wpt>

<wpt lat="37.36827850341797" lon="140.3719024658203">
 <time>2015-12-06T02:24:46ZZ</time>
 <name><![CDATA[ビッグパレット入口]]></name>
</wpt>

<wpt lat="37.36896514892578" lon="140.3726806640625">
 <time>2015-12-06T02:24:46ZZ</time>
 <name><![CDATA[ビッグパレット]]></name>
</wpt>

<wpt lat="37.37528610229492" lon="140.37379455566406">
 <time>2015-12-06T02:24:46ZZ</time>
 <name><![CDATA[郡山警察署]]></name>
</wpt>

<wpt lat="37.381832122802734" lon="140.3765869140625">
 <time>2015-12-06T02:24:46ZZ</time>
 <name><![CDATA[図景二丁目]]></name>
</wpt>

<wpt lat="37.4023551940918" lon="140.38702392578125">
 <time>2015-12-06T02:24:46ZZ</time>
 <name><![CDATA[大重]]></name>
</wpt>

<wpt lat="37.405792236328125" lon="140.3887176513672">
 <time>2015-12-06T02:24:46ZZ</time>
 <name><![CDATA[梅田]]></name>
</wpt>

<wpt lat="37.388187408447266" lon="140.38153076171875">
 <time>2015-12-06T02:24:46ZZ</time>
 <name><![CDATA[栄町]]></name>
</wpt>

<wpt lat="37.39344024658203" lon="140.38211059570312">
 <time>2015-12-06T02:24:46ZZ</time>
 <name><![CDATA[堂前町]]></name>
</wpt>

<wpt lat="37.40888214111328" lon="140.3902130126953">
 <time>2015-12-06T02:24:46ZZ</time>
 <name><![CDATA[久保田]]></name>
</wpt>

<wpt lat="37.397544860839844" lon="140.3826141357422">
 <time>2015-12-06T02:24:46ZZ</time>
 <name><![CDATA[うすい入口]]></name>
</wpt>

<wpt lat="37.37956619262695" lon="140.37562561035156">
 <time>2015-12-06T02:24:46ZZ</time>
 <name><![CDATA[香久池一丁目]]></name>
</wpt>

<wpt lat="37.39054489135742" lon="140.3819122314453">
 <time>2015-12-06T02:24:46ZZ</time>
 <name><![CDATA[堤下町]]></name>
</wpt>

<wpt lat="37.39840316772461" lon="140.38414001464844">
 <time>2015-12-06T02:24:46ZZ</time>
 <name><![CDATA[中央大町]]></name>
</wpt>

<wpt lat="37.4001579284668" lon="140.38572692871094">
 <time>2015-12-06T02:24:46ZZ</time>
 <name><![CDATA[郡山大町]]></name>
</wpt>

<wpt lat="37.38484191894531" lon="140.37889099121094">
 <time>2015-12-06T02:24:46ZZ</time>
 <name><![CDATA[図景一丁目]]></name>
</wpt>

<wpt lat="37.44144821166992" lon="140.57504272460938">
 <time>2015-12-06T02:24:46ZZ</time>
 <name><![CDATA[五升車]]></name>
</wpt>

<wpt lat="37.44052505493164" lon="140.57582092285156">
 <time>2015-12-06T02:24:46ZZ</time>
 <name><![CDATA[栄町]]></name>
</wpt>

<wpt lat="37.438621520996094" lon="140.57435607910156">
 <time>2015-12-06T02:24:46ZZ</time>
 <name><![CDATA[中町]]></name>
</wpt>

<wpt lat="37.59015655517578" lon="140.4351348876953">
 <time>2015-12-06T02:24:46ZZ</time>
 <name><![CDATA[二本松駅前]]></name>
</wpt>

<wpt lat="37.70785903930664" lon="140.4735565185547">
 <time>2015-12-06T02:24:46ZZ</time>
 <name><![CDATA[桜台]]></name>
</wpt>

<wpt lat="37.744503021240234" lon="140.39120483398438">
 <time>2015-12-06T02:24:46ZZ</time>
 <name><![CDATA[圧野]]></name>
</wpt>

<wpt lat="37.748775482177734" lon="140.472900390625">
 <time>2015-12-06T02:24:46ZZ</time>
 <name><![CDATA[渡利舟場]]></name>
</wpt>

<wpt lat="37.7473030090332" lon="140.47174072265625">
 <time>2015-12-06T02:24:46ZZ</time>
 <name><![CDATA[天神渡]]></name>
</wpt>

<wpt lat="37.748565673828125" lon="140.48532104492188">
 <time>2015-12-06T02:24:46ZZ</time>
 <name><![CDATA[渡利学習センター]]></name>
</wpt>

<wpt lat="37.746822357177734" lon="140.48556518554688">
 <time>2015-12-06T02:24:46ZZ</time>
 <name><![CDATA[扇田町]]></name>
</wpt>

<wpt lat="37.74741744995117" lon="140.480224609375">
 <time>2015-12-06T02:24:46ZZ</time>
 <name><![CDATA[番匠町]]></name>
</wpt>

<wpt lat="37.74919891357422" lon="140.47970581054688">
 <time>2015-12-06T02:24:46ZZ</time>
 <name><![CDATA[渡利小学校]]></name>
</wpt>

<wpt lat="37.748783111572266" lon="140.47698974609375">
 <time>2015-12-06T02:24:46ZZ</time>
 <name><![CDATA[中角]]></name>
</wpt>

<wpt lat="37.75239562988281" lon="140.455322265625">
 <time>2015-12-06T02:24:46ZZ</time>
 <name><![CDATA[福島民報前]]></name>
</wpt>

<wpt lat="37.75278091430664" lon="140.46075439453125">
 <time>2015-12-06T02:24:46ZZ</time>
 <name><![CDATA[あづま陸橋]]></name>
</wpt>

<wpt lat="37.74710464477539" lon="140.48269653320312">
 <time>2015-12-06T02:24:46ZZ</time>
 <name><![CDATA[渡利病院前]]></name>
</wpt>

<wpt lat="37.74733352661133" lon="140.47329711914062">
 <time>2015-12-06T02:24:46ZZ</time>
 <name><![CDATA[中央高校]]></name>
</wpt>

<wpt lat="37.75550842285156" lon="140.46803283691406">
 <time>2015-12-06T02:24:46ZZ</time>
 <name><![CDATA[上町]]></name>
</wpt>

<wpt lat="37.76287841796875" lon="140.47515869140625">
 <time>2015-12-06T02:24:46ZZ</time>
 <name><![CDATA[花園町]]></name>
</wpt>

<wpt lat="37.75895690917969" lon="140.4679718017578">
 <time>2015-12-06T02:24:46ZZ</time>
 <name><![CDATA[宮下町]]></name>
</wpt>

<wpt lat="37.7861213684082" lon="140.48277282714844">
 <time>2015-12-06T02:24:46ZZ</time>
 <name><![CDATA[漆方]]></name>
</wpt>

<wpt lat="37.7630500793457" lon="140.47714233398438">
 <time>2015-12-06T02:24:46ZZ</time>
 <name><![CDATA[社会保険事務所入口]]></name>
</wpt>

<wpt lat="37.75800704956055" lon="140.46798706054688">
 <time>2015-12-06T02:24:46ZZ</time>
 <name><![CDATA[新浜公園]]></name>
</wpt>

<wpt lat="37.76382064819336" lon="140.47036743164062">
 <time>2015-12-06T02:24:46ZZ</time>
 <name><![CDATA[霞町]]></name>
</wpt>

<wpt lat="37.763919830322266" lon="140.46827697753906">
 <time>2015-12-06T02:24:46ZZ</time>
 <name><![CDATA[体育館前]]></name>
</wpt>

<wpt lat="37.76350784301758" lon="140.47381591796875">
 <time>2015-12-06T02:24:46ZZ</time>
 <name><![CDATA[文化センター入口]]></name>
</wpt>

<wpt lat="37.8305549621582" lon="140.4546356201172">
 <time>2015-12-06T02:24:46ZZ</time>
 <name><![CDATA[飯坂温泉駅]]></name>
</wpt>

<wpt lat="37.83449935913086" lon="140.4497528076172">
 <time>2015-12-06T02:24:46ZZ</time>
 <name><![CDATA[赤川橋]]></name>
</wpt>

<wpt lat="37.82888412475586" lon="140.45140075683594">
 <time>2015-12-06T02:24:46ZZ</time>
 <name><![CDATA[横町]]></name>
</wpt>

<wpt lat="36.987205505371094" lon="140.36830139160156">
 <time>2015-12-06T02:24:46ZZ</time>
 <name><![CDATA[高瀬]]></name>
</wpt>

<wpt lat="36.95307159423828" lon="140.41439819335938">
 <time>2015-12-06T02:24:46ZZ</time>
 <name><![CDATA[代官町]]></name>
</wpt>

<wpt lat="36.9548454284668" lon="140.41259765625">
 <time>2015-12-06T02:24:46ZZ</time>
 <name><![CDATA[台宿入口]]></name>
</wpt>

<wpt lat="36.95663833618164" lon="140.4108428955078">
 <time>2015-12-06T02:24:46ZZ</time>
 <name><![CDATA[大町]]></name>
</wpt>

<wpt lat="37.07500457763672" lon="140.51637268066406">
 <time>2015-12-06T02:24:46ZZ</time>
 <name><![CDATA[明内]]></name>
</wpt>

<wpt lat="37.077205657958984" lon="140.51980590820312">
 <time>2015-12-06T02:24:46ZZ</time>
 <name><![CDATA[工場前]]></name>
</wpt>

<wpt lat="37.042015075683594" lon="140.50942993164062">
 <time>2015-12-06T02:24:46ZZ</time>
 <name><![CDATA[鮫川役場]]></name>
</wpt>

<wpt lat="37.03705978393555" lon="140.51080322265625">
 <time>2015-12-06T02:24:46ZZ</time>
 <name><![CDATA[鮫川広畑]]></name>
</wpt>

<wpt lat="37.07970428466797" lon="140.51881408691406">
 <time>2015-12-06T02:24:46ZZ</time>
 <name><![CDATA[田中田]]></name>
</wpt>

<wpt lat="37.14789581298828" lon="140.4545135498047">
 <time>2015-12-06T02:24:46ZZ</time>
 <name><![CDATA[三芦橋]]></name>
</wpt>

<wpt lat="37.14763259887695" lon="140.4514923095703">
 <time>2015-12-06T02:24:46ZZ</time>
 <name><![CDATA[三芦]]></name>
</wpt>

<wpt lat="37.147911071777344" lon="140.4569854736328">
 <time>2015-12-06T02:24:46ZZ</time>
 <name><![CDATA[石川新町]]></name>
</wpt>

<wpt lat="37.14800262451172" lon="140.46014404296875">
 <time>2015-12-06T02:24:46ZZ</time>
 <name><![CDATA[本宮]]></name>
</wpt>

<wpt lat="37.14319610595703" lon="140.44212341308594">
 <time>2015-12-06T02:24:46ZZ</time>
 <name><![CDATA[石川町保険センター前]]></name>
</wpt>

<wpt lat="37.14411544799805" lon="140.45411682128906">
 <time>2015-12-06T02:24:46ZZ</time>
 <name><![CDATA[石川荒町]]></name>
</wpt>

<wpt lat="37.13975143432617" lon="140.44418334960938">
 <time>2015-12-06T02:24:46ZZ</time>
 <name><![CDATA[石川駅前]]></name>
</wpt>

<wpt lat="37.147003173828125" lon="140.44651794433594">
 <time>2015-12-06T02:24:46ZZ</time>
 <name><![CDATA[鹿の坂下]]></name>
</wpt>

<wpt lat="37.472164154052734" lon="139.8798828125">
 <time>2015-12-06T02:24:46ZZ</time>
 <name><![CDATA[川南]]></name>
</wpt>

<wpt lat="37.4830207824707" lon="139.9028778076172">
 <time>2015-12-06T02:24:46ZZ</time>
 <name><![CDATA[西飯寺]]></name>
</wpt>

<wpt lat="37.473392486572266" lon="139.88845825195312">
 <time>2015-12-06T02:24:46ZZ</time>
 <name><![CDATA[東小松]]></name>
</wpt>

<wpt lat="37.47409439086914" lon="139.89320373535156">
 <time>2015-12-06T02:24:46ZZ</time>
 <name><![CDATA[三本松西]]></name>
</wpt>

<wpt lat="37.48677444458008" lon="139.91836547851562">
 <time>2015-12-06T02:24:46ZZ</time>
 <name><![CDATA[湯川橋]]></name>
</wpt>

<wpt lat="37.494056701660156" lon="139.92283630371094">
 <time>2015-12-06T02:24:46ZZ</time>
 <name><![CDATA[桂林寺町]]></name>
</wpt>

<wpt lat="37.50002670288086" lon="139.8837890625">
 <time>2015-12-06T02:24:46ZZ</time>
 <name><![CDATA[蟹川]]></name>
</wpt>

<wpt lat="37.4861946105957" lon="139.90870666503906">
 <time>2015-12-06T02:24:46ZZ</time>
 <name><![CDATA[住吉町]]></name>
</wpt>

<wpt lat="37.49711227416992" lon="139.92417907714844">
 <time>2015-12-06T02:24:46ZZ</time>
 <name><![CDATA[老町]]></name>
</wpt>

<wpt lat="37.49543380737305" lon="139.90391540527344">
 <time>2015-12-06T02:24:46ZZ</time>
 <name><![CDATA[柳原下]]></name>
</wpt>

<wpt lat="37.48604965209961" lon="139.90403747558594">
 <time>2015-12-06T02:24:46ZZ</time>
 <name><![CDATA[幕の内]]></name>
</wpt>

<wpt lat="37.4901008605957" lon="139.93101501464844">
 <time>2015-12-06T02:24:46ZZ</time>
 <name><![CDATA[鶴ヶ城北口]]></name>
</wpt>

<wpt lat="37.50084686279297" lon="139.9193115234375">
 <time>2015-12-06T02:24:46ZZ</time>
 <name><![CDATA[七日町駅前]]></name>
</wpt>

<wpt lat="37.49616241455078" lon="139.87240600585938">
 <time>2015-12-06T02:24:46ZZ</time>
 <name><![CDATA[北会津中学校]]></name>
</wpt>

<wpt lat="37.49886703491211" lon="139.92657470703125">
 <time>2015-12-06T02:24:46ZZ</time>
 <name><![CDATA[七日町白木屋前]]></name>
</wpt>

<wpt lat="37.499977111816406" lon="139.92250061035156">
 <time>2015-12-06T02:24:46ZZ</time>
 <name><![CDATA[七日町中央]]></name>
</wpt>

<wpt lat="37.49129867553711" lon="139.92039489746094">
 <time>2015-12-06T02:24:46ZZ</time>
 <name><![CDATA[竹田病院前]]></name>
</wpt>

<wpt lat="37.48822021484375" lon="139.93368530273438">
 <time>2015-12-06T02:24:46ZZ</time>
 <name><![CDATA[鶴ヶ城三の丸口]]></name>
</wpt>

<wpt lat="37.491790771484375" lon="139.9305877685547">
 <time>2015-12-06T02:24:46ZZ</time>
 <name><![CDATA[北出丸大通り]]></name>
</wpt>

<wpt lat="37.49958038330078" lon="139.92788696289062">
 <time>2015-12-06T02:24:46ZZ</time>
 <name><![CDATA[大町二之町]]></name>
</wpt>

<wpt lat="37.50194549560547" lon="139.9290008544922">
 <time>2015-12-06T02:24:46ZZ</time>
 <name><![CDATA[町方伝承館前]]></name>
</wpt>

<wpt lat="37.49750518798828" lon="139.92701721191406">
 <time>2015-12-06T02:24:46ZZ</time>
 <name><![CDATA[野口英世青春館前]]></name>
</wpt>

<wpt lat="37.500404357910156" lon="139.9196014404297">
 <time>2015-12-06T02:24:46ZZ</time>
 <name><![CDATA[阿弥陀寺東]]></name>
</wpt>

<wpt lat="37.49810791015625" lon="139.92633056640625">
 <time>2015-12-06T02:24:46ZZ</time>
 <name><![CDATA[北小路田中稲荷神社前]]></name>
</wpt>

<wpt lat="37.47858810424805" lon="139.9606475830078">
 <time>2015-12-06T02:24:46ZZ</time>
 <name><![CDATA[東山温泉駅]]></name>
</wpt>

<wpt lat="37.49302673339844" lon="139.94415283203125">
 <time>2015-12-06T02:24:46ZZ</time>
 <name><![CDATA[御薬園入口]]></name>
</wpt>

<wpt lat="37.49049758911133" lon="139.94749450683594">
 <time>2015-12-06T02:24:46ZZ</time>
 <name><![CDATA[慶山入口]]></name>
</wpt>

<wpt lat="37.500675201416016" lon="139.9507293701172">
 <time>2015-12-06T02:24:46ZZ</time>
 <name><![CDATA[飯盛山団地]]></name>
</wpt>

<wpt lat="37.48149490356445" lon="139.958251953125">
 <time>2015-12-06T02:24:46ZZ</time>
 <name><![CDATA[東山温泉入口]]></name>
</wpt>

<wpt lat="37.48733139038086" lon="139.93919372558594">
 <time>2015-12-06T02:24:46ZZ</time>
 <name><![CDATA[會津風雅堂前]]></name>
</wpt>

<wpt lat="37.48518753051758" lon="139.952880859375">
 <time>2015-12-06T02:24:46ZZ</time>
 <name><![CDATA[会津武家屋敷前]]></name>
</wpt>

<wpt lat="37.487709045410156" lon="139.950439453125">
 <time>2015-12-06T02:24:46ZZ</time>
 <name><![CDATA[奴郎ヶ前]]></name>
</wpt>

<wpt lat="37.49213409423828" lon="139.94009399414062">
 <time>2015-12-06T02:24:46ZZ</time>
 <name><![CDATA[徒の町]]></name>
</wpt>

<wpt lat="37.48996353149414" lon="139.93968200683594">
 <time>2015-12-06T02:24:46ZZ</time>
 <name><![CDATA[県立病院前]]></name>
</wpt>

<wpt lat="37.48610305786133" lon="139.93463134765625">
 <time>2015-12-06T02:24:46ZZ</time>
 <name><![CDATA[文化センター前]]></name>
</wpt>

<wpt lat="37.516204833984375" lon="139.8767547607422">
 <time>2015-12-06T02:24:46ZZ</time>
 <name><![CDATA[真宮中]]></name>
</wpt>

<wpt lat="37.51168441772461" lon="139.8773956298828">
 <time>2015-12-06T02:24:46ZZ</time>
 <name><![CDATA[真宮南]]></name>
</wpt>

<wpt lat="37.520904541015625" lon="139.87379455566406">
 <time>2015-12-06T02:24:46ZZ</time>
 <name><![CDATA[真宮北]]></name>
</wpt>

<wpt lat="37.503379821777344" lon="139.9307098388672">
 <time>2015-12-06T02:24:46ZZ</time>
 <name><![CDATA[大町中央公園]]></name>
</wpt>

<wpt lat="37.52239990234375" lon="139.9445037841797">
 <time>2015-12-06T02:24:46ZZ</time>
 <name><![CDATA[下居合会津中央病院前]]></name>
</wpt>

<wpt lat="37.506866455078125" lon="139.94143676757812">
 <time>2015-12-06T02:24:46ZZ</time>
 <name><![CDATA[一箕学校前]]></name>
</wpt>

<wpt lat="37.52792739868164" lon="139.94488525390625">
 <time>2015-12-06T02:24:46ZZ</time>
 <name><![CDATA[壇別]]></name>
</wpt>

<wpt lat="37.50442886352539" lon="139.94529724121094">
 <time>2015-12-06T02:24:46ZZ</time>
 <name><![CDATA[会津短大南口]]></name>
</wpt>

<wpt lat="37.5041389465332" lon="139.95126342773438">
 <time>2015-12-06T02:24:46ZZ</time>
 <name><![CDATA[飯盛山下]]></name>
</wpt>

<wpt lat="37.519935607910156" lon="139.85549926757812">
 <time>2015-12-06T02:24:46ZZ</time>
 <name><![CDATA[出尻]]></name>
</wpt>

<wpt lat="37.51972579956055" lon="139.8590087890625">
 <time>2015-12-06T02:24:46ZZ</time>
 <name><![CDATA[田村山北]]></name>
</wpt>

<wpt lat="37.52080154418945" lon="139.86561584472656">
 <time>2015-12-06T02:24:46ZZ</time>
 <name><![CDATA[鈴渕入口]]></name>
</wpt>

<wpt lat="37.555641174316406" lon="139.94375610351562">
 <time>2015-12-06T02:24:46ZZ</time>
 <name><![CDATA[葉山団地]]></name>
</wpt>

<wpt lat="37.54982376098633" lon="139.9322967529297">
 <time>2015-12-06T02:24:46ZZ</time>
 <name><![CDATA[広田駅前]]></name>
</wpt>

<wpt lat="37.55168914794922" lon="139.93023681640625">
 <time>2015-12-06T02:24:46ZZ</time>
 <name><![CDATA[南高野別]]></name>
</wpt>

<wpt lat="37.48699951171875" lon="139.914794921875">
 <time>2015-12-06T02:24:46ZZ</time>
 <name><![CDATA[西若松駅東口]]></name>
</wpt>

<wpt lat="37.479393005371094" lon="139.87612915039062">
 <time>2015-12-06T02:24:46ZZ</time>
 <name><![CDATA[柏原]]></name>
</wpt>

<wpt lat="37.48381042480469" lon="139.8749542236328">
 <time>2015-12-06T02:24:46ZZ</time>
 <name><![CDATA[東麻生]]></name>
</wpt>

<wpt lat="37.49087142944336" lon="139.8730926513672">
 <time>2015-12-06T02:24:46ZZ</time>
 <name><![CDATA[北会津支所]]></name>
</wpt>

<wpt lat="37.49901580810547" lon="139.87106323242188">
 <time>2015-12-06T02:24:46ZZ</time>
 <name><![CDATA[ホタルの森公園前]]></name>
</wpt>

<wpt lat="37.509361267089844" lon="139.86827087402344">
 <time>2015-12-06T02:24:46ZZ</time>
 <name><![CDATA[白山沼公園]]></name>
</wpt>

<wpt lat="37.51350402832031" lon="139.8661346435547">
 <time>2015-12-06T02:24:46ZZ</time>
 <name><![CDATA[中里]]></name>
</wpt>

<wpt lat="37.51402282714844" lon="139.86317443847656">
 <time>2015-12-06T02:24:46ZZ</time>
 <name><![CDATA[石原]]></name>
</wpt>

<wpt lat="37.51814651489258" lon="139.8560028076172">
 <time>2015-12-06T02:24:46ZZ</time>
 <name><![CDATA[舘]]></name>
</wpt>

<wpt lat="37.51815414428711" lon="139.8756561279297">
 <time>2015-12-06T02:24:46ZZ</time>
 <name><![CDATA[真宮コミセン前]]></name>
</wpt>

<wpt lat="37.49272155761719" lon="139.90493774414062">
 <time>2015-12-06T02:24:46ZZ</time>
 <name><![CDATA[柳原中央]]></name>
</wpt>

<wpt lat="37.489173889160156" lon="139.90386962890625">
 <time>2015-12-06T02:24:46ZZ</time>
 <name><![CDATA[幕内東町]]></name>
</wpt>

<wpt lat="37.556392669677734" lon="139.94309997558594">
 <time>2015-12-06T02:24:46ZZ</time>
 <name><![CDATA[會津藩校日新館]]></name>
</wpt>

<wpt lat="37.55474090576172" lon="139.95262145996094">
 <time>2015-12-06T02:24:46ZZ</time>
 <name><![CDATA[会津村]]></name>
</wpt>

<wpt lat="37.55147171020508" lon="139.93418884277344">
 <time>2015-12-06T02:24:46ZZ</time>
 <name><![CDATA[河東中学校西口]]></name>
</wpt>

<wpt lat="37.55317306518555" lon="139.927978515625">
 <time>2015-12-06T02:24:46ZZ</time>
 <name><![CDATA[リオン・ドール河東店]]></name>
</wpt>

<wpt lat="37.55128860473633" lon="139.9258575439453">
 <time>2015-12-06T02:24:46ZZ</time>
 <name><![CDATA[河東支所]]></name>
</wpt>

<wpt lat="37.549560546875" lon="139.92782592773438">
 <time>2015-12-06T02:24:46ZZ</time>
 <name><![CDATA[河東公民館入口]]></name>
</wpt>

<wpt lat="37.54511642456055" lon="139.9334716796875">
 <time>2015-12-06T02:24:46ZZ</time>
 <name><![CDATA[仁愛看護福祉専門学校前]]></name>
</wpt>

<wpt lat="37.544898986816406" lon="139.94268798828125">
 <time>2015-12-06T02:24:46ZZ</time>
 <name><![CDATA[河東総合体育館入口]]></name>
</wpt>

<wpt lat="37.496482849121094" lon="139.9301300048828">
 <time>2015-12-06T02:24:46ZZ</time>
 <name><![CDATA[旧中央公民館前]]></name>
</wpt>

<wpt lat="37.4896354675293" lon="139.9498748779297">
 <time>2015-12-06T02:24:46ZZ</time>
 <name><![CDATA[石山]]></name>
</wpt>

<wpt lat="37.496849060058594" lon="139.92678833007812">
 <time>2015-12-06T02:24:46ZZ</time>
 <name><![CDATA[野口英世青春広場前]]></name>
</wpt>

<wpt lat="37.109771728515625" lon="140.2236785888672">
 <time>2015-12-06T02:24:46ZZ</time>
 <name><![CDATA[南湖東口]]></name>
</wpt>

<wpt lat="37.11720275878906" lon="140.22735595703125">
 <time>2015-12-06T02:24:46ZZ</time>
 <name><![CDATA[八竜神橋]]></name>
</wpt>

<wpt lat="37.11452865600586" lon="140.18846130371094">
 <time>2015-12-06T02:24:46ZZ</time>
 <name><![CDATA[古高山]]></name>
</wpt>

<wpt lat="37.12786102294922" lon="140.20582580566406">
 <time>2015-12-06T02:24:46ZZ</time>
 <name><![CDATA[天神町]]></name>
</wpt>

<wpt lat="37.12171936035156" lon="140.22491455078125">
 <time>2015-12-06T02:24:46ZZ</time>
 <name><![CDATA[旭町一丁目]]></name>
</wpt>

<wpt lat="37.12165832519531" lon="140.19471740722656">
 <time>2015-12-06T02:24:46ZZ</time>
 <name><![CDATA[高山]]></name>
</wpt>

<wpt lat="37.12592315673828" lon="140.20484924316406">
 <time>2015-12-06T02:24:46ZZ</time>
 <name><![CDATA[二番町]]></name>
</wpt>

<wpt lat="37.12565612792969" lon="140.1999969482422">
 <time>2015-12-06T02:24:46ZZ</time>
 <name><![CDATA[白河高校]]></name>
</wpt>

<wpt lat="37.11922073364258" lon="140.1902313232422">
 <time>2015-12-06T02:24:46ZZ</time>
 <name><![CDATA[住宅前]]></name>
</wpt>

<wpt lat="37.116004943847656" lon="140.1903533935547">
 <time>2015-12-06T02:24:46ZZ</time>
 <name><![CDATA[緑ヶ丘]]></name>
</wpt>

<wpt lat="37.1083869934082" lon="140.1880645751953">
 <time>2015-12-06T02:24:46ZZ</time>
 <name><![CDATA[みさか西]]></name>
</wpt>

<wpt lat="37.10719299316406" lon="140.21484375">
 <time>2015-12-06T02:24:46ZZ</time>
 <name><![CDATA[南湖公園]]></name>
</wpt>

<wpt lat="37.12276077270508" lon="140.22366333007812">
 <time>2015-12-06T02:24:46ZZ</time>
 <name><![CDATA[白河旭高校]]></name>
</wpt>

<wpt lat="37.10410690307617" lon="140.19752502441406">
 <time>2015-12-06T02:24:46ZZ</time>
 <name><![CDATA[ニュータウン入口]]></name>
</wpt>

<wpt lat="37.10584259033203" lon="140.19357299804688">
 <time>2015-12-06T02:24:46ZZ</time>
 <name><![CDATA[みさか東]]></name>
</wpt>

<wpt lat="37.11719512939453" lon="140.19802856445312">
 <time>2015-12-06T02:24:46ZZ</time>
 <name><![CDATA[白河モール]]></name>
</wpt>

<wpt lat="37.11764144897461" lon="140.19276428222656">
 <time>2015-12-06T02:24:46ZZ</time>
 <name><![CDATA[メガステージ]]></name>
</wpt>

<wpt lat="37.128257751464844" lon="140.21055603027344">
 <time>2015-12-06T02:24:46ZZ</time>
 <name><![CDATA[市役所前]]></name>
</wpt>

<wpt lat="37.128936767578125" lon="140.2135467529297">
 <time>2015-12-06T02:24:46ZZ</time>
 <name><![CDATA[白河駅前]]></name>
</wpt>

<wpt lat="37.12393569946289" lon="140.2267303466797">
 <time>2015-12-06T02:24:46ZZ</time>
 <name><![CDATA[白寿園]]></name>
</wpt>

<wpt lat="37.12141418457031" lon="140.2297821044922">
 <time>2015-12-06T02:24:46ZZ</time>
 <name><![CDATA[運動公園入口]]></name>
</wpt>

<wpt lat="37.11652374267578" lon="140.22337341308594">
 <time>2015-12-06T02:24:46ZZ</time>
 <name><![CDATA[関川窪団地]]></name>
</wpt>

<wpt lat="37.11433410644531" lon="140.22457885742188">
 <time>2015-12-06T02:24:46ZZ</time>
 <name><![CDATA[菅生館]]></name>
</wpt>

<wpt lat="37.11049270629883" lon="140.2078857421875">
 <time>2015-12-06T02:24:46ZZ</time>
 <name><![CDATA[松風の里団地]]></name>
</wpt>

<wpt lat="37.1047248840332" lon="140.20494079589844">
 <time>2015-12-06T02:24:46ZZ</time>
 <name><![CDATA[南湖ニュータウン]]></name>
</wpt>

<wpt lat="37.09847640991211" lon="140.21327209472656">
 <time>2015-12-06T02:24:46ZZ</time>
 <name><![CDATA[石阿弥陀]]></name>
</wpt>

<wpt lat="37.562191009521484" lon="139.8259735107422">
 <time>2015-12-06T02:24:46ZZ</time>
 <name><![CDATA[坂下緑町]]></name>
</wpt>

<wpt lat="37.6070671081543" lon="139.73355102539062">
 <time>2015-12-06T02:24:46ZZ</time>
 <name><![CDATA[高郷中学校入口]]></name>
</wpt>

<wpt lat="37.61680603027344" lon="139.7225341796875">
 <time>2015-12-06T02:24:46ZZ</time>
 <name><![CDATA[荻野駅前]]></name>
</wpt>

<wpt lat="37.63376235961914" lon="139.83653259277344">
 <time>2015-12-06T02:24:46ZZ</time>
 <name><![CDATA[慶徳]]></name>
</wpt>

<wpt lat="37.61825180053711" lon="139.8346710205078">
 <time>2015-12-06T02:24:46ZZ</time>
 <name><![CDATA[新宮（長床）]]></name>
</wpt>

<wpt lat="37.63872146606445" lon="139.76657104492188">
 <time>2015-12-06T02:24:46ZZ</time>
 <name><![CDATA[山都駅前]]></name>
</wpt>

<wpt lat="37.62767791748047" lon="139.75177001953125">
 <time>2015-12-06T02:24:46ZZ</time>
 <name><![CDATA[下川井]]></name>
</wpt>

<wpt lat="37.60938262939453" lon="139.8010711669922">
 <time>2015-12-06T02:24:46ZZ</time>
 <name><![CDATA[真木]]></name>
</wpt>

<wpt lat="37.60151290893555" lon="139.75723266601562">
 <time>2015-12-06T02:24:46ZZ</time>
 <name><![CDATA[西羽賀]]></name>
</wpt>

<wpt lat="37.62010955810547" lon="139.9439697265625">
 <time>2015-12-06T02:24:46ZZ</time>
 <name><![CDATA[雄国川前]]></name>
</wpt>

<wpt lat="37.72500228881836" lon="139.77896118164062">
 <time>2015-12-06T02:24:46ZZ</time>
 <name><![CDATA[一の木]]></name>
</wpt>

<wpt lat="37.735599517822266" lon="139.7813262939453">
 <time>2015-12-06T02:24:46ZZ</time>
 <name><![CDATA[いいでのゆ]]></name>
</wpt>

<wpt lat="37.70221710205078" lon="139.9144287109375">
 <time>2015-12-06T02:24:46ZZ</time>
 <name><![CDATA[治里局前]]></name>
</wpt>

<wpt lat="37.71183776855469" lon="139.9204864501953">
 <time>2015-12-06T02:24:46ZZ</time>
 <name><![CDATA[平沢]]></name>
</wpt>

<wpt lat="37.788597106933594" lon="139.7867431640625">
 <time>2015-12-06T02:24:46ZZ</time>
 <name><![CDATA[川入]]></name>
</wpt>

<wpt lat="37.668601989746094" lon="139.8872833251953">
 <time>2015-12-06T02:24:46ZZ</time>
 <name><![CDATA[岩月小学校前]]></name>
</wpt>

<wpt lat="37.60300827026367" lon="139.75473022460938">
 <time>2015-12-06T02:24:46ZZ</time>
 <name><![CDATA[高郷総合支所]]></name>
</wpt>

<wpt lat="37.78316879272461" lon="140.89944458007812">
 <time>2015-12-06T02:24:46ZZ</time>
 <name><![CDATA[広瀬]]></name>
</wpt>

<wpt lat="37.79130172729492" lon="140.90968322753906">
 <time>2015-12-06T02:24:46ZZ</time>
 <name><![CDATA[表西山]]></name>
</wpt>

<wpt lat="37.77680587768555" lon="140.88784790039062">
 <time>2015-12-06T02:24:46ZZ</time>
 <name><![CDATA[今田入口]]></name>
</wpt>

<wpt lat="37.777645111083984" lon="140.89459228515625">
 <time>2015-12-06T02:24:46ZZ</time>
 <name><![CDATA[山岸]]></name>
</wpt>

<wpt lat="37.778079986572266" lon="140.88027954101562">
 <time>2015-12-06T02:24:46ZZ</time>
 <name><![CDATA[山上学校前]]></name>
</wpt>

<wpt lat="37.78703689575195" lon="140.90428161621094">
 <time>2015-12-06T02:24:46ZZ</time>
 <name><![CDATA[粟津入口]]></name>
</wpt>

<wpt lat="37.78950119018555" lon="140.90676879882812">
 <time>2015-12-06T02:24:46ZZ</time>
 <name><![CDATA[愛宕神社下]]></name>
</wpt>

<wpt lat="37.79293441772461" lon="140.9301300048828">
 <time>2015-12-06T02:24:46ZZ</time>
 <name><![CDATA[百槻]]></name>
</wpt>

<wpt lat="37.776824951171875" lon="140.87193298339844">
 <time>2015-12-06T02:24:46ZZ</time>
 <name><![CDATA[遠藤]]></name>
</wpt>

<wpt lat="37.810081481933594" lon="140.8998565673828">
 <time>2015-12-06T02:24:46ZZ</time>
 <name><![CDATA[天明山口]]></name>
</wpt>

<wpt lat="37.81328582763672" lon="140.89906311035156">
 <time>2015-12-06T02:24:46ZZ</time>
 <name><![CDATA[黒木]]></name>
</wpt>

<wpt lat="37.82280731201172" lon="140.8952178955078">
 <time>2015-12-06T02:24:46ZZ</time>
 <name><![CDATA[大野公民館前]]></name>
</wpt>

<wpt lat="37.83562088012695" lon="140.89414978027344">
 <time>2015-12-06T02:24:46ZZ</time>
 <name><![CDATA[西工業団地入口]]></name>
</wpt>

<wpt lat="37.80216598510742" lon="140.91555786132812">
 <time>2015-12-06T02:24:46ZZ</time>
 <name><![CDATA[川沼]]></name>
</wpt>

<wpt lat="37.803001403808594" lon="140.93016052246094">
 <time>2015-12-06T02:24:46ZZ</time>
 <name><![CDATA[塚ノ町]]></name>
</wpt>

<wpt lat="37.804466247558594" lon="140.90797424316406">
 <time>2015-12-06T02:24:46ZZ</time>
 <name><![CDATA[笹川橋]]></name>
</wpt>

<wpt lat="37.804988861083984" lon="140.9239959716797">
 <time>2015-12-06T02:24:46ZZ</time>
 <name><![CDATA[小泉]]></name>
</wpt>

<wpt lat="37.807674407958984" lon="140.9036102294922">
 <time>2015-12-06T02:24:46ZZ</time>
 <name><![CDATA[迎畑]]></name>
</wpt>

<wpt lat="37.808128356933594" lon="140.92129516601562">
 <time>2015-12-06T02:24:46ZZ</time>
 <name><![CDATA[北小泉]]></name>
</wpt>

<wpt lat="37.823402404785156" lon="140.9196014404297">
 <time>2015-12-06T02:24:46ZZ</time>
 <name><![CDATA[石上]]></name>
</wpt>

<wpt lat="37.83604049682617" lon="140.91824340820312">
 <time>2015-12-06T02:24:46ZZ</time>
 <name><![CDATA[塚部]]></name>
</wpt>

<wpt lat="37.81505584716797" lon="140.8985595703125">
 <time>2015-12-06T02:24:46ZZ</time>
 <name><![CDATA[北台]]></name>
</wpt>

<wpt lat="37.8287353515625" lon="140.89569091796875">
 <time>2015-12-06T02:24:46ZZ</time>
 <name><![CDATA[大坪]]></name>
</wpt>

<wpt lat="37.799232482910156" lon="140.91773986816406">
 <time>2015-12-06T02:24:46ZZ</time>
 <name><![CDATA[中央公民館前]]></name>
</wpt>

<wpt lat="37.799983978271484" lon="140.92428588867188">
 <time>2015-12-06T02:24:46ZZ</time>
 <name><![CDATA[栄町]]></name>
</wpt>

<wpt lat="37.79922866821289" lon="140.92860412597656">
 <time>2015-12-06T02:24:46ZZ</time>
 <name><![CDATA[砂子田]]></name>
</wpt>

<wpt lat="37.803199768066406" lon="140.91012573242188">
 <time>2015-12-06T02:24:46ZZ</time>
 <name><![CDATA[中村一中前]]></name>
</wpt>

<wpt lat="37.802268981933594" lon="140.92092895507812">
 <time>2015-12-06T02:24:46ZZ</time>
 <name><![CDATA[荒井町]]></name>
</wpt>

<wpt lat="37.75291061401367" lon="140.95785522460938">
 <time>2015-12-06T02:24:46ZZ</time>
 <name><![CDATA[松ヶ沢]]></name>
</wpt>

<wpt lat="37.74628829956055" lon="140.96473693847656">
 <time>2015-12-06T02:24:46ZZ</time>
 <name><![CDATA[北柚木]]></name>
</wpt>

<wpt lat="37.74382781982422" lon="140.96722412109375">
 <time>2015-12-06T02:24:46ZZ</time>
 <name><![CDATA[上柚木]]></name>
</wpt>

<wpt lat="37.74059295654297" lon="140.97271728515625">
 <time>2015-12-06T02:24:46ZZ</time>
 <name><![CDATA[柚木]]></name>
</wpt>

<wpt lat="37.74112319946289" lon="140.98117065429688">
 <time>2015-12-06T02:24:46ZZ</time>
 <name><![CDATA[葉山前]]></name>
</wpt>

<wpt lat="37.73921203613281" lon="140.9921417236328">
 <time>2015-12-06T02:24:46ZZ</time>
 <name><![CDATA[獺庭]]></name>
</wpt>

<wpt lat="37.76905059814453" lon="140.71546936035156">
 <time>2015-12-06T02:24:46ZZ</time>
 <name><![CDATA[玉野学校前]]></name>
</wpt>

<wpt lat="37.769962310791016" lon="140.7232666015625">
 <time>2015-12-06T02:24:46ZZ</time>
 <name><![CDATA[玉野橋]]></name>
</wpt>

<wpt lat="37.764793395996094" lon="140.73641967773438">
 <time>2015-12-06T02:24:46ZZ</time>
 <name><![CDATA[東玉野]]></name>
</wpt>

<wpt lat="37.77090835571289" lon="140.7456512451172">
 <time>2015-12-06T02:24:46ZZ</time>
 <name><![CDATA[堤入口]]></name>
</wpt>

<wpt lat="37.773990631103516" lon="140.83792114257812">
 <time>2015-12-06T02:24:46ZZ</time>
 <name><![CDATA[小倉公会堂前]]></name>
</wpt>

<wpt lat="37.594749450683594" lon="140.62478637695312">
 <time>2015-12-06T02:24:46ZZ</time>
 <name><![CDATA[牧場入口]]></name>
</wpt>

<wpt lat="37.562782287597656" lon="140.58973693847656">
 <time>2015-12-06T02:24:46ZZ</time>
 <name><![CDATA[大鷲入口]]></name>
</wpt>

<wpt lat="37.56245422363281" lon="140.59925842285156">
 <time>2015-12-06T02:24:46ZZ</time>
 <name><![CDATA[上大梨子]]></name>
</wpt>

<wpt lat="37.564598083496094" lon="140.60450744628906">
 <time>2015-12-06T02:24:46ZZ</time>
 <name><![CDATA[羽山神社]]></name>
</wpt>

<wpt lat="37.595924377441406" lon="140.58705139160156">
 <time>2015-12-06T02:24:46ZZ</time>
 <name><![CDATA[杉内]]></name>
</wpt>

<wpt lat="37.587135314941406" lon="140.58950805664062">
 <time>2015-12-06T02:24:46ZZ</time>
 <name><![CDATA[最勝寺前]]></name>
</wpt>

<wpt lat="37.59135437011719" lon="140.589599609375">
 <time>2015-12-06T02:24:46ZZ</time>
 <name><![CDATA[小手森集会所]]></name>
</wpt>

<wpt lat="37.61393356323242" lon="140.53717041015625">
 <time>2015-12-06T02:24:46ZZ</time>
 <name><![CDATA[ムラマツ建装下]]></name>
</wpt>

<wpt lat="37.605594635009766" lon="140.53517150878906">
 <time>2015-12-06T02:24:46ZZ</time>
 <name><![CDATA[鍛冶山集会所下]]></name>
</wpt>

<wpt lat="37.60222625732422" lon="140.53604125976562">
 <time>2015-12-06T02:24:46ZZ</time>
 <name><![CDATA[不動田]]></name>
</wpt>

<wpt lat="37.28177261352539" lon="139.51658630371094">
 <time>2015-12-06T02:24:46ZZ</time>
 <name><![CDATA[下山公民館前]]></name>
</wpt>

<wpt lat="37.267669677734375" lon="139.5373077392578">
 <time>2015-12-06T02:24:46ZZ</time>
 <name><![CDATA[虻の宮]]></name>
</wpt>

<wpt lat="37.27193832397461" lon="139.5344696044922">
 <time>2015-12-06T02:24:46ZZ</time>
 <name><![CDATA[南会津高校前]]></name>
</wpt>

<wpt lat="37.27521896362305" lon="139.5299835205078">
 <time>2015-12-06T02:24:46ZZ</time>
 <name><![CDATA[片貝]]></name>
</wpt>

<wpt lat="37.28059005737305" lon="139.4980926513672">
 <time>2015-12-06T02:24:46ZZ</time>
 <name><![CDATA[和泉田上平]]></name>
</wpt>

<wpt lat="37.214656829833984" lon="140.9939727783203">
 <time>2015-12-06T02:24:46ZZ</time>
 <name><![CDATA[広野町役場]]></name>
</wpt>

<wpt lat="37.213077545166016" lon="140.99171447753906">
 <time>2015-12-06T02:24:46ZZ</time>
 <name><![CDATA[保健センター]]></name>
</wpt>

<wpt lat="37.212867736816406" lon="140.9943084716797">
 <time>2015-12-06T02:24:46ZZ</time>
 <name><![CDATA[公民館]]></name>
</wpt>

<wpt lat="37.21717071533203" lon="141.0021209716797">
 <time>2015-12-06T02:24:46ZZ</time>
 <name><![CDATA[火の口]]></name>
</wpt>

<wpt lat="37.220619201660156" lon="141.00416564941406">
 <time>2015-12-06T02:24:46ZZ</time>
 <name><![CDATA[前川原]]></name>
</wpt>

<wpt lat="37.77614974975586" lon="140.83290100097656">
 <time>2015-12-06T02:24:46ZZ</time>
 <name><![CDATA[小田原]]></name>
</wpt>

<wpt lat="37.778564453125" lon="140.82652282714844">
 <time>2015-12-06T02:24:46ZZ</time>
 <name><![CDATA[物倉]]></name>
</wpt>

<wpt lat="37.782684326171875" lon="140.81698608398438">
 <time>2015-12-06T02:24:46ZZ</time>
 <name><![CDATA[滝平]]></name>
</wpt>

<wpt lat="37.766910552978516" lon="140.7937469482422">
 <time>2015-12-06T02:24:46ZZ</time>
 <name><![CDATA[下中井塚]]></name>
</wpt>

<wpt lat="37.768272399902344" lon="140.786376953125">
 <time>2015-12-06T02:24:46ZZ</time>
 <name><![CDATA[上中井塚]]></name>
</wpt>

<wpt lat="37.77198028564453" lon="140.77066040039062">
 <time>2015-12-06T02:24:46ZZ</time>
 <name><![CDATA[菖蒲沢]]></name>
</wpt>

<wpt lat="37.775482177734375" lon="140.76327514648438">
 <time>2015-12-06T02:24:46ZZ</time>
 <name><![CDATA[タチガロー]]></name>
</wpt>

<wpt lat="37.76942825317383" lon="140.8450164794922">
 <time>2015-12-06T02:24:46ZZ</time>
 <name><![CDATA[間ノ次郎]]></name>
</wpt>

<wpt lat="37.76590347290039" lon="140.8593292236328">
 <time>2015-12-06T02:24:46ZZ</time>
 <name><![CDATA[円渕]]></name>
</wpt>

<wpt lat="37.76791000366211" lon="140.85997009277344">
 <time>2015-12-06T02:24:46ZZ</time>
 <name><![CDATA[山上局前]]></name>
</wpt>

<wpt lat="37.772525787353516" lon="140.8624267578125">
 <time>2015-12-06T02:24:46ZZ</time>
 <name><![CDATA[並木]]></name>
</wpt>

<wpt lat="37.780094146728516" lon="140.8137664794922">
 <time>2015-12-06T02:24:46ZZ</time>
 <name><![CDATA[萩の久保]]></name>
</wpt>

<wpt lat="37.774452209472656" lon="140.86680603027344">
 <time>2015-12-06T02:24:46ZZ</time>
 <name><![CDATA[横川]]></name>
</wpt>

<wpt lat="37.77859878540039" lon="140.8037567138672">
 <time>2015-12-06T02:24:46ZZ</time>
 <name><![CDATA[落合]]></name>
</wpt>

<wpt lat="37.77616882324219" lon="140.7518310546875">
 <time>2015-12-06T02:24:46ZZ</time>
 <name><![CDATA[落合橋]]></name>
</wpt>

<wpt lat="37.83031463623047" lon="140.95663452148438">
 <time>2015-12-06T02:24:46ZZ</time>
 <name><![CDATA[相馬港]]></name>
</wpt>

<wpt lat="37.82444763183594" lon="140.96817016601562">
 <time>2015-12-06T02:24:46ZZ</time>
 <name><![CDATA[船越]]></name>
</wpt>

<wpt lat="37.826534271240234" lon="140.9661102294922">
 <time>2015-12-06T02:24:46ZZ</time>
 <name><![CDATA[尾浜]]></name>
</wpt>

<wpt lat="37.828800201416016" lon="140.96273803710938">
 <time>2015-12-06T02:24:46ZZ</time>
 <name><![CDATA[原釜]]></name>
</wpt>

<wpt lat="37.82941818237305" lon="140.96006774902344">
 <time>2015-12-06T02:24:46ZZ</time>
 <name><![CDATA[相馬港南]]></name>
</wpt>

<wpt lat="37.824337005615234" lon="140.9532012939453">
 <time>2015-12-06T02:24:46ZZ</time>
 <name><![CDATA[築港道]]></name>
</wpt>

<wpt lat="37.822723388671875" lon="140.94808959960938">
 <time>2015-12-06T02:24:46ZZ</time>
 <name><![CDATA[下り松]]></name>
</wpt>

<wpt lat="37.82304000854492" lon="140.958740234375">
 <time>2015-12-06T02:24:46ZZ</time>
 <name><![CDATA[高塚]]></name>
</wpt>

<wpt lat="37.822486877441406" lon="140.96458435058594">
 <time>2015-12-06T02:24:46ZZ</time>
 <name><![CDATA[平前]]></name>
</wpt>

<wpt lat="37.822784423828125" lon="140.96697998046875">
 <time>2015-12-06T02:24:46ZZ</time>
 <name><![CDATA[松川港]]></name>
</wpt>

<wpt lat="37.82288360595703" lon="140.9696044921875">
 <time>2015-12-06T02:24:46ZZ</time>
 <name><![CDATA[松川浦]]></name>
</wpt>

<wpt lat="37.813568115234375" lon="140.94032287597656">
 <time>2015-12-06T02:24:46ZZ</time>
 <name><![CDATA[小泉山田]]></name>
</wpt>

<wpt lat="37.81085205078125" lon="140.93824768066406">
 <time>2015-12-06T02:24:46ZZ</time>
 <name><![CDATA[緑ヶ丘団地入口]]></name>
</wpt>

<wpt lat="37.8081169128418" lon="140.9354248046875">
 <time>2015-12-06T02:24:46ZZ</time>
 <name><![CDATA[本笑]]></name>
</wpt>

<wpt lat="37.78569793701172" lon="140.95904541015625">
 <time>2015-12-06T02:24:46ZZ</time>
 <name><![CDATA[大師前]]></name>
</wpt>

<wpt lat="37.788326263427734" lon="140.95213317871094">
 <time>2015-12-06T02:24:46ZZ</time>
 <name><![CDATA[橋本前]]></name>
</wpt>

<wpt lat="37.787269592285156" lon="140.95521545410156">
 <time>2015-12-06T02:24:46ZZ</time>
 <name><![CDATA[飯豊]]></name>
</wpt>

<wpt lat="37.789794921875" lon="140.9476776123047">
 <time>2015-12-06T02:24:46ZZ</time>
 <name><![CDATA[大曲]]></name>
</wpt>

<wpt lat="37.79254913330078" lon="140.93585205078125">
 <time>2015-12-06T02:24:46ZZ</time>
 <name><![CDATA[神明前]]></name>
</wpt>

<wpt lat="37.782806396484375" lon="140.96340942382812">
 <time>2015-12-06T02:24:46ZZ</time>
 <name><![CDATA[柏崎]]></name>
</wpt>

<wpt lat="37.78138732910156" lon="140.9677734375">
 <time>2015-12-06T02:24:46ZZ</time>
 <name><![CDATA[梅川]]></name>
</wpt>

<wpt lat="37.77008819580078" lon="140.98623657226562">
 <time>2015-12-06T02:24:46ZZ</time>
 <name><![CDATA[芹谷地]]></name>
</wpt>

<wpt lat="37.77212142944336" lon="140.98526000976562">
 <time>2015-12-06T02:24:46ZZ</time>
 <name><![CDATA[北谷地]]></name>
</wpt>

<wpt lat="37.77669906616211" lon="140.98155212402344">
 <time>2015-12-06T02:24:46ZZ</time>
 <name><![CDATA[舟溜]]></name>
</wpt>

<wpt lat="37.773948669433594" lon="140.93594360351562">
 <time>2015-12-06T02:24:46ZZ</time>
 <name><![CDATA[百尺観音入口]]></name>
</wpt>

<wpt lat="37.764610290527344" lon="140.9419403076172">
 <time>2015-12-06T02:24:46ZZ</time>
 <name><![CDATA[立谷]]></name>
</wpt>

<wpt lat="37.7663459777832" lon="140.98831176757812">
 <time>2015-12-06T02:24:46ZZ</time>
 <name><![CDATA[磯部大浜]]></name>
</wpt>

<wpt lat="37.76467514038086" lon="140.9896240234375">
 <time>2015-12-06T02:24:46ZZ</time>
 <name><![CDATA[磯部選果場前]]></name>
</wpt>

<wpt lat="37.757667541503906" lon="140.9931640625">
 <time>2015-12-06T02:24:46ZZ</time>
 <name><![CDATA[古磯部]]></name>
</wpt>

<wpt lat="37.76001739501953" lon="140.99139404296875">
 <time>2015-12-06T02:24:46ZZ</time>
 <name><![CDATA[磯部学校]]></name>
</wpt>

<wpt lat="37.75400161743164" lon="140.9960174560547">
 <time>2015-12-06T02:24:46ZZ</time>
 <name><![CDATA[金草入口]]></name>
</wpt>

<wpt lat="37.75480270385742" lon="140.95321655273438">
 <time>2015-12-06T02:24:46ZZ</time>
 <name><![CDATA[柚木入口]]></name>
</wpt>

<wpt lat="37.820068359375" lon="140.94512939453125">
 <time>2015-12-06T02:24:46ZZ</time>
 <name><![CDATA[細田]]></name>
</wpt>

<wpt lat="37.84138488769531" lon="140.89297485351562">
 <time>2015-12-06T02:24:46ZZ</time>
 <name><![CDATA[椎木]]></name>
</wpt>

<wpt lat="37.837867736816406" lon="140.88211059570312">
 <time>2015-12-06T02:24:46ZZ</time>
 <name><![CDATA[オリエンタルモーター前]]></name>
</wpt>

<wpt lat="37.7484245300293" lon="141.00119018554688">
 <time>2015-12-06T02:24:46ZZ</time>
 <name><![CDATA[蒲庭浜]]></name>
</wpt>

<wpt lat="37.73262023925781" lon="140.99827575683594">
 <time>2015-12-06T02:24:46ZZ</time>
 <name><![CDATA[堂ヶ迫]]></name>
</wpt>

<wpt lat="37.74344253540039" lon="141.00411987304688">
 <time>2015-12-06T02:24:46ZZ</time>
 <name><![CDATA[蒲庭]]></name>
</wpt>

<wpt lat="37.729331970214844" lon="141.00502014160156">
 <time>2015-12-06T02:24:46ZZ</time>
 <name><![CDATA[立切]]></name>
</wpt>

<wpt lat="37.81939697265625" lon="140.94354248046875">
 <time>2015-12-06T02:24:46ZZ</time>
 <name><![CDATA[刈敷田団地]]></name>
</wpt>

<wpt lat="37.83568572998047" lon="140.88681030273438">
 <time>2015-12-06T02:24:46ZZ</time>
 <name><![CDATA[IHI前]]></name>
</wpt>

<wpt lat="37.6234130859375" lon="140.46192932128906">
 <time>2015-12-06T02:24:46ZZ</time>
 <name><![CDATA[二本柳]]></name>
</wpt>

<wpt lat="37.61164474487305" lon="140.46571350097656">
 <time>2015-12-06T02:24:46ZZ</time>
 <name><![CDATA[安達駅前]]></name>
</wpt>

<wpt lat="37.605953216552734" lon="140.4603271484375">
 <time>2015-12-06T02:24:46ZZ</time>
 <name><![CDATA[安達郵便局前]]></name>
</wpt>

<wpt lat="37.64579391479492" lon="140.46363830566406">
 <time>2015-12-06T02:24:46ZZ</time>
 <name><![CDATA[吉倉]]></name>
</wpt>

<wpt lat="37.550498962402344" lon="140.58567810058594">
 <time>2015-12-06T02:24:46ZZ</time>
 <name><![CDATA[新橋]]></name>
</wpt>

<wpt lat="37.55315017700195" lon="140.58236694335938">
 <time>2015-12-06T02:24:46ZZ</time>
 <name><![CDATA[不川田]]></name>
</wpt>

<wpt lat="37.5569953918457" lon="140.58009338378906">
 <time>2015-12-06T02:24:46ZZ</time>
 <name><![CDATA[馬乗]]></name>
</wpt>

<wpt lat="37.56344223022461" lon="140.57777404785156">
 <time>2015-12-06T02:24:46ZZ</time>
 <name><![CDATA[猫清水]]></name>
</wpt>

<wpt lat="37.567779541015625" lon="140.57823181152344">
 <time>2015-12-06T02:24:46ZZ</time>
 <name><![CDATA[下田]]></name>
</wpt>

<wpt lat="37.56717300415039" lon="140.584228515625">
 <time>2015-12-06T02:24:46ZZ</time>
 <name><![CDATA[南戸沢小学校入口]]></name>
</wpt>

<wpt lat="37.57223129272461" lon="140.59646606445312">
 <time>2015-12-06T02:24:46ZZ</time>
 <name><![CDATA[高野前]]></name>
</wpt>

<wpt lat="37.57395553588867" lon="140.5995330810547">
 <time>2015-12-06T02:24:46ZZ</time>
 <name><![CDATA[杢少内]]></name>
</wpt>

<wpt lat="37.57563781738281" lon="140.60101318359375">
 <time>2015-12-06T02:24:46ZZ</time>
 <name><![CDATA[宮下]]></name>
</wpt>

<wpt lat="37.57940673828125" lon="140.6053466796875">
 <time>2015-12-06T02:24:46ZZ</time>
 <name><![CDATA[黒少内]]></name>
</wpt>

<wpt lat="37.56766128540039" lon="140.57212829589844">
 <time>2015-12-06T02:24:46ZZ</time>
 <name><![CDATA[旧上太田小]]></name>
</wpt>

<wpt lat="37.566810607910156" lon="140.56948852539062">
 <time>2015-12-06T02:24:46ZZ</time>
 <name><![CDATA[白髭橋]]></name>
</wpt>

<wpt lat="37.5670166015625" lon="140.5648651123047">
 <time>2015-12-06T02:24:46ZZ</time>
 <name><![CDATA[西勝内]]></name>
</wpt>

<wpt lat="37.56916427612305" lon="140.5575714111328">
 <time>2015-12-06T02:24:46ZZ</time>
 <name><![CDATA[大学橋]]></name>
</wpt>

<wpt lat="37.58123779296875" lon="140.54205322265625">
 <time>2015-12-06T02:24:46ZZ</time>
 <name><![CDATA[西谷橋]]></name>
</wpt>

<wpt lat="37.58193588256836" lon="140.53883361816406">
 <time>2015-12-06T02:24:46ZZ</time>
 <name><![CDATA[蛇ヶ淵]]></name>
</wpt>

<wpt lat="37.550167083740234" lon="140.59197998046875">
 <time>2015-12-06T02:24:46ZZ</time>
 <name><![CDATA[小初沢]]></name>
</wpt>

<wpt lat="37.55066680908203" lon="140.5940704345703">
 <time>2015-12-06T02:24:46ZZ</time>
 <name><![CDATA[落合]]></name>
</wpt>

<wpt lat="37.56126403808594" lon="140.57830810546875">
 <time>2015-12-06T02:24:46ZZ</time>
 <name><![CDATA[綱木]]></name>
</wpt>

<wpt lat="37.568580627441406" lon="140.58731079101562">
 <time>2015-12-06T02:24:46ZZ</time>
 <name><![CDATA[八幡神社前]]></name>
</wpt>

<wpt lat="37.57150650024414" lon="140.5933380126953">
 <time>2015-12-06T02:24:46ZZ</time>
 <name><![CDATA[川向]]></name>
</wpt>

<wpt lat="37.58127975463867" lon="140.6088409423828">
 <time>2015-12-06T02:24:46ZZ</time>
 <name><![CDATA[稲場前]]></name>
</wpt>

<wpt lat="37.575279235839844" lon="140.54873657226562">
 <time>2015-12-06T02:24:46ZZ</time>
 <name><![CDATA[上寺入口]]></name>
</wpt>

<wpt lat="37.571231842041016" lon="140.5498504638672">
 <time>2015-12-06T02:24:46ZZ</time>
 <name><![CDATA[梅沢入口]]></name>
</wpt>

<wpt lat="37.56932067871094" lon="140.5527801513672">
 <time>2015-12-06T02:24:46ZZ</time>
 <name><![CDATA[寺坂]]></name>
</wpt>

<wpt lat="37.638118743896484" lon="140.53651428222656">
 <time>2015-12-06T02:24:46ZZ</time>
 <name><![CDATA[塩之沢]]></name>
</wpt>

<wpt lat="37.631134033203125" lon="140.53866577148438">
 <time>2015-12-06T02:24:46ZZ</time>
 <name><![CDATA[古生防火用水前]]></name>
</wpt>

<wpt lat="37.627132415771484" lon="140.56011962890625">
 <time>2015-12-06T02:24:46ZZ</time>
 <name><![CDATA[才の神]]></name>
</wpt>

<wpt lat="37.62614822387695" lon="140.5391387939453">
 <time>2015-12-06T02:24:46ZZ</time>
 <name><![CDATA[岩代馬場]]></name>
</wpt>

<wpt lat="37.62856674194336" lon="140.50950622558594">
 <time>2015-12-06T02:24:46ZZ</time>
 <name><![CDATA[大中地]]></name>
</wpt>

<wpt lat="37.62786102294922" lon="140.51187133789062">
 <time>2015-12-06T02:24:46ZZ</time>
 <name><![CDATA[中作]]></name>
</wpt>

<wpt lat="37.61806106567383" lon="140.55809020996094">
 <time>2015-12-06T02:24:46ZZ</time>
 <name><![CDATA[木幅支所前]]></name>
</wpt>

<wpt lat="37.618404388427734" lon="140.55712890625">
 <time>2015-12-06T02:24:46ZZ</time>
 <name><![CDATA[田谷]]></name>
</wpt>

<wpt lat="37.618900299072266" lon="140.54908752441406">
 <time>2015-12-06T02:24:46ZZ</time>
 <name><![CDATA[久木平]]></name>
</wpt>

<wpt lat="37.618980407714844" lon="140.5118408203125">
 <time>2015-12-06T02:24:46ZZ</time>
 <name><![CDATA[桶沢]]></name>
</wpt>

<wpt lat="37.62464141845703" lon="140.51284790039062">
 <time>2015-12-06T02:24:46ZZ</time>
 <name><![CDATA[石橋]]></name>
</wpt>

<wpt lat="37.61947250366211" lon="140.5403289794922">
 <time>2015-12-06T02:24:46ZZ</time>
 <name><![CDATA[坂ノ下]]></name>
</wpt>

<wpt lat="37.61164474487305" lon="140.5872344970703">
 <time>2015-12-06T02:24:46ZZ</time>
 <name><![CDATA[笹ノ田]]></name>
</wpt>

<wpt lat="37.61111068725586" lon="140.56004333496094">
 <time>2015-12-06T02:24:46ZZ</time>
 <name><![CDATA[石谷改善センター]]></name>
</wpt>

<wpt lat="37.60441207885742" lon="140.56771850585938">
 <time>2015-12-06T02:24:46ZZ</time>
 <name><![CDATA[中越田]]></name>
</wpt>

<wpt lat="37.60352325439453" lon="140.57327270507812">
 <time>2015-12-06T02:24:46ZZ</time>
 <name><![CDATA[競石]]></name>
</wpt>

<wpt lat="37.601802825927734" lon="140.5745391845703">
 <time>2015-12-06T02:24:46ZZ</time>
 <name><![CDATA[実太郎]]></name>
</wpt>

<wpt lat="37.61048889160156" lon="140.5841827392578">
 <time>2015-12-06T02:24:46ZZ</time>
 <name><![CDATA[諏訪神社前]]></name>
</wpt>

<wpt lat="37.604087829589844" lon="140.58090209960938">
 <time>2015-12-06T02:24:46ZZ</time>
 <name><![CDATA[五反田]]></name>
</wpt>

<wpt lat="37.6000862121582" lon="140.57774353027344">
 <time>2015-12-06T02:24:46ZZ</time>
 <name><![CDATA[針道中央]]></name>
</wpt>

<wpt lat="37.59628677368164" lon="140.58094787597656">
 <time>2015-12-06T02:24:46ZZ</time>
 <name><![CDATA[東和支所]]></name>
</wpt>

<wpt lat="37.598663330078125" lon="140.5487060546875">
 <time>2015-12-06T02:24:46ZZ</time>
 <name><![CDATA[深田]]></name>
</wpt>

<wpt lat="37.59659194946289" lon="140.54241943359375">
 <time>2015-12-06T02:24:46ZZ</time>
 <name><![CDATA[海方作]]></name>
</wpt>

<wpt lat="37.59416198730469" lon="140.54112243652344">
 <time>2015-12-06T02:24:46ZZ</time>
 <name><![CDATA[太田住民センター]]></name>
</wpt>

<wpt lat="37.59136962890625" lon="140.53640747070312">
 <time>2015-12-06T02:24:46ZZ</time>
 <name><![CDATA[前石田]]></name>
</wpt>

<wpt lat="37.59259796142578" lon="140.53822326660156">
 <time>2015-12-06T02:24:46ZZ</time>
 <name><![CDATA[太田若宮]]></name>
</wpt>

<wpt lat="37.60081481933594" lon="140.57655334472656">
 <time>2015-12-06T02:24:46ZZ</time>
 <name><![CDATA[針道]]></name>
</wpt>

<wpt lat="37.59859085083008" lon="140.57797241210938">
 <time>2015-12-06T02:24:46ZZ</time>
 <name><![CDATA[旧針道小]]></name>
</wpt>

<wpt lat="37.633575439453125" lon="140.55517578125">
 <time>2015-12-06T02:24:46ZZ</time>
 <name><![CDATA[梨木内]]></name>
</wpt>

<wpt lat="37.639705657958984" lon="140.55447387695312">
 <time>2015-12-06T02:24:46ZZ</time>
 <name><![CDATA[関場]]></name>
</wpt>

<wpt lat="37.61840057373047" lon="140.52743530273438">
 <time>2015-12-06T02:24:46ZZ</time>
 <name><![CDATA[西赤土]]></name>
</wpt>

<wpt lat="37.6378173828125" lon="140.5011444091797">
 <time>2015-12-06T02:24:46ZZ</time>
 <name><![CDATA[旧下川崎小]]></name>
</wpt>

<wpt lat="37.6385383605957" lon="140.4992218017578">
 <time>2015-12-06T02:24:46ZZ</time>
 <name><![CDATA[払川公園建設記念碑前]]></name>
</wpt>

<wpt lat="37.62845230102539" lon="140.51072692871094">
 <time>2015-12-06T02:24:46ZZ</time>
 <name><![CDATA[下川崎住民センター]]></name>
</wpt>

<wpt lat="37.633487701416016" lon="140.49478149414062">
 <time>2015-12-06T02:24:46ZZ</time>
 <name><![CDATA[下川崎団地（町畑）]]></name>
</wpt>

<wpt lat="37.607208251953125" lon="140.4609832763672">
 <time>2015-12-06T02:24:46ZZ</time>
 <name><![CDATA[安達支所]]></name>
</wpt>

<wpt lat="37.61180114746094" lon="140.46051025390625">
 <time>2015-12-06T02:24:46ZZ</time>
 <name><![CDATA[福岡屯所]]></name>
</wpt>

<wpt lat="37.61472702026367" lon="140.4603271484375">
 <time>2015-12-06T02:24:46ZZ</time>
 <name><![CDATA[ファームランドやまろく裏]]></name>
</wpt>

<wpt lat="37.61787033081055" lon="140.45709228515625">
 <time>2015-12-06T02:24:46ZZ</time>
 <name><![CDATA[安達運動場]]></name>
</wpt>

<wpt lat="37.62432098388672" lon="140.45965576171875">
 <time>2015-12-06T02:24:46ZZ</time>
 <name><![CDATA[二本柳集会所]]></name>
</wpt>

<wpt lat="37.634334564208984" lon="140.4547576904297">
 <time>2015-12-06T02:24:46ZZ</time>
 <name><![CDATA[日向集会所]]></name>
</wpt>

<wpt lat="37.63278579711914" lon="140.43568420410156">
 <time>2015-12-06T02:24:46ZZ</time>
 <name><![CDATA[山ノ入集会所]]></name>
</wpt>

<wpt lat="37.64302444458008" lon="140.43389892578125">
 <time>2015-12-06T02:24:46ZZ</time>
 <name><![CDATA[吉倉第1集会所付近]]></name>
</wpt>

<wpt lat="37.64575958251953" lon="140.439453125">
 <time>2015-12-06T02:24:46ZZ</time>
 <name><![CDATA[上延命]]></name>
</wpt>

<wpt lat="37.64540481567383" lon="140.45217895507812">
 <time>2015-12-06T02:24:46ZZ</time>
 <name><![CDATA[吉倉高齢者能力活用センター]]></name>
</wpt>

<wpt lat="37.64286422729492" lon="140.47764587402344">
 <time>2015-12-06T02:24:46ZZ</time>
 <name><![CDATA[吉太屋酒店前]]></name>
</wpt>

<wpt lat="37.63711166381836" lon="140.47340393066406">
 <time>2015-12-06T02:24:46ZZ</time>
 <name><![CDATA[羽黒第2集会所]]></name>
</wpt>

<wpt lat="37.63547134399414" lon="140.4647979736328">
 <time>2015-12-06T02:24:46ZZ</time>
 <name><![CDATA[渋川住民センター]]></name>
</wpt>

<wpt lat="37.60502243041992" lon="140.46414184570312">
 <time>2015-12-06T02:24:46ZZ</time>
 <name><![CDATA[雇用促進住宅前]]></name>
</wpt>

<wpt lat="37.60371780395508" lon="140.46949768066406">
 <time>2015-12-06T02:24:46ZZ</time>
 <name><![CDATA[野地組前]]></name>
</wpt>

<wpt lat="37.59945297241211" lon="140.4867706298828">
 <time>2015-12-06T02:24:46ZZ</time>
 <name><![CDATA[3区集会所]]></name>
</wpt>

<wpt lat="37.599708557128906" lon="140.49424743652344">
 <time>2015-12-06T02:24:46ZZ</time>
 <name><![CDATA[4区会館（永作）]]></name>
</wpt>

<wpt lat="37.59994125366211" lon="140.5073699951172">
 <time>2015-12-06T02:24:46ZZ</time>
 <name><![CDATA[7区会館（畑中）]]></name>
</wpt>

<wpt lat="37.613609313964844" lon="140.5115966796875">
 <time>2015-12-06T02:24:46ZZ</time>
 <name><![CDATA[9区集会所（糸内）]]></name>
</wpt>

<wpt lat="37.62629318237305" lon="140.48805236816406">
 <time>2015-12-06T02:24:46ZZ</time>
 <name><![CDATA[北洞屯所]]></name>
</wpt>

<wpt lat="37.620121002197266" lon="140.47958374023438">
 <time>2015-12-06T02:24:46ZZ</time>
 <name><![CDATA[油王田集会所]]></name>
</wpt>

<wpt lat="37.61677932739258" lon="140.4720458984375">
 <time>2015-12-06T02:24:46ZZ</time>
 <name><![CDATA[硫黄田中北会館]]></name>
</wpt>

<wpt lat="37.57749938964844" lon="140.6022186279297">
 <time>2015-12-06T02:24:46ZZ</time>
 <name><![CDATA[北戸沢林野会館]]></name>
</wpt>

<wpt lat="37.59185791015625" lon="140.62359619140625">
 <time>2015-12-06T02:24:46ZZ</time>
 <name><![CDATA[戸沢12区東集会所]]></name>
</wpt>

<wpt lat="37.59596252441406" lon="140.6247100830078">
 <time>2015-12-06T02:24:46ZZ</time>
 <name><![CDATA[伏返]]></name>
</wpt>

<wpt lat="37.57797622680664" lon="140.54539489746094">
 <time>2015-12-06T02:24:46ZZ</time>
 <name><![CDATA[西谷公会堂]]></name>
</wpt>

<wpt lat="37.614803314208984" lon="140.5560302734375">
 <time>2015-12-06T02:24:46ZZ</time>
 <name><![CDATA[折越公会堂]]></name>
</wpt>

<wpt lat="37.60798645019531" lon="140.55056762695312">
 <time>2015-12-06T02:24:46ZZ</time>
 <name><![CDATA[茄子石会館]]></name>
</wpt>

<wpt lat="37.60451126098633" lon="140.55152893066406">
 <time>2015-12-06T02:24:46ZZ</time>
 <name><![CDATA[石戸屋入口]]></name>
</wpt>

<wpt lat="37.59741973876953" lon="140.536865234375">
 <time>2015-12-06T02:24:46ZZ</time>
 <name><![CDATA[下太北橋]]></name>
</wpt>

<wpt lat="37.585975646972656" lon="140.5514678955078">
 <time>2015-12-06T02:24:46ZZ</time>
 <name><![CDATA[あじさい寺前]]></name>
</wpt>

<wpt lat="37.58456802368164" lon="140.55679321289062">
 <time>2015-12-06T02:24:46ZZ</time>
 <name><![CDATA[菅田屯所下]]></name>
</wpt>

<wpt lat="37.620361328125" lon="140.558349609375">
 <time>2015-12-06T02:24:46ZZ</time>
 <name><![CDATA[木幅住民センター前]]></name>
</wpt>

<wpt lat="37.55011749267578" lon="140.58871459960938">
 <time>2015-12-06T02:24:46ZZ</time>
 <name><![CDATA[大下]]></name>
</wpt>

<wpt lat="37.610843658447266" lon="140.5104217529297">
 <time>2015-12-06T02:24:46ZZ</time>
 <name><![CDATA[荒井]]></name>
</wpt>

<wpt lat="37.601806640625" lon="140.4740753173828">
 <time>2015-12-06T02:24:46ZZ</time>
 <name><![CDATA[籐兵内]]></name>
</wpt>

<wpt lat="37.62021255493164" lon="140.455810546875">
 <time>2015-12-06T02:24:46ZZ</time>
 <name><![CDATA[長谷堂]]></name>
</wpt>

<wpt lat="37.63564682006836" lon="140.46986389160156">
 <time>2015-12-06T02:24:46ZZ</time>
 <name><![CDATA[安達太良神社前]]></name>
</wpt>

<wpt lat="37.5966911315918" lon="140.57919311523438">
 <time>2015-12-06T02:24:46ZZ</time>
 <name><![CDATA[東和クリニック前]]></name>
</wpt>

<wpt lat="37.601131439208984" lon="140.57855224609375">
 <time>2015-12-06T02:24:46ZZ</time>
 <name><![CDATA[JA東和支店前]]></name>
</wpt>

<wpt lat="37.6258430480957" lon="140.5283203125">
 <time>2015-12-06T02:24:46ZZ</time>
 <name><![CDATA[狐塚]]></name>
</wpt>

<wpt lat="37.627769470214844" lon="140.52606201171875">
 <time>2015-12-06T02:24:46ZZ</time>
 <name><![CDATA[みどりの郷前]]></name>
</wpt>

<wpt lat="37.628639221191406" lon="140.52647399902344">
 <time>2015-12-06T02:24:46ZZ</time>
 <name><![CDATA[ウッディハウスとうわ]]></name>
</wpt>

<wpt lat="37.638492584228516" lon="140.54627990722656">
 <time>2015-12-06T02:24:46ZZ</time>
 <name><![CDATA[水舟]]></name>
</wpt>

<wpt lat="37.59186935424805" lon="140.5394287109375">
 <time>2015-12-06T02:24:46ZZ</time>
 <name><![CDATA[若宮集会所]]></name>
</wpt>

<wpt lat="37.58205032348633" lon="140.56442260742188">
 <time>2015-12-06T02:24:46ZZ</time>
 <name><![CDATA[竜神前]]></name>
</wpt>

<wpt lat="37.616695404052734" lon="140.56471252441406">
 <time>2015-12-06T02:24:46ZZ</time>
 <name><![CDATA[一の鳥居下]]></name>
</wpt>

<wpt lat="37.57981872558594" lon="140.59556579589844">
 <time>2015-12-06T02:24:46ZZ</time>
 <name><![CDATA[旧北戸沢小]]></name>
</wpt>

<wpt lat="37.56491470336914" lon="140.5782928466797">
 <time>2015-12-06T02:24:46ZZ</time>
 <name><![CDATA[下田南]]></name>
</wpt>

<wpt lat="37.55517578125" lon="140.59799194335938">
 <time>2015-12-06T02:24:46ZZ</time>
 <name><![CDATA[横里]]></name>
</wpt>

<wpt lat="37.55656814575195" lon="140.6046600341797">
 <time>2015-12-06T02:24:46ZZ</time>
 <name><![CDATA[羽山多目的施設]]></name>
</wpt>

<wpt lat="37.56058883666992" lon="140.6082305908203">
 <time>2015-12-06T02:24:46ZZ</time>
 <name><![CDATA[原]]></name>
</wpt>

<wpt lat="37.559871673583984" lon="140.5959014892578">
 <time>2015-12-06T02:24:46ZZ</time>
 <name><![CDATA[旧南戸沢小]]></name>
</wpt>

<wpt lat="37.7357177734375" lon="140.60987854003906">
 <time>2015-12-06T02:24:46ZZ</time>
 <name><![CDATA[町]]></name>
</wpt>

<wpt lat="37.51255798339844" lon="140.4012908935547">
 <time>2015-12-06T02:24:46ZZ</time>
 <name><![CDATA[上町]]></name>
</wpt>

<wpt lat="37.50885772705078" lon="140.4006805419922">
 <time>2015-12-06T02:24:46ZZ</time>
 <name><![CDATA[太郎丸]]></name>
</wpt>

<wpt lat="37.51410675048828" lon="140.39984130859375">
 <time>2015-12-06T02:24:46ZZ</time>
 <name><![CDATA[本宮駅前]]></name>
</wpt>

<wpt lat="37.50685501098633" lon="140.40440368652344">
 <time>2015-12-06T02:24:46ZZ</time>
 <name><![CDATA[福島産業前]]></name>
</wpt>

<wpt lat="37.51299285888672" lon="140.40606689453125">
 <time>2015-12-06T02:24:46ZZ</time>
 <name><![CDATA[舟場]]></name>
</wpt>

<wpt lat="37.51858139038086" lon="140.41285705566406">
 <time>2015-12-06T02:24:46ZZ</time>
 <name><![CDATA[金瀬]]></name>
</wpt>

<wpt lat="37.51299285888672" lon="140.4173583984375">
 <time>2015-12-06T02:24:46ZZ</time>
 <name><![CDATA[もとみや台入口]]></name>
</wpt>

<wpt lat="37.51297378540039" lon="140.40858459472656">
 <time>2015-12-06T02:24:46ZZ</time>
 <name><![CDATA[高木寺前]]></name>
</wpt>

<wpt lat="37.51299285888672" lon="140.4173583984375">
 <time>2015-12-06T02:24:46ZZ</time>
 <name><![CDATA[もとみや台出口]]></name>
</wpt>

<wpt lat="37.50643539428711" lon="140.41262817382812">
 <time>2015-12-06T02:24:46ZZ</time>
 <name><![CDATA[総合体育館前]]></name>
</wpt>

<wpt lat="37.506038665771484" lon="140.41136169433594">
 <time>2015-12-06T02:24:46ZZ</time>
 <name><![CDATA[高木第一集会所前]]></name>
</wpt>

<wpt lat="37.50636291503906" lon="140.40670776367188">
 <time>2015-12-06T02:24:46ZZ</time>
 <name><![CDATA[大屋敷]]></name>
</wpt>

<wpt lat="37.516273498535156" lon="140.4018096923828">
 <time>2015-12-06T02:24:46ZZ</time>
 <name><![CDATA[谷病院]]></name>
</wpt>

<wpt lat="37.51710891723633" lon="140.39634704589844">
 <time>2015-12-06T02:24:46ZZ</time>
 <name><![CDATA[えぽか（本宮市民元気いきいき応援プラザ）]]></name>
</wpt>

<wpt lat="37.51394271850586" lon="140.39390563964844">
 <time>2015-12-06T02:24:46ZZ</time>
 <name><![CDATA[本宮市役所]]></name>
</wpt>

<wpt lat="37.51904296875" lon="140.39024353027344">
 <time>2015-12-06T02:24:46ZZ</time>
 <name><![CDATA[市民プール]]></name>
</wpt>

<wpt lat="37.52050018310547" lon="140.3868408203125">
 <time>2015-12-06T02:24:46ZZ</time>
 <name><![CDATA[小幡]]></name>
</wpt>

<wpt lat="37.52149200439453" lon="140.39149475097656">
 <time>2015-12-06T02:24:46ZZ</time>
 <name><![CDATA[よしだ医院]]></name>
</wpt>

<wpt lat="37.52731704711914" lon="140.39047241210938">
 <time>2015-12-06T02:24:46ZZ</time>
 <name><![CDATA[小原田]]></name>
</wpt>

<wpt lat="37.523468017578125" lon="140.38900756835938">
 <time>2015-12-06T02:24:46ZZ</time>
 <name><![CDATA[一ツ屋]]></name>
</wpt>

<wpt lat="37.51921081542969" lon="140.4049072265625">
 <time>2015-12-06T02:24:46ZZ</time>
 <name><![CDATA[北郵便局前]]></name>
</wpt>

<wpt lat="37.530635833740234" lon="140.41104125976562">
 <time>2015-12-06T02:24:46ZZ</time>
 <name><![CDATA[もとみやクリーンセンター]]></name>
</wpt>

<wpt lat="37.52705764770508" lon="140.40330505371094">
 <time>2015-12-06T02:24:46ZZ</time>
 <name><![CDATA[堀切]]></name>
</wpt>

<wpt lat="37.52656936645508" lon="140.4033660888672">
 <time>2015-12-06T02:24:46ZZ</time>
 <name><![CDATA[関根出口]]></name>
</wpt>

<wpt lat="37.53733825683594" lon="140.4104766845703">
 <time>2015-12-06T02:24:46ZZ</time>
 <name><![CDATA[（ドリームライン）]]></name>
</wpt>

<wpt lat="37.51194763183594" lon="140.39808654785156">
 <time>2015-12-06T02:24:46ZZ</time>
 <name><![CDATA[栄田]]></name>
</wpt>

<wpt lat="37.507083892822266" lon="140.3977813720703">
 <time>2015-12-06T02:24:46ZZ</time>
 <name><![CDATA[石塚]]></name>
</wpt>

<wpt lat="37.505645751953125" lon="140.3907470703125">
 <time>2015-12-06T02:24:46ZZ</time>
 <name><![CDATA[山田]]></name>
</wpt>

<wpt lat="37.515193939208984" lon="140.37962341308594">
 <time>2015-12-06T02:24:46ZZ</time>
 <name><![CDATA[蛇ノ鼻]]></name>
</wpt>

<wpt lat="37.50899887084961" lon="140.38746643066406">
 <time>2015-12-06T02:24:46ZZ</time>
 <name><![CDATA[一本杉]]></name>
</wpt>

<wpt lat="37.51030349731445" lon="140.39224243164062">
 <time>2015-12-06T02:24:46ZZ</time>
 <name><![CDATA[誓伝寺前]]></name>
</wpt>

<wpt lat="37.509925842285156" lon="140.39895629882812">
 <time>2015-12-06T02:24:46ZZ</time>
 <name><![CDATA[花町]]></name>
</wpt>

<wpt lat="37.53905487060547" lon="140.4036102294922">
 <time>2015-12-06T02:24:46ZZ</time>
 <name><![CDATA[大山字岩ヶ作交差点]]></name>
</wpt>

<wpt lat="37.52656936645508" lon="140.4033660888672">
 <time>2015-12-06T02:24:46ZZ</time>
 <name><![CDATA[関根入口]]></name>
</wpt>

<wpt lat="37.522178649902344" lon="140.40716552734375">
 <time>2015-12-06T02:24:46ZZ</time>
 <name><![CDATA[弁天（石雲寺）]]></name>
</wpt>

<wpt lat="37.584938049316406" lon="140.69964599609375">
 <time>2015-12-06T02:24:46ZZ</time>
 <name><![CDATA[入久保]]></name>
</wpt>

<wpt lat="37.586029052734375" lon="140.6922149658203">
 <time>2015-12-06T02:24:46ZZ</time>
 <name><![CDATA[行合道]]></name>
</wpt>

<wpt lat="37.66404724121094" lon="140.60302734375">
 <time>2015-12-06T02:24:46ZZ</time>
 <name><![CDATA[川俣鉄砲町]]></name>
</wpt>

<wpt lat="37.658756256103516" lon="140.6073455810547">
 <time>2015-12-06T02:24:46ZZ</time>
 <name><![CDATA[川俣南小前]]></name>
</wpt>

<wpt lat="37.655399322509766" lon="140.6072998046875">
 <time>2015-12-06T02:24:46ZZ</time>
 <name><![CDATA[仁井町]]></name>
</wpt>

<wpt lat="37.65110397338867" lon="140.611083984375">
 <time>2015-12-06T02:24:46ZZ</time>
 <name><![CDATA[上戸ノ内]]></name>
</wpt>

<wpt lat="37.64738845825195" lon="140.61399841308594">
 <time>2015-12-06T02:24:46ZZ</time>
 <name><![CDATA[松ノ口]]></name>
</wpt>

<wpt lat="37.64577102661133" lon="140.61660766601562">
 <time>2015-12-06T02:24:46ZZ</time>
 <name><![CDATA[上ノ台]]></name>
</wpt>

<wpt lat="37.66037368774414" lon="140.60476684570312">
 <time>2015-12-06T02:24:46ZZ</time>
 <name><![CDATA[新中町]]></name>
</wpt>

<wpt lat="37.646705627441406" lon="140.62290954589844">
 <time>2015-12-06T02:24:46ZZ</time>
 <name><![CDATA[関場]]></name>
</wpt>

<wpt lat="37.643592834472656" lon="140.63009643554688">
 <time>2015-12-06T02:24:46ZZ</time>
 <name><![CDATA[泡吹地]]></name>
</wpt>

<wpt lat="37.64088821411133" lon="140.63917541503906">
 <time>2015-12-06T02:24:46ZZ</time>
 <name><![CDATA[小綱木沢]]></name>
</wpt>

<wpt lat="37.632938385009766" lon="140.640869140625">
 <time>2015-12-06T02:24:46ZZ</time>
 <name><![CDATA[上羽金]]></name>
</wpt>

<wpt lat="37.626583099365234" lon="140.64064025878906">
 <time>2015-12-06T02:24:46ZZ</time>
 <name><![CDATA[船形石]]></name>
</wpt>

<wpt lat="37.61819076538086" lon="140.64991760253906">
 <time>2015-12-06T02:24:46ZZ</time>
 <name><![CDATA[馬場平]]></name>
</wpt>

<wpt lat="37.60588073730469" lon="140.67172241210938">
 <time>2015-12-06T02:24:46ZZ</time>
 <name><![CDATA[山木屋]]></name>
</wpt>

<wpt lat="37.60105514526367" lon="140.67454528808594">
 <time>2015-12-06T02:24:46ZZ</time>
 <name><![CDATA[問屋前]]></name>
</wpt>

<wpt lat="37.59270095825195" lon="140.68788146972656">
 <time>2015-12-06T02:24:46ZZ</time>
 <name><![CDATA[菅ノ又]]></name>
</wpt>

<wpt lat="37.64216995239258" lon="140.63388061523438">
 <time>2015-12-06T02:24:46ZZ</time>
 <name><![CDATA[荷組石]]></name>
</wpt>

<wpt lat="37.622501373291016" lon="140.64547729492188">
 <time>2015-12-06T02:24:46ZZ</time>
 <name><![CDATA[管立目]]></name>
</wpt>

<wpt lat="37.613582611083984" lon="140.65646362304688">
 <time>2015-12-06T02:24:46ZZ</time>
 <name><![CDATA[細畑]]></name>
</wpt>

<wpt lat="37.60906982421875" lon="140.6608123779297">
 <time>2015-12-06T02:24:46ZZ</time>
 <name><![CDATA[寺山]]></name>
</wpt>

<wpt lat="37.599334716796875" lon="140.67831420898438">
 <time>2015-12-06T02:24:46ZZ</time>
 <name><![CDATA[房由]]></name>
</wpt>

<wpt lat="37.59762954711914" lon="140.68138122558594">
 <time>2015-12-06T02:24:46ZZ</time>
 <name><![CDATA[高屋敷]]></name>
</wpt>

<wpt lat="37.58652114868164" lon="140.7063751220703">
 <time>2015-12-06T02:24:46ZZ</time>
 <name><![CDATA[山木屋境]]></name>
</wpt>

<wpt lat="37.61125183105469" lon="140.65774536132812">
 <time>2015-12-06T02:24:46ZZ</time>
 <name><![CDATA[川弓]]></name>
</wpt>

<wpt lat="37.603248596191406" lon="140.6728057861328">
 <time>2015-12-06T02:24:46ZZ</time>
 <name><![CDATA[山木屋小学校前]]></name>
</wpt>

<wpt lat="37.5828742980957" lon="140.7186737060547">
 <time>2015-12-06T02:24:46ZZ</time>
 <name><![CDATA[山木屋水境]]></name>
</wpt>

<wpt lat="37.6630973815918" lon="140.60101318359375">
 <time>2015-12-06T02:24:46ZZ</time>
 <name><![CDATA[川俣日和田]]></name>
</wpt>

<wpt lat="37.6668701171875" lon="140.58840942382812">
 <time>2015-12-06T02:24:46ZZ</time>
 <name><![CDATA[川俣警察署前]]></name>
</wpt>

<wpt lat="37.670654296875" lon="140.57083129882812">
 <time>2015-12-06T02:24:46ZZ</time>
 <name><![CDATA[鶴沢宮前]]></name>
</wpt>

<wpt lat="37.66664505004883" lon="140.5519256591797">
 <time>2015-12-06T02:24:46ZZ</time>
 <name><![CDATA[荒屋敷]]></name>
</wpt>

<wpt lat="37.66542434692383" lon="140.54859924316406">
 <time>2015-12-06T02:24:46ZZ</time>
 <name><![CDATA[大久保学校前]]></name>
</wpt>

<wpt lat="37.66367721557617" lon="140.54750061035156">
 <time>2015-12-06T02:24:46ZZ</time>
 <name><![CDATA[大久保]]></name>
</wpt>

<wpt lat="37.66047286987305" lon="140.51133728027344">
 <time>2015-12-06T02:24:46ZZ</time>
 <name><![CDATA[水穴]]></name>
</wpt>

<wpt lat="37.662960052490234" lon="140.50531005859375">
 <time>2015-12-06T02:24:46ZZ</time>
 <name><![CDATA[阿武隈新橋]]></name>
</wpt>

<wpt lat="37.66177749633789" lon="140.50155639648438">
 <time>2015-12-06T02:24:46ZZ</time>
 <name><![CDATA[浜子]]></name>
</wpt>

<wpt lat="37.65890884399414" lon="140.4947509765625">
 <time>2015-12-06T02:24:46ZZ</time>
 <name><![CDATA[金沢入口]]></name>
</wpt>

<wpt lat="37.65571594238281" lon="140.5301971435547">
 <time>2015-12-06T02:24:46ZZ</time>
 <name><![CDATA[飯野小学校前]]></name>
</wpt>

<wpt lat="37.65735626220703" lon="140.52024841308594">
 <time>2015-12-06T02:24:46ZZ</time>
 <name><![CDATA[明治]]></name>
</wpt>

<wpt lat="37.66145324707031" lon="140.52915954589844">
 <time>2015-12-06T02:24:46ZZ</time>
 <name><![CDATA[藤柄]]></name>
</wpt>

<wpt lat="37.66542053222656" lon="140.52090454101562">
 <time>2015-12-06T02:24:46ZZ</time>
 <name><![CDATA[向平]]></name>
</wpt>

<wpt lat="37.66581726074219" lon="140.51614379882812">
 <time>2015-12-06T02:24:46ZZ</time>
 <name><![CDATA[東光寺前]]></name>
</wpt>

<wpt lat="37.65887451171875" lon="140.5441436767578">
 <time>2015-12-06T02:24:46ZZ</time>
 <name><![CDATA[境川]]></name>
</wpt>

<wpt lat="37.672725677490234" lon="140.55722045898438">
 <time>2015-12-06T02:24:46ZZ</time>
 <name><![CDATA[上大久保]]></name>
</wpt>

<wpt lat="37.66971206665039" lon="140.55484008789062">
 <time>2015-12-06T02:24:46ZZ</time>
 <name><![CDATA[竹の花]]></name>
</wpt>

<wpt lat="37.67449951171875" lon="140.56581115722656">
 <time>2015-12-06T02:24:46ZZ</time>
 <name><![CDATA[遠西]]></name>
</wpt>

<wpt lat="37.66680145263672" lon="140.57696533203125">
 <time>2015-12-06T02:24:46ZZ</time>
 <name><![CDATA[絹の里シルクピア前]]></name>
</wpt>

<wpt lat="37.66688919067383" lon="140.5819549560547">
 <time>2015-12-06T02:24:46ZZ</time>
 <name><![CDATA[堂の久保]]></name>
</wpt>

<wpt lat="37.083072662353516" lon="139.4893798828125">
 <time>2015-12-06T02:24:46ZZ</time>
 <name><![CDATA[上ノ原]]></name>
</wpt>

<wpt lat="37.06235885620117" lon="139.48524475097656">
 <time>2015-12-06T02:24:46ZZ</time>
 <name><![CDATA[木賊下]]></name>
</wpt>

<wpt lat="37.077693939208984" lon="139.4904327392578">
 <time>2015-12-06T02:24:46ZZ</time>
 <name><![CDATA[西根原]]></name>
</wpt>

<wpt lat="37.07004165649414" lon="139.48875427246094">
 <time>2015-12-06T02:24:46ZZ</time>
 <name><![CDATA[新屋敷]]></name>
</wpt>

<wpt lat="37.08966827392578" lon="139.4898681640625">
 <time>2015-12-06T02:24:46ZZ</time>
 <name><![CDATA[小高林]]></name>
</wpt>

<wpt lat="37.10041427612305" lon="139.49148559570312">
 <time>2015-12-06T02:24:46ZZ</time>
 <name><![CDATA[助木生]]></name>
</wpt>

<wpt lat="37.144615173339844" lon="139.4885711669922">
 <time>2015-12-06T02:24:46ZZ</time>
 <name><![CDATA[内川]]></name>
</wpt>

<wpt lat="37.12073516845703" lon="139.5007781982422">
 <time>2015-12-06T02:24:46ZZ</time>
 <name><![CDATA[木賊入口]]></name>
</wpt>

<wpt lat="37.11441421508789" lon="139.51669311523438">
 <time>2015-12-06T02:24:46ZZ</time>
 <name><![CDATA[塩ノ原]]></name>
</wpt>

<wpt lat="37.10368728637695" lon="139.52227783203125">
 <time>2015-12-06T02:24:46ZZ</time>
 <name><![CDATA[前沢向]]></name>
</wpt>

<wpt lat="37.11248016357422" lon="139.7186737060547">
 <time>2015-12-06T02:24:46ZZ</time>
 <name><![CDATA[早坂]]></name>
</wpt>

<wpt lat="37.1545524597168" lon="139.7992401123047">
 <time>2015-12-06T02:24:46ZZ</time>
 <name><![CDATA[栗生沢]]></name>
</wpt>

<wpt lat="37.159664154052734" lon="139.7941131591797">
 <time>2015-12-06T02:24:46ZZ</time>
 <name><![CDATA[小出原]]></name>
</wpt>

<wpt lat="37.2508544921875" lon="139.54273986816406">
 <time>2015-12-06T02:24:46ZZ</time>
 <name><![CDATA[宮床鍛冶屋前]]></name>
</wpt>

<wpt lat="37.2472038269043" lon="139.5438232421875">
 <time>2015-12-06T02:24:46ZZ</time>
 <name><![CDATA[宮床稲葉屋前]]></name>
</wpt>

<wpt lat="37.23347091674805" lon="139.54664611816406">
 <time>2015-12-06T02:24:46ZZ</time>
 <name><![CDATA[沢口]]></name>
</wpt>

<wpt lat="37.23013687133789" lon="139.54519653320312">
 <time>2015-12-06T02:24:46ZZ</time>
 <name><![CDATA[板橋]]></name>
</wpt>

<wpt lat="37.24335479736328" lon="139.54148864746094">
 <time>2015-12-06T02:24:46ZZ</time>
 <name><![CDATA[鴇巣]]></name>
</wpt>

<wpt lat="37.24100112915039" lon="139.54324340820312">
 <time>2015-12-06T02:24:46ZZ</time>
 <name><![CDATA[南郷中学校前]]></name>
</wpt>

<wpt lat="37.226131439208984" lon="139.54281616210938">
 <time>2015-12-06T02:24:46ZZ</time>
 <name><![CDATA[下山口]]></name>
</wpt>

<wpt lat="37.18879699707031" lon="139.66021728515625">
 <time>2015-12-06T02:24:46ZZ</time>
 <name><![CDATA[針生入口]]></name>
</wpt>

<wpt lat="37.195701599121094" lon="139.8063201904297">
 <time>2015-12-06T02:24:46ZZ</time>
 <name><![CDATA[上山根]]></name>
</wpt>

<wpt lat="37.201805114746094" lon="139.76893615722656">
 <time>2015-12-06T02:24:46ZZ</time>
 <name><![CDATA[合同庁舎前]]></name>
</wpt>

<wpt lat="37.20592498779297" lon="139.75946044921875">
 <time>2015-12-06T02:24:46ZZ</time>
 <name><![CDATA[南会津病院]]></name>
</wpt>

<wpt lat="37.176841735839844" lon="139.7977752685547">
 <time>2015-12-06T02:24:46ZZ</time>
 <name><![CDATA[田無沢]]></name>
</wpt>

<wpt lat="37.206478118896484" lon="139.80496215820312">
 <time>2015-12-06T02:24:46ZZ</time>
 <name><![CDATA[田部原住宅]]></name>
</wpt>

<wpt lat="37.19889450073242" lon="139.80752563476562">
 <time>2015-12-06T02:24:46ZZ</time>
 <name><![CDATA[田部]]></name>
</wpt>

<wpt lat="37.20323181152344" lon="139.765380859375">
 <time>2015-12-06T02:24:46ZZ</time>
 <name><![CDATA[西町]]></name>
</wpt>

<wpt lat="37.20137405395508" lon="139.78009033203125">
 <time>2015-12-06T02:24:46ZZ</time>
 <name><![CDATA[東町]]></name>
</wpt>

<wpt lat="37.20298767089844" lon="139.7833709716797">
 <time>2015-12-06T02:24:46ZZ</time>
 <name><![CDATA[東荒井]]></name>
</wpt>

<wpt lat="37.284671783447266" lon="139.48951721191406">
 <time>2015-12-06T02:24:46ZZ</time>
 <name><![CDATA[和泉田乙沢]]></name>
</wpt>

<wpt lat="37.27794647216797" lon="139.50828552246094">
 <time>2015-12-06T02:24:46ZZ</time>
 <name><![CDATA[和泉田福田]]></name>
</wpt>

<wpt lat="37.27400588989258" lon="139.53286743164062">
 <time>2015-12-06T02:24:46ZZ</time>
 <name><![CDATA[なかやクリニック前]]></name>
</wpt>

<wpt lat="37.26240921020508" lon="139.53924560546875">
 <time>2015-12-06T02:24:46ZZ</time>
 <name><![CDATA[界（村中）]]></name>
</wpt>

<wpt lat="37.27707290649414" lon="139.52354431152344">
 <time>2015-12-06T02:24:46ZZ</time>
 <name><![CDATA[富山]]></name>
</wpt>

<wpt lat="37.279476165771484" lon="139.51966857910156">
 <time>2015-12-06T02:24:46ZZ</time>
 <name><![CDATA[山木屋前]]></name>
</wpt>

<wpt lat="37.20064926147461" lon="139.77279663085938">
 <time>2015-12-06T02:24:46ZZ</time>
 <name><![CDATA[南会津町役場前]]></name>
</wpt>

<wpt lat="37.19552230834961" lon="139.77317810058594">
 <time>2015-12-06T02:24:46ZZ</time>
 <name><![CDATA[あたご館前]]></name>
</wpt>

<wpt lat="37.197959899902344" lon="139.77879333496094">
 <time>2015-12-06T02:24:46ZZ</time>
 <name><![CDATA[田島税務署]]></name>
</wpt>

<wpt lat="37.20350646972656" lon="139.7826690673828">
 <time>2015-12-06T02:24:46ZZ</time>
 <name><![CDATA[しまむら前]]></name>
</wpt>

<wpt lat="37.20646667480469" lon="139.7853240966797">
 <time>2015-12-06T02:24:46ZZ</time>
 <name><![CDATA[折橋]]></name>
</wpt>

<wpt lat="37.207252502441406" lon="139.78118896484375">
 <time>2015-12-06T02:24:46ZZ</time>
 <name><![CDATA[御蔵入交流館]]></name>
</wpt>

<wpt lat="37.20489501953125" lon="139.77931213378906">
 <time>2015-12-06T02:24:46ZZ</time>
 <name><![CDATA[祇園会館前]]></name>
</wpt>

<wpt lat="37.20466995239258" lon="139.77149963378906">
 <time>2015-12-06T02:24:46ZZ</time>
 <name><![CDATA[JA会津みなみ前]]></name>
</wpt>

<wpt lat="37.187583923339844" lon="139.66110229492188">
 <time>2015-12-06T02:24:46ZZ</time>
 <name><![CDATA[台鞍スキー場入口]]></name>
</wpt>

<wpt lat="37.221561431884766" lon="139.54254150390625">
 <time>2015-12-06T02:24:46ZZ</time>
 <name><![CDATA[きらら289]]></name>
</wpt>

<wpt lat="37.22286605834961" lon="139.53875732421875">
 <time>2015-12-06T02:24:46ZZ</time>
 <name><![CDATA[山口営業所]]></name>
</wpt>

<wpt lat="37.194175720214844" lon="139.5276641845703">
 <time>2015-12-06T02:24:46ZZ</time>
 <name><![CDATA[久川城址]]></name>
</wpt>

<wpt lat="37.18162536621094" lon="139.52915954589844">
 <time>2015-12-06T02:24:46ZZ</time>
 <name><![CDATA[古町温泉入口]]></name>
</wpt>

<wpt lat="37.08745193481445" lon="139.55731201171875">
 <time>2015-12-06T02:24:46ZZ</time>
 <name><![CDATA[舘岩観光案内所]]></name>
</wpt>

<wpt lat="37.090003967285156" lon="139.70233154296875">
 <time>2015-12-06T02:24:46ZZ</time>
 <name><![CDATA[会津高原尾瀬口]]></name>
</wpt>

<wpt lat="37.20242691040039" lon="139.77484130859375">
 <time>2015-12-06T02:24:46ZZ</time>
 <name><![CDATA[鴫山城址入口]]></name>
</wpt>

<wpt lat="37.12077331542969" lon="139.49998474121094">
 <time>2015-12-06T02:24:46ZZ</time>
 <name><![CDATA[穴原]]></name>
</wpt>

<wpt lat="37.09613037109375" lon="139.52874755859375">
 <time>2015-12-06T02:24:46ZZ</time>
 <name><![CDATA[福渡上]]></name>
</wpt>

<wpt lat="37.100460052490234" lon="139.52532958984375">
 <time>2015-12-06T02:24:46ZZ</time>
 <name><![CDATA[福渡下]]></name>
</wpt>

<wpt lat="37.29318618774414" lon="139.4806365966797">
 <time>2015-12-06T02:24:46ZZ</time>
 <name><![CDATA[梁取公民館前]]></name>
</wpt>

<wpt lat="37.0923957824707" lon="139.53656005859375">
 <time>2015-12-06T02:24:46ZZ</time>
 <name><![CDATA[観光センター]]></name>
</wpt>

<wpt lat="37.091190338134766" lon="139.5393829345703">
 <time>2015-12-06T02:24:46ZZ</time>
 <name><![CDATA[まつや前]]></name>
</wpt>

<wpt lat="37.05949783325195" lon="139.4818115234375">
 <time>2015-12-06T02:24:46ZZ</time>
 <name><![CDATA[木賊中]]></name>
</wpt>

<wpt lat="37.0541877746582" lon="139.47837829589844">
 <time>2015-12-06T02:24:46ZZ</time>
 <name><![CDATA[木賊上]]></name>
</wpt>

<wpt lat="37.0477294921875" lon="139.4784393310547">
 <time>2015-12-06T02:24:46ZZ</time>
 <name><![CDATA[小繋口]]></name>
</wpt>

<wpt lat="37.061500549316406" lon="139.51031494140625">
 <time>2015-12-06T02:24:46ZZ</time>
 <name><![CDATA[愛輝診療所]]></name>
</wpt>

<wpt lat="37.28257369995117" lon="139.49386596679688">
 <time>2015-12-06T02:24:46ZZ</time>
 <name><![CDATA[和泉田鉄工所前]]></name>
</wpt>

<wpt lat="37.27958679199219" lon="139.5023193359375">
 <time>2015-12-06T02:24:46ZZ</time>
 <name><![CDATA[和泉田郵便局前]]></name>
</wpt>

<wpt lat="37.27903366088867" lon="139.50607299804688">
 <time>2015-12-06T02:24:46ZZ</time>
 <name><![CDATA[和泉田谷地]]></name>
</wpt>

<wpt lat="37.27899169921875" lon="139.5127716064453">
 <time>2015-12-06T02:24:46ZZ</time>
 <name><![CDATA[下山（岩渕幸祐宅前）]]></name>
</wpt>

<wpt lat="37.2746696472168" lon="139.53128051757812">
 <time>2015-12-06T02:24:46ZZ</time>
 <name><![CDATA[ふれあいセンター前]]></name>
</wpt>

<wpt lat="37.266700744628906" lon="139.53302001953125">
 <time>2015-12-06T02:24:46ZZ</time>
 <name><![CDATA[小野島]]></name>
</wpt>

<wpt lat="37.266361236572266" lon="139.5386505126953">
 <time>2015-12-06T02:24:46ZZ</time>
 <name><![CDATA[ホテル南郷前]]></name>
</wpt>

<wpt lat="37.2645263671875" lon="139.5395050048828">
 <time>2015-12-06T02:24:46ZZ</time>
 <name><![CDATA[さゆり荘]]></name>
</wpt>

<wpt lat="37.240543365478516" lon="139.548095703125">
 <time>2015-12-06T02:24:46ZZ</time>
 <name><![CDATA[北原]]></name>
</wpt>

<wpt lat="37.224517822265625" lon="139.5412139892578">
 <time>2015-12-06T02:24:46ZZ</time>
 <name><![CDATA[山口郵便局]]></name>
</wpt>

<wpt lat="37.22182083129883" lon="139.53668212890625">
 <time>2015-12-06T02:24:46ZZ</time>
 <name><![CDATA[山口]]></name>
</wpt>

<wpt lat="37.21888732910156" lon="139.53192138671875">
 <time>2015-12-06T02:24:46ZZ</time>
 <name><![CDATA[大橋]]></name>
</wpt>

<wpt lat="37.19412612915039" lon="139.52816772460938">
 <time>2015-12-06T02:24:46ZZ</time>
 <name><![CDATA[青柳]]></name>
</wpt>

<wpt lat="37.202606201171875" lon="139.7672576904297">
 <time>2015-12-06T02:24:46ZZ</time>
 <name><![CDATA[商工会前]]></name>
</wpt>

<wpt lat="37.208011627197266" lon="139.77096557617188">
 <time>2015-12-06T02:24:46ZZ</time>
 <name><![CDATA[丹籐橋]]></name>
</wpt>

<wpt lat="37.20661544799805" lon="139.7675018310547">
 <time>2015-12-06T02:24:46ZZ</time>
 <name><![CDATA[丹籐]]></name>
</wpt>

<wpt lat="37.08698272705078" lon="139.72805786132812">
 <time>2015-12-06T02:24:46ZZ</time>
 <name><![CDATA[道の駅たじま]]></name>
</wpt>

<wpt lat="37.10145568847656" lon="139.7244110107422">
 <time>2015-12-06T02:24:46ZZ</time>
 <name><![CDATA[萩野]]></name>
</wpt>

<wpt lat="37.15787887573242" lon="139.728515625">
 <time>2015-12-06T02:24:46ZZ</time>
 <name><![CDATA[籐生寺の下]]></name>
</wpt>

<wpt lat="37.16205978393555" lon="139.7305908203125">
 <time>2015-12-06T02:24:46ZZ</time>
 <name><![CDATA[籐生センター前]]></name>
</wpt>

<wpt lat="37.19960021972656" lon="139.75765991210938">
 <time>2015-12-06T02:24:46ZZ</time>
 <name><![CDATA[永田センター前]]></name>
</wpt>

<wpt lat="37.19384765625" lon="139.7555389404297">
 <time>2015-12-06T02:24:46ZZ</time>
 <name><![CDATA[永田油屋前]]></name>
</wpt>

<wpt lat="37.18831253051758" lon="139.75259399414062">
 <time>2015-12-06T02:24:46ZZ</time>
 <name><![CDATA[永田上]]></name>
</wpt>

<wpt lat="37.175636291503906" lon="139.7410888671875">
 <time>2015-12-06T02:24:46ZZ</time>
 <name><![CDATA[小塩]]></name>
</wpt>

<wpt lat="37.14524841308594" lon="139.72787475585938">
 <time>2015-12-06T02:24:46ZZ</time>
 <name><![CDATA[上野センター前]]></name>
</wpt>

<wpt lat="37.12510299682617" lon="139.717041015625">
 <time>2015-12-06T02:24:46ZZ</time>
 <name><![CDATA[古今]]></name>
</wpt>

<wpt lat="37.066104888916016" lon="139.50543212890625">
 <time>2015-12-06T02:24:46ZZ</time>
 <name><![CDATA[唐沢峠]]></name>
</wpt>

<wpt lat="37.562442779541016" lon="140.1077117919922">
 <time>2015-12-06T02:24:46ZZ</time>
 <name><![CDATA[如風庵（バスセンター）]]></name>
</wpt>

<wpt lat="37.54692077636719" lon="140.10316467285156">
 <time>2015-12-06T02:24:46ZZ</time>
 <name><![CDATA[猪苗代駅前（観光協会前）]]></name>
</wpt>

<wpt lat="37.58428955078125" lon="140.1380615234375">
 <time>2015-12-06T02:24:46ZZ</time>
 <name><![CDATA[水沢]]></name>
</wpt>

<wpt lat="37.575801849365234" lon="140.13626098632812">
 <time>2015-12-06T02:24:46ZZ</time>
 <name><![CDATA[荻窪]]></name>
</wpt>

<wpt lat="37.57140350341797" lon="140.1353759765625">
 <time>2015-12-06T02:24:46ZZ</time>
 <name><![CDATA[志津]]></name>
</wpt>

<wpt lat="37.595638275146484" lon="140.1338348388672">
 <time>2015-12-06T02:24:46ZZ</time>
 <name><![CDATA[小水沢・白木城]]></name>
</wpt>

<wpt lat="37.580543518066406" lon="140.1372833251953">
 <time>2015-12-06T02:24:46ZZ</time>
 <name><![CDATA[牛蒡作]]></name>
</wpt>

<wpt lat="37.560367584228516" lon="140.1072235107422">
 <time>2015-12-06T02:24:46ZZ</time>
 <name><![CDATA[ITプラザ]]></name>
</wpt>

<wpt lat="37.558143615722656" lon="140.10427856445312">
 <time>2015-12-06T02:24:46ZZ</time>
 <name><![CDATA[役場]]></name>
</wpt>

<wpt lat="37.58378601074219" lon="139.748779296875">
 <time>2015-12-06T02:24:46ZZ</time>
 <name><![CDATA[杉山]]></name>
</wpt>

<wpt lat="37.57456588745117" lon="139.75015258789062">
 <time>2015-12-06T02:24:46ZZ</time>
 <name><![CDATA[天屋]]></name>
</wpt>

<wpt lat="37.579063415527344" lon="139.7691650390625">
 <time>2015-12-06T02:24:46ZZ</time>
 <name><![CDATA[舟渡]]></name>
</wpt>

<wpt lat="37.586002349853516" lon="139.80467224121094">
 <time>2015-12-06T02:24:46ZZ</time>
 <name><![CDATA[見明]]></name>
</wpt>

<wpt lat="37.5675163269043" lon="139.81210327148438">
 <time>2015-12-06T02:24:46ZZ</time>
 <name><![CDATA[坂下営業所]]></name>
</wpt>

<wpt lat="37.58039474487305" lon="139.8120880126953">
 <time>2015-12-06T02:24:46ZZ</time>
 <name><![CDATA[蛙田]]></name>
</wpt>

<wpt lat="37.57351303100586" lon="139.7998809814453">
 <time>2015-12-06T02:24:46ZZ</time>
 <name><![CDATA[塔寺立木観音]]></name>
</wpt>

<wpt lat="37.559242248535156" lon="139.8193359375">
 <time>2015-12-06T02:24:46ZZ</time>
 <name><![CDATA[坂下小学校前]]></name>
</wpt>

<wpt lat="37.605743408203125" lon="139.80752563476562">
 <time>2015-12-06T02:24:46ZZ</time>
 <name><![CDATA[津尻]]></name>
</wpt>

<wpt lat="37.63153076171875" lon="139.79586791992188">
 <time>2015-12-06T02:24:46ZZ</time>
 <name><![CDATA[袋原]]></name>
</wpt>

<wpt lat="37.6224365234375" lon="139.79440307617188">
 <time>2015-12-06T02:24:46ZZ</time>
 <name><![CDATA[長井]]></name>
</wpt>

<wpt lat="37.589622497558594" lon="139.76751708984375">
 <time>2015-12-06T02:24:46ZZ</time>
 <name><![CDATA[窪倉]]></name>
</wpt>

<wpt lat="37.58324432373047" lon="139.75949096679688">
 <time>2015-12-06T02:24:46ZZ</time>
 <name><![CDATA[洲走]]></name>
</wpt>

<wpt lat="37.58667755126953" lon="139.81124877929688">
 <time>2015-12-06T02:24:46ZZ</time>
 <name><![CDATA[大上]]></name>
</wpt>

<wpt lat="37.3980827331543" lon="139.6137237548828">
 <time>2015-12-06T02:24:46ZZ</time>
 <name><![CDATA[間方]]></name>
</wpt>

<wpt lat="37.4599494934082" lon="139.60899353027344">
 <time>2015-12-06T02:24:46ZZ</time>
 <name><![CDATA[滝原]]></name>
</wpt>

<wpt lat="37.46553039550781" lon="139.5936737060547">
 <time>2015-12-06T02:24:46ZZ</time>
 <name><![CDATA[湯の平]]></name>
</wpt>

<wpt lat="37.48439407348633" lon="139.69334411621094">
 <time>2015-12-06T02:24:46ZZ</time>
 <name><![CDATA[滝谷（内藤酒店前）]]></name>
</wpt>

<wpt lat="37.47373580932617" lon="139.64186096191406">
 <time>2015-12-06T02:24:46ZZ</time>
 <name><![CDATA[小山]]></name>
</wpt>

<wpt lat="37.48746871948242" lon="139.63778686523438">
 <time>2015-12-06T02:24:46ZZ</time>
 <name><![CDATA[大石田]]></name>
</wpt>

<wpt lat="37.46817398071289" lon="139.63360595703125">
 <time>2015-12-06T02:24:46ZZ</time>
 <name><![CDATA[高清水]]></name>
</wpt>

<wpt lat="37.454654693603516" lon="139.64791870117188">
 <time>2015-12-06T02:24:46ZZ</time>
 <name><![CDATA[大谷（鳥海）]]></name>
</wpt>

<wpt lat="37.44432067871094" lon="139.65078735351562">
 <time>2015-12-06T02:24:46ZZ</time>
 <name><![CDATA[大谷（本村）]]></name>
</wpt>

<wpt lat="37.422115325927734" lon="139.64202880859375">
 <time>2015-12-06T02:24:46ZZ</time>
 <name><![CDATA[浅岐]]></name>
</wpt>

<wpt lat="37.449371337890625" lon="139.6499786376953">
 <time>2015-12-06T02:24:46ZZ</time>
 <name><![CDATA[大谷（中際）]]></name>
</wpt>

<wpt lat="37.48808670043945" lon="139.663330078125">
 <time>2015-12-06T02:24:46ZZ</time>
 <name><![CDATA[沼田]]></name>
</wpt>

<wpt lat="37.47071838378906" lon="139.654541015625">
 <time>2015-12-06T02:24:46ZZ</time>
 <name><![CDATA[大登]]></name>
</wpt>

<wpt lat="37.481266021728516" lon="139.6614990234375">
 <time>2015-12-06T02:24:46ZZ</time>
 <name><![CDATA[名入（西方駅前）]]></name>
</wpt>

<wpt lat="37.47658157348633" lon="139.64862060546875">
 <time>2015-12-06T02:24:46ZZ</time>
 <name><![CDATA[ふるさと荘前]]></name>
</wpt>

<wpt lat="37.489742279052734" lon="139.66062927246094">
 <time>2015-12-06T02:24:46ZZ</time>
 <name><![CDATA[西方（元駐在所前）]]></name>
</wpt>

<wpt lat="37.471534729003906" lon="139.6469268798828">
 <time>2015-12-06T02:24:46ZZ</time>
 <name><![CDATA[会津宮下駅]]></name>
</wpt>

<wpt lat="37.47377395629883" lon="139.6476593017578">
 <time>2015-12-06T02:24:46ZZ</time>
 <name><![CDATA[県立宮下病院]]></name>
</wpt>

<wpt lat="37.494178771972656" lon="139.66262817382812">
 <time>2015-12-06T02:24:46ZZ</time>
 <name><![CDATA[西方（ふるさとセンター前）]]></name>
</wpt>

<wpt lat="37.47559356689453" lon="139.6605682373047">
 <time>2015-12-06T02:24:46ZZ</time>
 <name><![CDATA[川井]]></name>
</wpt>

<wpt lat="37.470970153808594" lon="139.64381408691406">
 <time>2015-12-06T02:24:46ZZ</time>
 <name><![CDATA[役場前]]></name>
</wpt>

<wpt lat="37.4658203125" lon="139.64158630371094">
 <time>2015-12-06T02:24:46ZZ</time>
 <name><![CDATA[桑原]]></name>
</wpt>

<wpt lat="37.4684944152832" lon="139.63890075683594">
 <time>2015-12-06T02:24:46ZZ</time>
 <name><![CDATA[三島中学校前]]></name>
</wpt>

<wpt lat="37.47476577758789" lon="139.6493682861328">
 <time>2015-12-06T02:24:46ZZ</time>
 <name><![CDATA[老人福祉センター前]]></name>
</wpt>

<wpt lat="37.476051330566406" lon="139.66429138183594">
 <time>2015-12-06T02:24:46ZZ</time>
 <name><![CDATA[川井（集会所前）]]></name>
</wpt>

<wpt lat="37.483856201171875" lon="139.66256713867188">
 <time>2015-12-06T02:24:46ZZ</time>
 <name><![CDATA[工芸館前]]></name>
</wpt>

<wpt lat="37.48556137084961" lon="139.6941680908203">
 <time>2015-12-06T02:24:46ZZ</time>
 <name><![CDATA[滝谷（滝谷建設車庫前）]]></name>
</wpt>

<wpt lat="37.46404266357422" lon="139.59793090820312">
 <time>2015-12-06T02:24:46ZZ</time>
 <name><![CDATA[早戸本村]]></name>
</wpt>

<wpt lat="37.46611404418945" lon="139.59344482421875">
 <time>2015-12-06T02:24:46ZZ</time>
 <name><![CDATA[早戸温泉]]></name>
</wpt>

<wpt lat="37.46307373046875" lon="139.5954132080078">
 <time>2015-12-06T02:24:46ZZ</time>
 <name><![CDATA[早戸入口]]></name>
</wpt>

<wpt lat="37.46751022338867" lon="139.64149475097656">
 <time>2015-12-06T02:24:46ZZ</time>
 <name><![CDATA[中平]]></name>
</wpt>

<wpt lat="37.45410919189453" lon="139.89096069335938">
 <time>2015-12-06T02:24:46ZZ</time>
 <name><![CDATA[町インフォメンションセンター]]></name>
</wpt>

<wpt lat="37.5111083984375" lon="139.8289337158203">
 <time>2015-12-06T02:24:46ZZ</time>
 <name><![CDATA[町役場新鶴庁舎さくらホール]]></name>
</wpt>

<wpt lat="37.45792770385742" lon="139.8379364013672">
 <time>2015-12-06T02:24:46ZZ</time>
 <name><![CDATA[まってらん処]]></name>
</wpt>

<wpt lat="37.03911209106445" lon="140.49359130859375">
 <time>2015-12-06T02:24:46ZZ</time>
 <name><![CDATA[真坂]]></name>
</wpt>

<wpt lat="37.0333251953125" lon="140.48023986816406">
 <time>2015-12-06T02:24:46ZZ</time>
 <name><![CDATA[切払]]></name>
</wpt>

<wpt lat="37.042083740234375" lon="140.45819091796875">
 <time>2015-12-06T02:24:46ZZ</time>
 <name><![CDATA[石神]]></name>
</wpt>

<wpt lat="37.04048538208008" lon="140.4510040283203">
 <time>2015-12-06T02:24:46ZZ</time>
 <name><![CDATA[火打石]]></name>
</wpt>

<wpt lat="37.02989959716797" lon="140.43690490722656">
 <time>2015-12-06T02:24:46ZZ</time>
 <name><![CDATA[山田]]></name>
</wpt>

<wpt lat="37.030906677246094" lon="140.4337615966797">
 <time>2015-12-06T02:24:46ZZ</time>
 <name><![CDATA[大草口]]></name>
</wpt>

<wpt lat="37.02643585205078" lon="140.39488220214844">
 <time>2015-12-06T02:24:46ZZ</time>
 <name><![CDATA[関口]]></name>
</wpt>

<wpt lat="37.02866744995117" lon="140.40435791015625">
 <time>2015-12-06T02:24:46ZZ</time>
 <name><![CDATA[庄司の草]]></name>
</wpt>

<wpt lat="37.02630615234375" lon="140.38632202148438">
 <time>2015-12-06T02:24:46ZZ</time>
 <name><![CDATA[宮下]]></name>
</wpt>

<wpt lat="37.03001403808594" lon="140.38442993164062">
 <time>2015-12-06T02:24:46ZZ</time>
 <name><![CDATA[城跡]]></name>
</wpt>

<wpt lat="37.0324821472168" lon="140.4854736328125">
 <time>2015-12-06T02:24:46ZZ</time>
 <name><![CDATA[寅卯平]]></name>
</wpt>

<wpt lat="37.03752899169922" lon="140.4729461669922">
 <time>2015-12-06T02:24:46ZZ</time>
 <name><![CDATA[猿子]]></name>
</wpt>

<wpt lat="37.02838897705078" lon="140.42518615722656">
 <time>2015-12-06T02:24:46ZZ</time>
 <name><![CDATA[岡田口]]></name>
</wpt>

<wpt lat="37.03178024291992" lon="140.44210815429688">
 <time>2015-12-06T02:24:46ZZ</time>
 <name><![CDATA[富田口]]></name>
</wpt>

<wpt lat="37.026248931884766" lon="140.390869140625">
 <time>2015-12-06T02:24:46ZZ</time>
 <name><![CDATA[鷹匠町]]></name>
</wpt>

<wpt lat="37.03487014770508" lon="140.3834991455078">
 <time>2015-12-06T02:24:46ZZ</time>
 <name><![CDATA[磐城棚倉駅]]></name>
</wpt>

<wpt lat="37.04231643676758" lon="140.50173950195312">
 <time>2015-12-06T02:24:46ZZ</time>
 <name><![CDATA[高校前]]></name>
</wpt>

<wpt lat="37.042015075683594" lon="140.50942993164062">
 <time>2015-12-06T02:24:46ZZ</time>
 <name><![CDATA[役場]]></name>
</wpt>

<wpt lat="37.03705978393555" lon="140.51080322265625">
 <time>2015-12-06T02:24:46ZZ</time>
 <name><![CDATA[広畑]]></name>
</wpt>

<wpt lat="37.03849411010742" lon="140.49717712402344">
 <time>2015-12-06T02:24:46ZZ</time>
 <name><![CDATA[湯川口]]></name>
</wpt>

<wpt lat="37.04042053222656" lon="140.50949096679688">
 <time>2015-12-06T02:24:46ZZ</time>
 <name><![CDATA[保健センター]]></name>
</wpt>

<wpt lat="37.045345306396484" lon="140.508544921875">
 <time>2015-12-06T02:24:46ZZ</time>
 <name><![CDATA[図書館前]]></name>
</wpt>

<wpt lat="37.02291488647461" lon="140.3892364501953">
 <time>2015-12-06T02:24:46ZZ</time>
 <name><![CDATA[修明高校前]]></name>
</wpt>

<wpt lat="37.03329849243164" lon="140.3826446533203">
 <time>2015-12-06T02:24:46ZZ</time>
 <name><![CDATA[町裏]]></name>
</wpt>

<wpt lat="37.425479888916016" lon="140.48736572265625">
 <time>2015-12-06T02:24:46ZZ</time>
 <name><![CDATA[貝山集会所入口]]></name>
</wpt>

<wpt lat="37.42274475097656" lon="140.48556518554688">
 <time>2015-12-06T02:24:46ZZ</time>
 <name><![CDATA[井堀田]]></name>
</wpt>

<wpt lat="37.43004608154297" lon="140.48947143554688">
 <time>2015-12-06T02:24:46ZZ</time>
 <name><![CDATA[町営グラウンド]]></name>
</wpt>

<wpt lat="37.432151794433594" lon="140.4896240234375">
 <time>2015-12-06T02:24:46ZZ</time>
 <name><![CDATA[泉沢]]></name>
</wpt>

<wpt lat="37.43156814575195" lon="140.496337890625">
 <time>2015-12-06T02:24:46ZZ</time>
 <name><![CDATA[楽内]]></name>
</wpt>

<wpt lat="37.425514221191406" lon="140.4644317626953">
 <time>2015-12-06T02:24:46ZZ</time>
 <name><![CDATA[薬師堂]]></name>
</wpt>

<wpt lat="37.43055725097656" lon="140.4756622314453">
 <time>2015-12-06T02:24:46ZZ</time>
 <name><![CDATA[古内入口]]></name>
</wpt>

<wpt lat="37.43550491333008" lon="140.4900665283203">
 <time>2015-12-06T02:24:46ZZ</time>
 <name><![CDATA[馬場の湯]]></name>
</wpt>

<wpt lat="37.43624496459961" lon="140.4856414794922">
 <time>2015-12-06T02:24:46ZZ</time>
 <name><![CDATA[岩田]]></name>
</wpt>

<wpt lat="37.43531036376953" lon="140.47915649414062">
 <time>2015-12-06T02:24:46ZZ</time>
 <name><![CDATA[沼倉団地入口]]></name>
</wpt>

<wpt lat="37.44047546386719" lon="140.48194885253906">
 <time>2015-12-06T02:24:46ZZ</time>
 <name><![CDATA[広場]]></name>
</wpt>

<wpt lat="37.439544677734375" lon="140.4831085205078">
 <time>2015-12-06T02:24:46ZZ</time>
 <name><![CDATA[雁木田]]></name>
</wpt>

<wpt lat="37.44010925292969" lon="140.48582458496094">
 <time>2015-12-06T02:24:46ZZ</time>
 <name><![CDATA[大神宮入口]]></name>
</wpt>

<wpt lat="37.44173812866211" lon="140.48849487304688">
 <time>2015-12-06T02:24:46ZZ</time>
 <name><![CDATA[中町]]></name>
</wpt>

<wpt lat="37.442291259765625" lon="140.49000549316406">
 <time>2015-12-06T02:24:46ZZ</time>
 <name><![CDATA[中央大町]]></name>
</wpt>

<wpt lat="37.440303802490234" lon="140.4944305419922">
 <time>2015-12-06T02:24:46ZZ</time>
 <name><![CDATA[保健センター]]></name>
</wpt>

<wpt lat="37.44414520263672" lon="140.49285888671875">
 <time>2015-12-06T02:24:46ZZ</time>
 <name><![CDATA[北町]]></name>
</wpt>

<wpt lat="37.44892883300781" lon="140.48667907714844">
 <time>2015-12-06T02:24:46ZZ</time>
 <name><![CDATA[四反田]]></name>
</wpt>

<wpt lat="37.45341491699219" lon="140.48846435546875">
 <time>2015-12-06T02:24:46ZZ</time>
 <name><![CDATA[樋ノ口]]></name>
</wpt>

<wpt lat="37.45561599731445" lon="140.4861297607422">
 <time>2015-12-06T02:24:46ZZ</time>
 <name><![CDATA[御木沢小学校]]></name>
</wpt>

<wpt lat="37.4571533203125" lon="140.4858856201172">
 <time>2015-12-06T02:24:46ZZ</time>
 <name><![CDATA[深田和団地]]></name>
</wpt>

<wpt lat="37.44692611694336" lon="140.48565673828125">
 <time>2015-12-06T02:24:46ZZ</time>
 <name><![CDATA[八島台1丁目]]></name>
</wpt>