<?xml version="1.0" encoding="UTF-8"?>
<kml xmlns="http://www.opengis.net/kml/2.2">
<Document>
<name><![CDATA[バス停 : 香川]]></name>
<Folder>
<name>Placemarks</name>
<Placemark>
<name>櫃石島</name>
<description></description>
<Point>
<coordinates>133.8031005859375,34.42020034790039,0</coordinates>
</Point>
</Placemark>
<Placemark>
<name>櫃石小学校</name>
<description></description>
<Point>
<coordinates>133.8071746826172,34.42053985595703,0</coordinates>
</Point>
</Placemark>
<Placemark>
<name>櫃石</name>
<description></description>
<Point>
<coordinates>133.80743408203125,34.423004150390625,0</coordinates>
</Point>
</Placemark>
<Placemark>
<name>岩黒島</name>
<description></description>
<Point>
<coordinates>133.808349609375,34.40561294555664,0</coordinates>
</Point>
</Placemark>
<Placemark>
<name>与島</name>
<description></description>
<Point>
<coordinates>133.81629943847656,34.387245178222656,0</coordinates>
</Point>
</Placemark>
<Placemark>
<name>塩浜</name>
<description></description>
<Point>
<coordinates>133.81838989257812,34.38871765136719,0</coordinates>
</Point>
</Placemark>
<Placemark>
<name>瀬戸大橋FW前</name>
<description></description>
<Point>
<coordinates>133.81777954101562,34.392127990722656,0</coordinates>
</Point>
</Placemark>
<Placemark>
<name>ゆめタウン高松</name>
<description></description>
<Point>
<coordinates>134.03839111328125,34.31540298461914,0</coordinates>
</Point>
</Placemark>
<Placemark>
<name>坂出IBT</name>
<description></description>
<Point>
<coordinates>133.83749389648438,34.29549789428711,0</coordinates>
</Point>
</Placemark>
<Placemark>
<name>坂出インターバスターミナル</name>
<description></description>
<Point>
<coordinates>133.84042358398438,34.29714584350586,0</coordinates>
</Point>
</Placemark>
<Placemark>
<name>高松中央インターバスターミナル</name>
<description></description>
<Point>
<coordinates>134.07334899902344,34.3070182800293,0</coordinates>
</Point>
</Placemark>
<Placemark>
<name>県庁通り</name>
<description></description>
<Point>
<coordinates>134.047607421875,34.34010314941406,0</coordinates>
</Point>
</Placemark>
<Placemark>
<name>坂出インターバスターミナル</name>
<description></description>
<Point>
<coordinates>133.83786010742188,34.29579544067383,0</coordinates>
</Point>
</Placemark>
<Placemark>
<name>高松中央BT</name>
<description></description>
<Point>
<coordinates>134.07334899902344,34.30653381347656,0</coordinates>
</Point>
</Placemark>
<Placemark>
<name>坂出IC</name>
<description></description>
<Point>
<coordinates>133.83786010742188,34.29579544067383,0</coordinates>
</Point>
</Placemark>
<Placemark>
<name>善通寺IC</name>
<description></description>
<Point>
<coordinates>133.79006958007812,34.24628829956055,0</coordinates>
</Point>
</Placemark>
<Placemark>
<name>坂元東</name>
<description></description>
<Point>
<coordinates>134.43179321289062,34.2089729309082,0</coordinates>
</Point>
</Placemark>
<Placemark>
<name>坂元西</name>
<description></description>
<Point>
<coordinates>134.42904663085938,34.21048355102539,0</coordinates>
</Point>
</Placemark>
<Placemark>
<name>相生</name>
<description></description>
<Point>
<coordinates>134.4248809814453,34.21279525756836,0</coordinates>
</Point>
</Placemark>
<Placemark>
<name>馬宿東</name>
<description></description>
<Point>
<coordinates>134.4205322265625,34.215396881103516,0</coordinates>
</Point>
</Placemark>
<Placemark>
<name>馬宿</name>
<description></description>
<Point>
<coordinates>134.41725158691406,34.21766662597656,0</coordinates>
</Point>
</Placemark>
<Placemark>
<name>大川橋</name>
<description></description>
<Point>
<coordinates>134.4132537841797,34.21995544433594,0</coordinates>
</Point>
</Placemark>
<Placemark>
<name>引田東</name>
<description></description>
<Point>
<coordinates>134.40765380859375,34.222557067871094,0</coordinates>
</Point>
</Placemark>
<Placemark>
<name>引田庁舎前</name>
<description></description>
<Point>
<coordinates>134.40444946289062,34.22389602661133,0</coordinates>
</Point>
</Placemark>
<Placemark>
<name>引田駅前</name>
<description></description>
<Point>
<coordinates>134.40133666992188,34.22492599487305,0</coordinates>
</Point>
</Placemark>
<Placemark>
<name>翼山温泉</name>
<description></description>
<Point>
<coordinates>134.393310546875,34.217384338378906,0</coordinates>
</Point>
</Placemark>
<Placemark>
<name>高松中央IC</name>
<description></description>
<Point>
<coordinates>134.07334899902344,34.30653381347656,0</coordinates>
</Point>
</Placemark>
<Placemark>
<name>ゆめタウン</name>
<description></description>
<Point>
<coordinates>134.0386199951172,34.31592559814453,0</coordinates>
</Point>
</Placemark>
<Placemark>
<name>栗林公園</name>
<description></description>
<Point>
<coordinates>134.04608154296875,34.32967758178711,0</coordinates>
</Point>
</Placemark>
<Placemark>
<name>塩江新温泉</name>
<description></description>
<Point>
<coordinates>134.08290100097656,34.17394256591797,0</coordinates>
</Point>
</Placemark>
<Placemark>
<name>湯元塩江温泉</name>
<description></description>
<Point>
<coordinates>134.08514404296875,34.16862106323242,0</coordinates>
</Point>
</Placemark>
<Placemark>
<name>上落合</name>
<description></description>
<Point>
<coordinates>134.0947723388672,34.17074966430664,0</coordinates>
</Point>
</Placemark>
<Placemark>
<name>中下所</name>
<description></description>
<Point>
<coordinates>134.10581970214844,34.17026138305664,0</coordinates>
</Point>
</Placemark>
<Placemark>
<name>柞野</name>
<description></description>
<Point>
<coordinates>134.1120147705078,34.17012023925781,0</coordinates>
</Point>
</Placemark>
<Placemark>
<name>小蓑</name>
<description></description>
<Point>
<coordinates>134.12075805664062,34.17312240600586,0</coordinates>
</Point>
</Placemark>
<Placemark>
<name>堂ケ平</name>
<description></description>
<Point>
<coordinates>134.13381958007812,34.17169952392578,0</coordinates>
</Point>
</Placemark>
<Placemark>
<name>津柳口</name>
<description></description>
<Point>
<coordinates>134.1413116455078,34.1714973449707,0</coordinates>
</Point>
</Placemark>
<Placemark>
<name>長谷</name>
<description></description>
<Point>
<coordinates>134.15196228027344,34.166770935058594,0</coordinates>
</Point>
</Placemark>
<Placemark>
<name>菅沢</name>
<description></description>
<Point>
<coordinates>134.0970458984375,34.193359375,0</coordinates>
</Point>
</Placemark>
<Placemark>
<name>小田</name>
<description></description>
<Point>
<coordinates>134.0841064453125,34.1883659362793,0</coordinates>
</Point>
</Placemark>
<Placemark>
<name>塩江中</name>
<description></description>
<Point>
<coordinates>134.0731658935547,34.18211364746094,0</coordinates>
</Point>
</Placemark>
<Placemark>
<name>塩江病院</name>
<description></description>
<Point>
<coordinates>134.08042907714844,34.17146301269531,0</coordinates>
</Point>
</Placemark>
<Placemark>
<name>塩江</name>
<description></description>
<Point>
<coordinates>134.08221435546875,34.17015075683594,0</coordinates>
</Point>
</Placemark>
<Placemark>
<name>中筋</name>
<description></description>
<Point>
<coordinates>134.0994873046875,34.16046905517578,0</coordinates>
</Point>
</Placemark>
<Placemark>
<name>上地</name>
<description></description>
<Point>
<coordinates>134.10345458984375,34.15774154663086,0</coordinates>
</Point>
</Placemark>
<Placemark>
<name>さぬき温泉</name>
<description></description>
<Point>
<coordinates>134.10365295410156,34.155277252197266,0</coordinates>
</Point>
</Placemark>
<Placemark>
<name>城原</name>
<description></description>
<Point>
<coordinates>134.07130432128906,34.16059112548828,0</coordinates>
</Point>
</Placemark>
<Placemark>
<name>上西小学校前</name>
<description></description>
<Point>
<coordinates>134.07614135742188,34.15273666381836,0</coordinates>
</Point>
</Placemark>
<Placemark>
<name>焼堂下</name>
<description></description>
<Point>
<coordinates>134.07937622070312,34.14571762084961,0</coordinates>
</Point>
</Placemark>
<Placemark>
<name>物言川</name>
<description></description>
<Point>
<coordinates>134.07647705078125,34.14237594604492,0</coordinates>
</Point>
</Placemark>
<Placemark>
<name>一ツ内</name>
<description></description>
<Point>
<coordinates>134.0760498046875,34.13600158691406,0</coordinates>
</Point>
</Placemark>
<Placemark>
<name>奥の湯温泉</name>
<description></description>
<Point>
<coordinates>134.07476806640625,34.12985610961914,0</coordinates>
</Point>
</Placemark>
<Placemark>
<name>松尾</name>
<description></description>
<Point>
<coordinates>134.0735626220703,34.1212158203125,0</coordinates>
</Point>
</Placemark>
<Placemark>
<name>大屋敷橋</name>
<description></description>
<Point>
<coordinates>134.10379028320312,34.122840881347656,0</coordinates>
</Point>
</Placemark>
<Placemark>
<name>空港通り駅</name>
<description></description>
<Point>
<coordinates>134.0330810546875,34.28098678588867,0</coordinates>
</Point>
</Placemark>
<Placemark>
<name>ウイングポート</name>
<description></description>
<Point>
<coordinates>134.02774047851562,34.26353073120117,0</coordinates>
</Point>
</Placemark>
<Placemark>
<name>総合体育館前</name>
<description></description>
<Point>
<coordinates>134.02902221679688,34.25564193725586,0</coordinates>
</Point>
</Placemark>
<Placemark>
<name>香川第一中学校前</name>
<description></description>
<Point>
<coordinates>134.03384399414062,34.2542839050293,0</coordinates>
</Point>
</Placemark>
<Placemark>
<name>香川病院前</name>
<description></description>
<Point>
<coordinates>134.0335235595703,34.249778747558594,0</coordinates>
</Point>
</Placemark>
<Placemark>
<name>竜満池</name>
<description></description>
<Point>
<coordinates>134.0319366455078,34.24447250366211,0</coordinates>
</Point>
</Placemark>
<Placemark>
<name>支所前</name>
<description></description>
<Point>
<coordinates>134.03416442871094,34.24095153808594,0</coordinates>
</Point>
</Placemark>
<Placemark>
<name>川東</name>
<description></description>
<Point>
<coordinates>134.03326416015625,34.2396354675293,0</coordinates>
</Point>
</Placemark>
<Placemark>
<name>上川東</name>
<description></description>
<Point>
<coordinates>134.03436279296875,34.23624801635742,0</coordinates>
</Point>
</Placemark>
<Placemark>
<name>JA香川支店前</name>
<description></description>
<Point>
<coordinates>134.03439331054688,34.23246765136719,0</coordinates>
</Point>
</Placemark>
<Placemark>
<name>日生ニュータウン北</name>
<description></description>
<Point>
<coordinates>134.0382843017578,34.228702545166016,0</coordinates>
</Point>
</Placemark>
<Placemark>
<name>日生ニュータウン</name>
<description></description>
<Point>
<coordinates>134.03933715820312,34.22737503051758,0</coordinates>
</Point>
</Placemark>
<Placemark>
<name>日生ニュータウン南</name>
<description></description>
<Point>
<coordinates>134.04005432128906,34.22496795654297,0</coordinates>
</Point>
</Placemark>
<Placemark>
<name>川添温泉口</name>
<description></description>
<Point>
<coordinates>134.04705810546875,34.21846008300781,0</coordinates>
</Point>
</Placemark>
<Placemark>
<name>向坂</name>
<description></description>
<Point>
<coordinates>134.05035400390625,34.215797424316406,0</coordinates>
</Point>
</Placemark>
<Placemark>
<name>下谷</name>
<description></description>
<Point>
<coordinates>134.053466796875,34.21078872680664,0</coordinates>
</Point>
</Placemark>
<Placemark>
<name>天神</name>
<description></description>
<Point>
<coordinates>134.0700225830078,34.209163665771484,0</coordinates>
</Point>
</Placemark>
<Placemark>
<name>東谷</name>
<description></description>
<Point>
<coordinates>134.06227111816406,34.20439910888672,0</coordinates>
</Point>
</Placemark>
<Placemark>
<name>田渡池</name>
<description></description>
<Point>
<coordinates>134.0390625,34.212158203125,0</coordinates>
</Point>
</Placemark>
<Placemark>
<name>川上</name>
<description></description>
<Point>
<coordinates>134.03358459472656,34.214412689208984,0</coordinates>
</Point>
</Placemark>
<Placemark>
<name>鮎滝</name>
<description></description>
<Point>
<coordinates>134.0325469970703,34.212921142578125,0</coordinates>
</Point>
</Placemark>
<Placemark>
<name>下倉峠</name>
<description></description>
<Point>
<coordinates>134.02120971679688,34.21054458618164,0</coordinates>
</Point>
</Placemark>
<Placemark>
<name>下倉</name>
<description></description>
<Point>
<coordinates>134.01605224609375,34.208335876464844,0</coordinates>
</Point>
</Placemark>
<Placemark>
<name>はくちょう温泉</name>
<description></description>
<Point>
<coordinates>133.95079040527344,34.271324157714844,0</coordinates>
</Point>
</Placemark>
<Placemark>
<name>橘ノ丘総合運動公園</name>
<description></description>
<Point>
<coordinates>133.95150756835938,34.273380279541016,0</coordinates>
</Point>
</Placemark>
<Placemark>
<name>なかまの里</name>
<description></description>
<Point>
<coordinates>133.9560089111328,34.2752685546875,0</coordinates>
</Point>
</Placemark>
<Placemark>
<name>橘</name>
<description></description>
<Point>
<coordinates>133.95205688476562,34.27634811401367,0</coordinates>
</Point>
</Placemark>
<Placemark>
<name>石船</name>
<description></description>
<Point>
<coordinates>133.95144653320312,34.2821159362793,0</coordinates>
</Point>
</Placemark>
<Placemark>
<name>内間</name>
<description></description>
<Point>
<coordinates>133.94969177246094,34.28683090209961,0</coordinates>
</Point>
</Placemark>
<Placemark>
<name>県営団地西口</name>
<description></description>
<Point>
<coordinates>133.95181274414062,34.29130935668945,0</coordinates>
</Point>
</Placemark>
<Placemark>
<name>西原</name>
<description></description>
<Point>
<coordinates>133.95333862304688,34.29424285888672,0</coordinates>
</Point>
</Placemark>
<Placemark>
<name>野間</name>
<description></description>
<Point>
<coordinates>133.95440673828125,34.29650115966797,0</coordinates>
</Point>
</Placemark>
<Placemark>
<name>朝日段ボール前</name>
<description></description>
<Point>
<coordinates>133.95602416992188,34.299842834472656,0</coordinates>
</Point>
</Placemark>
<Placemark>
<name>東山</name>
<description></description>
<Point>
<coordinates>133.95790100097656,34.30278015136719,0</coordinates>
</Point>
</Placemark>
<Placemark>
<name>北部公民館前</name>
<description></description>
<Point>
<coordinates>133.9623565673828,34.304603576660156,0</coordinates>
</Point>
</Placemark>
<Placemark>
<name>端岡駅前</name>
<description></description>
<Point>
<coordinates>133.9678497314453,34.3060188293457,0</coordinates>
</Point>
</Placemark>
<Placemark>
<name>マルヨシセンター前</name>
<description></description>
<Point>
<coordinates>133.96063232421875,34.300376892089844,0</coordinates>
</Point>
</Placemark>
<Placemark>
<name>国分寺支所前</name>
<description></description>
<Point>
<coordinates>133.96078491210938,34.29714584350586,0</coordinates>
</Point>
</Placemark>
<Placemark>
<name>北川向</name>
<description></description>
<Point>
<coordinates>133.96090698242188,34.2948112487793,0</coordinates>
</Point>
</Placemark>
<Placemark>
<name>南川</name>
<description></description>
<Point>
<coordinates>133.96121215820312,34.291046142578125,0</coordinates>
</Point>
</Placemark>
<Placemark>
<name>川辺</name>
<description></description>
<Point>
<coordinates>133.96205139160156,34.2882194519043,0</coordinates>
</Point>
</Placemark>
<Placemark>
<name>南部小学校前</name>
<description></description>
<Point>
<coordinates>133.96266174316406,34.28384017944336,0</coordinates>
</Point>
</Placemark>
<Placemark>
<name>中福家南</name>
<description></description>
<Point>
<coordinates>133.9662322998047,34.281028747558594,0</coordinates>
</Point>
</Placemark>
<Placemark>
<name>北谷</name>
<description></description>
<Point>
<coordinates>133.96864318847656,34.27867126464844,0</coordinates>
</Point>
</Placemark>
<Placemark>
<name>本村</name>
<description></description>
<Point>
<coordinates>133.97073364257812,34.27412414550781,0</coordinates>
</Point>
</Placemark>
<Placemark>
<name>石ヶ鼻</name>
<description></description>
<Point>
<coordinates>133.9748992919922,34.27224349975586,0</coordinates>
</Point>
</Placemark>
<Placemark>
<name>石ヶ鼻団地入口</name>
<description></description>
<Point>
<coordinates>133.98077392578125,34.27037811279297,0</coordinates>
</Point>
</Placemark>
<Placemark>
<name>岡本駅前</name>
<description></description>
<Point>
<coordinates>133.98936462402344,34.27053451538086,0</coordinates>
</Point>
</Placemark>
<Placemark>
<name>相生</name>
<description></description>
<Point>
<coordinates>133.98492431640625,34.2679443359375,0</coordinates>
</Point>
</Placemark>
<Placemark>
<name>川田</name>
<description></description>
<Point>
<coordinates>133.95689392089844,34.282684326171875,0</coordinates>
</Point>
</Placemark>
<Placemark>
<name>新居西下所</name>
<description></description>
<Point>
<coordinates>133.9671173095703,34.30106735229492,0</coordinates>
</Point>
</Placemark>
<Placemark>
<name>ダイヤパレス前</name>
<description></description>
<Point>
<coordinates>133.9712371826172,34.303096771240234,0</coordinates>
</Point>
</Placemark>
<Placemark>
<name>新居東下所</name>
<description></description>
<Point>
<coordinates>133.97463989257812,34.30476760864258,0</coordinates>
</Point>
</Placemark>
<Placemark>
<name>県営プール前</name>
<description></description>
<Point>
<coordinates>133.98162841796875,34.30862045288086,0</coordinates>
</Point>
</Placemark>
<Placemark>
<name>小掛</name>
<description></description>
<Point>
<coordinates>133.979736328125,34.310768127441406,0</coordinates>
</Point>
</Placemark>
<Placemark>
<name>東大谷</name>
<description></description>
<Point>
<coordinates>133.9775848388672,34.30967330932617,0</coordinates>
</Point>
</Placemark>
<Placemark>
<name>西大谷</name>
<description></description>
<Point>
<coordinates>133.97279357910156,34.306827545166016,0</coordinates>
</Point>
</Placemark>
<Placemark>
<name>里</name>
<description></description>
<Point>
<coordinates>133.95208740234375,34.30198669433594,0</coordinates>
</Point>
</Placemark>
<Placemark>
<name>国分八幡前</name>
<description></description>
<Point>
<coordinates>133.948974609375,34.30168914794922,0</coordinates>
</Point>
</Placemark>
<Placemark>
<name>馬場</name>
<description></description>
<Point>
<coordinates>133.9449920654297,34.301273345947266,0</coordinates>
</Point>
</Placemark>
<Placemark>
<name>国分駅前</name>
<description></description>
<Point>
<coordinates>133.9419708251953,34.30097198486328,0</coordinates>
</Point>
</Placemark>
<Placemark>
<name>国分寺郵便局前</name>
<description></description>
<Point>
<coordinates>133.96240234375,34.29879379272461,0</coordinates>
</Point>
</Placemark>
<Placemark>
<name>ことでん仏生山駅</name>
<description></description>
<Point>
<coordinates>134.04287719726562,34.28354263305664,0</coordinates>
</Point>
</Placemark>
<Placemark>
<name>百相ケ丘団地</name>
<description></description>
<Point>
<coordinates>134.04061889648438,34.27865219116211,0</coordinates>
</Point>
</Placemark>
<Placemark>
<name>神宮寺南</name>
<description></description>
<Point>
<coordinates>134.0380096435547,34.273494720458984,0</coordinates>
</Point>
</Placemark>
<Placemark>
<name>東舟岡下</name>
<description></description>
<Point>
<coordinates>134.03660583496094,34.269935607910156,0</coordinates>
</Point>
</Placemark>
<Placemark>
<name>五端子</name>
<description></description>
<Point>
<coordinates>134.03652954101562,34.266868591308594,0</coordinates>
</Point>
</Placemark>
<Placemark>
<name>久保下</name>
<description></description>
<Point>
<coordinates>134.03646850585938,34.263309478759766,0</coordinates>
</Point>
</Placemark>
<Placemark>
<name>上浅野</name>
<description></description>
<Point>
<coordinates>134.03623962402344,34.259037017822266,0</coordinates>
</Point>
</Placemark>
<Placemark>
<name>市宮池</name>
<description></description>
<Point>
<coordinates>134.0390167236328,34.258846282958984,0</coordinates>
</Point>
</Placemark>
<Placemark>
<name>宮の前</name>
<description></description>
<Point>
<coordinates>134.0431671142578,34.25825500488281,0</coordinates>
</Point>
</Placemark>
<Placemark>
<name>下坂下</name>
<description></description>
<Point>
<coordinates>134.0453643798828,34.25687026977539,0</coordinates>
</Point>
</Placemark>
<Placemark>
<name>坂下</name>
<description></description>
<Point>
<coordinates>134.04586791992188,34.2541389465332,0</coordinates>
</Point>
</Placemark>
<Placemark>
<name>道端</name>
<description></description>
<Point>
<coordinates>134.0472412109375,34.25309753417969,0</coordinates>
</Point>
</Placemark>
<Placemark>
<name>道端上</name>
<description></description>
<Point>
<coordinates>134.0467529296875,34.250553131103516,0</coordinates>
</Point>
</Placemark>
<Placemark>
<name>赤坂下</name>
<description></description>
<Point>
<coordinates>134.04522705078125,34.2479362487793,0</coordinates>
</Point>
</Placemark>
<Placemark>
<name>丸山</name>
<description></description>
<Point>
<coordinates>134.04461669921875,34.24454879760742,0</coordinates>
</Point>
</Placemark>
<Placemark>
<name>台目</name>
<description></description>
<Point>
<coordinates>134.044921875,34.243133544921875,0</coordinates>
</Point>
</Placemark>
<Placemark>
<name>油山</name>
<description></description>
<Point>
<coordinates>134.03904724121094,34.24211502075195,0</coordinates>
</Point>
</Placemark>
<Placemark>
<name>香川支所</name>
<description></description>
<Point>
<coordinates>134.03416442871094,34.24095153808594,0</coordinates>
</Point>
</Placemark>
<Placemark>
<name>本町</name>
<description></description>
<Point>
<coordinates>134.03207397460938,34.24007797241211,0</coordinates>
</Point>
</Placemark>
<Placemark>
<name>長神・キョーエイ空港店</name>
<description></description>
<Point>
<coordinates>134.0289764404297,34.23982620239258,0</coordinates>
</Point>
</Placemark>
<Placemark>
<name>香南歴史民俗郷土館</name>
<description></description>
<Point>
<coordinates>134.0213165283203,34.238929748535156,0</coordinates>
</Point>
</Placemark>
<Placemark>
<name>大溝</name>
<description></description>
<Point>
<coordinates>134.0156707763672,34.238929748535156,0</coordinates>
</Point>
</Placemark>
<Placemark>
<name>香南支所</name>
<description></description>
<Point>
<coordinates>134.01292419433594,34.23936080932617,0</coordinates>
</Point>
</Placemark>
<Placemark>
<name>香南小学校前</name>
<description></description>
<Point>
<coordinates>134.00839233398438,34.24007797241211,0</coordinates>
</Point>
</Placemark>
<Placemark>
<name>香南楽湯</name>
<description></description>
<Point>
<coordinates>134.0067596435547,34.239410400390625,0</coordinates>
</Point>
</Placemark>
<Placemark>
<name>南原</name>
<description></description>
<Point>
<coordinates>134.00299072265625,34.241233825683594,0</coordinates>
</Point>
</Placemark>
<Placemark>
<name>池西</name>
<description></description>
<Point>
<coordinates>133.9993438720703,34.241573333740234,0</coordinates>
</Point>
</Placemark>
<Placemark>
<name>池西支所</name>
<description></description>
<Point>
<coordinates>134.0003662109375,34.244384765625,0</coordinates>
</Point>
</Placemark>
<Placemark>
<name>宇多津ビブレ前</name>
<description></description>
<Point>
<coordinates>133.8108673095703,34.30922317504883,0</coordinates>
</Point>
</Placemark>
<Placemark>
<name>新聞放送会館前</name>
<description></description>
<Point>
<coordinates>133.8050537109375,34.30186462402344,0</coordinates>
</Point>
</Placemark>
<Placemark>
<name>競艇場口</name>
<description></description>
<Point>
<coordinates>133.80047607421875,34.29964065551758,0</coordinates>
</Point>
</Placemark>
<Placemark>
<name>オークラホテル前</name>
<description></description>
<Point>
<coordinates>133.7940673828125,34.307376861572266,0</coordinates>
</Point>
</Placemark>
<Placemark>
<name>丸亀港</name>
<description></description>
<Point>
<coordinates>133.79042053222656,34.29481506347656,0</coordinates>
</Point>
</Placemark>
<Placemark>
<name>丸亀駅</name>
<description></description>
<Point>
<coordinates>133.7937774658203,34.291954040527344,0</coordinates>
</Point>
</Placemark>
<Placemark>
<name>丸亀通町</name>
<description></description>
<Point>
<coordinates>133.79637145996094,34.289615631103516,0</coordinates>
</Point>
</Placemark>
<Placemark>
<name>丸亀城前</name>
<description></description>
<Point>
<coordinates>133.80198669433594,34.28883743286133,0</coordinates>
</Point>
</Placemark>
<Placemark>
<name>労災病院</name>
<description></description>
<Point>
<coordinates>133.8042449951172,34.28875732421875,0</coordinates>
</Point>
</Placemark>
<Placemark>
<name>番丁</name>
<description></description>
<Point>
<coordinates>133.80117797851562,34.28313446044922,0</coordinates>
</Point>
</Placemark>
<Placemark>
<name>山北八幡</name>
<description></description>
<Point>
<coordinates>133.80409240722656,34.27695846557617,0</coordinates>
</Point>
</Placemark>
<Placemark>
<name>南中学校</name>
<description></description>
<Point>
<coordinates>133.811279296875,34.26667022705078,0</coordinates>
</Point>
</Placemark>
<Placemark>
<name>大林</name>
<description></description>
<Point>
<coordinates>133.81446838378906,34.26186752319336,0</coordinates>
</Point>
</Placemark>
<Placemark>
<name>郡家東</name>
<description></description>
<Point>
<coordinates>133.8178253173828,34.2600212097168,0</coordinates>
</Point>
</Placemark>
<Placemark>
<name>春日の辻</name>
<description></description>
<Point>
<coordinates>133.82479858398438,34.26206970214844,0</coordinates>
</Point>
</Placemark>
<Placemark>
<name>飯山総合学習センター</name>
<description></description>
<Point>
<coordinates>133.84092712402344,34.26291275024414,0</coordinates>
</Point>
</Placemark>
<Placemark>
<name>飯山市民総合センター</name>
<description></description>
<Point>
<coordinates>133.86053466796875,34.264381408691406,0</coordinates>
</Point>
</Placemark>
<Placemark>
<name>飯山総合保健福祉センター</name>
<description></description>
<Point>
<coordinates>133.85887145996094,34.258602142333984,0</coordinates>
</Point>
</Placemark>
<Placemark>
<name>島田</name>
<description></description>
<Point>
<coordinates>133.85592651367188,34.25654220581055,0</coordinates>
</Point>
</Placemark>
<Placemark>
<name>富士見坂団地前</name>
<description></description>
<Point>
<coordinates>133.87313842773438,34.249534606933594,0</coordinates>
</Point>
</Placemark>
<Placemark>
<name>富士見坂集会所</name>
<description></description>
<Point>
<coordinates>133.88772583007812,34.256656646728516,0</coordinates>
</Point>
</Placemark>
<Placemark>
<name>沖</name>
<description></description>
<Point>
<coordinates>133.87591552734375,34.24585723876953,0</coordinates>
</Point>
</Placemark>
<Placemark>
<name>行末</name>
<description></description>
<Point>
<coordinates>133.87969970703125,34.24079513549805,0</coordinates>
</Point>
</Placemark>
<Placemark>
<name>琴電栗熊駅</name>
<description></description>
<Point>
<coordinates>133.88446044921875,34.23386764526367,0</coordinates>
</Point>
</Placemark>
<Placemark>
<name>アイレックス</name>
<description></description>
<Point>
<coordinates>133.8804931640625,34.23227310180664,0</coordinates>
</Point>
</Placemark>
<Placemark>
<name>綾歌市民総合センター</name>
<description></description>
<Point>
<coordinates>133.87762451171875,34.23271179199219,0</coordinates>
</Point>
</Placemark>
<Placemark>
<name>長者原</name>
<description></description>
<Point>
<coordinates>133.87210083007812,34.22206115722656,0</coordinates>
</Point>
</Placemark>
<Placemark>
<name>小津森</name>
<description></description>
<Point>
<coordinates>133.86468505859375,34.222251892089844,0</coordinates>
</Point>
</Placemark>
<Placemark>
<name>琴電岡田駅</name>
<description></description>
<Point>
<coordinates>133.86119079589844,34.22040557861328,0</coordinates>
</Point>
</Placemark>
<Placemark>
<name>岡田</name>
<description></description>
<Point>
<coordinates>133.85922241210938,34.218406677246094,0</coordinates>
</Point>
</Placemark>
<Placemark>
<name>岡田上</name>
<description></description>
<Point>
<coordinates>133.85836791992188,34.217132568359375,0</coordinates>
</Point>
</Placemark>
<Placemark>
<name>市地</name>
<description></description>
<Point>
<coordinates>133.8574981689453,34.214744567871094,0</coordinates>
</Point>
</Placemark>
<Placemark>
<name>打越</name>
<description></description>
<Point>
<coordinates>133.85763549804688,34.208763122558594,0</coordinates>
</Point>
</Placemark>
<Placemark>
<name>NEWレオマワールド</name>
<description></description>
<Point>
<coordinates>133.8759765625,34.21031951904297,0</coordinates>
</Point>
</Placemark>
<Placemark>
<name>うちわの港ミュージアム</name>
<description></description>
<Point>
<coordinates>133.79469299316406,34.29616165161133,0</coordinates>
</Point>
</Placemark>
<Placemark>
<name>葭町</name>
<description></description>
<Point>
<coordinates>133.79774475097656,34.29271697998047,0</coordinates>
</Point>
</Placemark>
<Placemark>
<name>南条町</name>
<description></description>
<Point>
<coordinates>133.79409790039062,34.28923797607422,0</coordinates>
</Point>
</Placemark>
<Placemark>
<name>亀山公園</name>
<description></description>
<Point>
<coordinates>133.79714965820312,34.287078857421875,0</coordinates>
</Point>
</Placemark>
<Placemark>
<name>渡場</name>
<description></description>
<Point>
<coordinates>133.80247497558594,34.291927337646484,0</coordinates>
</Point>
</Placemark>
<Placemark>
<name>蓬莱橋</name>
<description></description>
<Point>
<coordinates>133.80714416503906,34.29466247558594,0</coordinates>
</Point>
</Placemark>
<Placemark>
<name>東新開</name>
<description></description>
<Point>
<coordinates>133.81008911132812,34.29757308959961,0</coordinates>
</Point>
</Placemark>
<Placemark>
<name>田潮八幡口</name>
<description></description>
<Point>
<coordinates>133.81298828125,34.294715881347656,0</coordinates>
</Point>
</Placemark>
<Placemark>
<name>土器本村</name>
<description></description>
<Point>
<coordinates>133.81451416015625,34.29221725463867,0</coordinates>
</Point>
</Placemark>
<Placemark>
<name>土器団地</name>
<description></description>
<Point>
<coordinates>133.81692504882812,34.28782272338867,0</coordinates>
</Point>
</Placemark>
<Placemark>
<name>長友団地</name>
<description></description>
<Point>
<coordinates>133.82147216796875,34.28584671020508,0</coordinates>
</Point>
</Placemark>
<Placemark>
<name>吉岡西</name>
<description></description>
<Point>
<coordinates>133.82566833496094,34.28722381591797,0</coordinates>
</Point>
</Placemark>
<Placemark>
<name>吉岡</name>
<description></description>
<Point>
<coordinates>133.8304443359375,34.28746795654297,0</coordinates>
</Point>
</Placemark>
<Placemark>
<name>西分</name>
<description></description>
<Point>
<coordinates>133.8321533203125,34.28506851196289,0</coordinates>
</Point>
</Placemark>
<Placemark>
<name>ふれあいセンターいいの</name>
<description></description>
<Point>
<coordinates>133.8338165283203,34.280677795410156,0</coordinates>
</Point>
</Placemark>
<Placemark>
<name>飯野山登山口</name>
<description></description>
<Point>
<coordinates>133.83465576171875,34.27479553222656,0</coordinates>
</Point>
</Placemark>
<Placemark>
<name>珠光園</name>
<description></description>
<Point>
<coordinates>133.8353729248047,34.269840240478516,0</coordinates>
</Point>
</Placemark>
<Placemark>
<name>山根西</name>
<description></description>
<Point>
<coordinates>133.83673095703125,34.265525817871094,0</coordinates>
</Point>
</Placemark>
<Placemark>
<name>高柳</name>
<description></description>
<Point>
<coordinates>133.8343048095703,34.26482391357422,0</coordinates>
</Point>
</Placemark>
<Placemark>
<name>一里屋</name>
<description></description>
<Point>
<coordinates>133.80845642089844,34.25587844848633,0</coordinates>
</Point>
</Placemark>
<Placemark>
<name>キムラ</name>
<description></description>
<Point>
<coordinates>133.8006134033203,34.25434112548828,0</coordinates>
</Point>
</Placemark>
<Placemark>
<name>まつねクリニック前</name>
<description></description>
<Point>
<coordinates>133.7996368408203,34.256378173828125,0</coordinates>
</Point>
</Placemark>
<Placemark>
<name>黒嶋</name>
<description></description>
<Point>
<coordinates>133.79852294921875,34.25838851928711,0</coordinates>
</Point>
</Placemark>
<Placemark>
<name>田村団地</name>
<description></description>
<Point>
<coordinates>133.79373168945312,34.26688003540039,0</coordinates>
</Point>
</Placemark>
<Placemark>
<name>スポーツセンター</name>
<description></description>
<Point>
<coordinates>133.79119873046875,34.265560150146484,0</coordinates>
</Point>
</Placemark>
<Placemark>
<name>原田</name>
<description></description>
<Point>
<coordinates>133.78787231445312,34.2584228515625,0</coordinates>
</Point>
</Placemark>
<Placemark>
<name>原田南口</name>
<description></description>
<Point>
<coordinates>133.7871856689453,34.25632095336914,0</coordinates>
</Point>
</Placemark>
<Placemark>
<name>天満屋ハピータウン</name>
<description></description>
<Point>
<coordinates>133.7847137451172,34.255653381347656,0</coordinates>
</Point>
</Placemark>
<Placemark>
<name>西三分一</name>
<description></description>
<Point>
<coordinates>133.78343200683594,34.25745391845703,0</coordinates>
</Point>
</Placemark>
<Placemark>
<name>丸亀スタジアム</name>
<description></description>
<Point>
<coordinates>133.78439331054688,34.259765625,0</coordinates>
</Point>
</Placemark>
<Placemark>
<name>ボートピア丸亀</name>
<description></description>
<Point>
<coordinates>133.79244995117188,34.26285934448242,0</coordinates>
</Point>
</Placemark>
<Placemark>
<name>先代池</name>
<description></description>
<Point>
<coordinates>133.78858947753906,34.26963806152344,0</coordinates>
</Point>
</Placemark>
<Placemark>
<name>ゆめタウン前</name>
<description></description>
<Point>
<coordinates>133.7838592529297,34.27354431152344,0</coordinates>
</Point>
</Placemark>
<Placemark>
<name>天満池</name>
<description></description>
<Point>
<coordinates>133.78329467773438,34.27323913574219,0</coordinates>
</Point>
</Placemark>
<Placemark>
<name>瓢池</name>
<description></description>
<Point>
<coordinates>133.77967834472656,34.27120590209961,0</coordinates>
</Point>
</Placemark>
<Placemark>
<name>健康橋</name>
<description></description>
<Point>
<coordinates>133.77464294433594,34.2686653137207,0</coordinates>
</Point>
</Placemark>
<Placemark>
<name>イオンタウン</name>
<description></description>
<Point>
<coordinates>133.76907348632812,34.275428771972656,0</coordinates>
</Point>
</Placemark>
<Placemark>
<name>中津橋</name>
<description></description>
<Point>
<coordinates>133.77365112304688,34.281734466552734,0</coordinates>
</Point>
</Placemark>
<Placemark>
<name>川井整形前</name>
<description></description>
<Point>
<coordinates>133.77662658691406,34.283206939697266,0</coordinates>
</Point>
</Placemark>
<Placemark>
<name>塩屋別院</name>
<description></description>
<Point>
<coordinates>133.7805633544922,34.2847785949707,0</coordinates>
</Point>
</Placemark>
<Placemark>
<name>塩屋橋</name>
<description></description>
<Point>
<coordinates>133.78526306152344,34.28663635253906,0</coordinates>
</Point>
</Placemark>
<Placemark>
<name>幸町</name>
<description></description>
<Point>
<coordinates>133.7914581298828,34.28864669799805,0</coordinates>
</Point>
</Placemark>
<Placemark>
<name>城東町</name>
<description></description>
<Point>
<coordinates>133.80712890625,34.28965759277344,0</coordinates>
</Point>
</Placemark>
<Placemark>
<name>高津</name>
<description></description>
<Point>
<coordinates>133.81072998046875,34.28713607788086,0</coordinates>
</Point>
</Placemark>
<Placemark>
<name>高津団地</name>
<description></description>
<Point>
<coordinates>133.8135528564453,34.28376770019531,0</coordinates>
</Point>
</Placemark>
<Placemark>
<name>西村下</name>
<description></description>
<Point>
<coordinates>133.81558227539062,34.28117752075195,0</coordinates>
</Point>
</Placemark>
<Placemark>
<name>西村</name>
<description></description>
<Point>
<coordinates>133.81752014160156,34.2779541015625,0</coordinates>
</Point>
</Placemark>
<Placemark>
<name>高熊</name>
<description></description>
<Point>
<coordinates>133.8196563720703,34.27367401123047,0</coordinates>
</Point>
</Placemark>
<Placemark>
<name>双子山</name>
<description></description>
<Point>
<coordinates>133.82057189941406,34.27000427246094,0</coordinates>
</Point>
</Placemark>
<Placemark>
<name>川西原</name>
<description></description>
<Point>
<coordinates>133.82191467285156,34.26683807373047,0</coordinates>
</Point>
</Placemark>
<Placemark>
<name>城辰小学校</name>
<description></description>
<Point>
<coordinates>133.82789611816406,34.25669860839844,0</coordinates>
</Point>
</Placemark>
<Placemark>
<name>川西ふれあい会館</name>
<description></description>
<Point>
<coordinates>133.8298797607422,34.25308609008789,0</coordinates>
</Point>
</Placemark>
<Placemark>
<name>岸の上</name>
<description></description>
<Point>
<coordinates>133.8316192626953,34.249210357666016,0</coordinates>
</Point>
</Placemark>
<Placemark>
<name>西小川</name>
<description></description>
<Point>
<coordinates>133.8339080810547,34.24357604980469,0</coordinates>
</Point>
</Placemark>
<Placemark>
<name>フジグラン</name>
<description></description>
<Point>
<coordinates>133.8344268798828,34.24097442626953,0</coordinates>
</Point>
</Placemark>
<Placemark>
<name>剱来松木自治会館前</name>
<description></description>
<Point>
<coordinates>133.83473205566406,34.23907470703125,0</coordinates>
</Point>
</Placemark>
<Placemark>
<name>土器川生物公園</name>
<description></description>
<Point>
<coordinates>133.83485412597656,34.236846923828125,0</coordinates>
</Point>
</Placemark>
<Placemark>
<name>垂水団地</name>
<description></description>
<Point>
<coordinates>133.83370971679688,34.22914505004883,0</coordinates>
</Point>
</Placemark>
<Placemark>
<name>垂水橋</name>
<description></description>
<Point>
<coordinates>133.8343048095703,34.22407531738281,0</coordinates>
</Point>
</Placemark>
<Placemark>
<name>上代</name>
<description></description>
<Point>
<coordinates>133.83058166503906,34.22154998779297,0</coordinates>
</Point>
</Placemark>
<Placemark>
<name>東高篠</name>
<description></description>
<Point>
<coordinates>133.82662963867188,34.219635009765625,0</coordinates>
</Point>
</Placemark>
<Placemark>
<name>丸亀南</name>
<description></description>
<Point>
<coordinates>133.82420349121094,34.22185134887695,0</coordinates>
</Point>
</Placemark>
<Placemark>
<name>丸亀浄水場</name>
<description></description>
<Point>
<coordinates>133.8226318359375,34.22419357299805,0</coordinates>
</Point>
</Placemark>
<Placemark>
<name>願誓寺</name>
<description></description>
<Point>
<coordinates>133.81980895996094,34.23153305053711,0</coordinates>
</Point>
</Placemark>
<Placemark>
<name>金竹</name>
<description></description>
<Point>
<coordinates>133.82247924804688,34.232784271240234,0</coordinates>
</Point>
</Placemark>
<Placemark>
<name>垂水ふれあいセンター</name>
<description></description>
<Point>
<coordinates>133.8284454345703,34.23322296142578,0</coordinates>
</Point>
</Placemark>
<Placemark>
<name>八尺</name>
<description></description>
<Point>
<coordinates>133.82626342773438,34.235015869140625,0</coordinates>
</Point>
</Placemark>
<Placemark>
<name>田井</name>
<description></description>
<Point>
<coordinates>133.82382202148438,34.23883819580078,0</coordinates>
</Point>
</Placemark>
<Placemark>
<name>立の外</name>
<description></description>
<Point>
<coordinates>133.8230743408203,34.24440002441406,0</coordinates>
</Point>
</Placemark>
<Placemark>
<name>郡家郵便局</name>
<description></description>
<Point>
<coordinates>133.82090759277344,34.24818420410156,0</coordinates>
</Point>
</Placemark>
<Placemark>
<name>宝憧寺池</name>
<description></description>
<Point>
<coordinates>133.8173065185547,34.247371673583984,0</coordinates>
</Point>
</Placemark>
<Placemark>
<name>上三条</name>
<description></description>
<Point>
<coordinates>133.81285095214844,34.24555587768555,0</coordinates>
</Point>
</Placemark>
<Placemark>
<name>籠池</name>
<description></description>
<Point>
<coordinates>133.81040954589844,34.2484016418457,0</coordinates>
</Point>
</Placemark>
<Placemark>
<name>両宮</name>
<description></description>
<Point>
<coordinates>133.80819702148438,34.253143310546875,0</coordinates>
</Point>
</Placemark>
<Placemark>
<name>郡家原</name>
<description></description>
<Point>
<coordinates>133.80770874023438,34.2592887878418,0</coordinates>
</Point>
</Placemark>
<Placemark>
<name>ポリテクカレッジ前</name>
<description></description>
<Point>
<coordinates>133.8064727783203,34.26362609863281,0</coordinates>
</Point>
</Placemark>
<Placemark>
<name>三船病院</name>
<description></description>
<Point>
<coordinates>133.80545043945312,34.26661682128906,0</coordinates>
</Point>
</Placemark>
<Placemark>
<name>亀山学園</name>
<description></description>
<Point>
<coordinates>133.80337524414062,34.27091598510742,0</coordinates>
</Point>
</Placemark>
<Placemark>
<name>ぽかぽか温泉前</name>
<description></description>
<Point>
<coordinates>133.80149841308594,34.27395248413086,0</coordinates>
</Point>
</Placemark>
<Placemark>
<name>蓮池公園</name>
<description></description>
<Point>
<coordinates>133.79718017578125,34.27661895751953,0</coordinates>
</Point>
</Placemark>
<Placemark>
<name>城西高校</name>
<description></description>
<Point>
<coordinates>133.79605102539062,34.278263092041016,0</coordinates>
</Point>
</Placemark>
<Placemark>
<name>丸亀高校</name>
<description></description>
<Point>
<coordinates>133.7965850830078,34.28413391113281,0</coordinates>
</Point>
</Placemark>
<Placemark>
<name>宇多津駅北口</name>
<description></description>
<Point>
<coordinates>133.8135223388672,34.30654525756836,0</coordinates>
</Point>
</Placemark>
<Placemark>
<name>宇多津駅南口</name>
<description></description>
<Point>
<coordinates>133.8142852783203,34.306331634521484,0</coordinates>
</Point>
</Placemark>
<Placemark>
<name>ユープラザうたづ西</name>
<description></description>
<Point>
<coordinates>133.81578063964844,34.304786682128906,0</coordinates>
</Point>
</Placemark>
<Placemark>
<name>宇夫階</name>
<description></description>
<Point>
<coordinates>133.81259155273438,34.300418853759766,0</coordinates>
</Point>
</Placemark>
<Placemark>
<name>新開</name>
<description></description>
<Point>
<coordinates>133.8111114501953,34.29886245727539,0</coordinates>
</Point>
</Placemark>
<Placemark>
<name>天然温泉あ・くあ前</name>
<description></description>
<Point>
<coordinates>133.82431030273438,34.24968338012695,0</coordinates>
</Point>
</Placemark>
<Placemark>
<name>さくらい薬局前</name>
<description></description>
<Point>
<coordinates>133.8296356201172,34.25206756591797,0</coordinates>
</Point>
</Placemark>
<Placemark>
<name>中北自治会館前</name>
<description></description>
<Point>
<coordinates>133.83421325683594,34.244998931884766,0</coordinates>
</Point>
</Placemark>
<Placemark>
<name>五反地</name>
<description></description>
<Point>
<coordinates>133.84071350097656,34.246437072753906,0</coordinates>
</Point>
</Placemark>
<Placemark>
<name>東小川児童センター</name>
<description></description>
<Point>
<coordinates>133.84446716308594,34.24750518798828,0</coordinates>
</Point>
</Placemark>
<Placemark>
<name>日吉</name>
<description></description>
<Point>
<coordinates>133.85060119628906,34.2466926574707,0</coordinates>
</Point>
</Placemark>
<Placemark>
<name>南コミュニティセンター</name>
<description></description>
<Point>
<coordinates>133.85646057128906,34.2478141784668,0</coordinates>
</Point>
</Placemark>
<Placemark>
<name>四反地</name>
<description></description>
<Point>
<coordinates>133.85897827148438,34.248104095458984,0</coordinates>
</Point>
</Placemark>
<Placemark>
<name>切池</name>
<description></description>
<Point>
<coordinates>133.8612823486328,34.244998931884766,0</coordinates>
</Point>
</Placemark>
<Placemark>
<name>遠田</name>
<description></description>
<Point>
<coordinates>133.85870361328125,34.240684509277344,0</coordinates>
</Point>
</Placemark>
<Placemark>
<name>下土居</name>
<description></description>
<Point>
<coordinates>133.85684204101562,34.232295989990234,0</coordinates>
</Point>
</Placemark>
<Placemark>
<name>岡田小学校前</name>
<description></description>
<Point>
<coordinates>133.85842895507812,34.225521087646484,0</coordinates>
</Point>
</Placemark>
<Placemark>
<name>岡田中央</name>
<description></description>
<Point>
<coordinates>133.8595733642578,34.22318649291992,0</coordinates>
</Point>
</Placemark>
<Placemark>
<name>綾歌保健福祉センター</name>
<description></description>
<Point>
<coordinates>133.8819122314453,34.22676467895508,0</coordinates>
</Point>
</Placemark>
<Placemark>
<name>坂出駅前</name>
<description></description>
<Point>
<coordinates>133.85623168945312,34.313804626464844,0</coordinates>
</Point>
</Placemark>
<Placemark>
<name>坂出案内所前（下り）</name>
<description></description>
<Point>
<coordinates>133.85623168945312,34.314414978027344,0</coordinates>
</Point>
</Placemark>
<Placemark>
<name>坂出駅前通り（上り）</name>
<description></description>
<Point>
<coordinates>133.85621643066406,34.314815521240234,0</coordinates>
</Point>
</Placemark>
<Placemark>
<name>商工会館前</name>
<description></description>
<Point>
<coordinates>133.8557891845703,34.317806243896484,0</coordinates>
</Point>
</Placemark>
<Placemark>
<name>港町</name>
<description></description>
<Point>
<coordinates>133.85244750976562,34.318359375,0</coordinates>
</Point>
</Placemark>
<Placemark>
<name>白金町</name>
<description></description>
<Point>
<coordinates>133.84561157226562,34.31743621826172,0</coordinates>
</Point>
</Placemark>
<Placemark>
<name>坂工前</name>
<description></description>
<Point>
<coordinates>133.84275817871094,34.31654739379883,0</coordinates>
</Point>
</Placemark>
<Placemark>
<name>御供所公園</name>
<description></description>
<Point>
<coordinates>133.8375701904297,34.32265090942383,0</coordinates>
</Point>
</Placemark>
<Placemark>
<name>番の洲公園</name>
<description></description>
<Point>
<coordinates>133.8323211669922,34.323516845703125,0</coordinates>
</Point>
</Placemark>
<Placemark>
<name>川崎造船</name>
<description></description>
<Point>
<coordinates>133.82774353027344,34.332557678222656,0</coordinates>
</Point>
</Placemark>
<Placemark>
<name>番の洲町</name>
<description></description>
<Point>
<coordinates>133.8267059326172,34.33760452270508,0</coordinates>
</Point>
</Placemark>
<Placemark>
<name>三菱化学</name>
<description></description>
<Point>
<coordinates>133.84048461914062,34.342071533203125,0</coordinates>
</Point>
</Placemark>
<Placemark>
<name>四国電力</name>
<description></description>
<Point>
<coordinates>133.8437957763672,34.344459533691406,0</coordinates>
</Point>
</Placemark>
<Placemark>
<name>瀬居町西浦</name>
<description></description>
<Point>
<coordinates>133.85015869140625,34.34978485107422,0</coordinates>
</Point>
</Placemark>
<Placemark>
<name>瀬居郵便局</name>
<description></description>
<Point>
<coordinates>133.848388671875,34.35147476196289,0</coordinates>
</Point>
</Placemark>
<Placemark>
<name>瀬居中学校</name>
<description></description>
<Point>
<coordinates>133.85693359375,34.351619720458984,0</coordinates>
</Point>
</Placemark>
<Placemark>
<name>瀬居町本浦</name>
<description></description>
<Point>
<coordinates>133.85751342773438,34.35414505004883,0</coordinates>
</Point>
</Placemark>
<Placemark>
<name>瀬居町竹浦</name>
<description></description>
<Point>
<coordinates>133.85467529296875,34.357845306396484,0</coordinates>
</Point>
</Placemark>
<Placemark>
<name>沙弥島万葉会館</name>
<description></description>
<Point>
<coordinates>133.8237762451172,34.347862243652344,0</coordinates>
</Point>
</Placemark>
<Placemark>
<name>東山魁夷せとうち美術館</name>
<description></description>
<Point>
<coordinates>133.82606506347656,34.349708557128906,0</coordinates>
</Point>
</Placemark>
<Placemark>
<name>瀬戸大橋記念公園（下り）</name>
<description></description>
<Point>
<coordinates>133.8274688720703,34.35049819946289,0</coordinates>
</Point>
</Placemark>
<Placemark>
<name>瀬戸大橋記念公園（上り）</name>
<description></description>
<Point>
<coordinates>133.8280029296875,34.352508544921875,0</coordinates>
</Point>
</Placemark>
<Placemark>
<name>観音寺市役所</name>
<description></description>
<Point>
<coordinates>133.6609649658203,34.12762451171875,0</coordinates>
</Point>
</Placemark>
<Placemark>
<name>観音寺駅</name>
<description></description>
<Point>
<coordinates>133.65574645996094,34.12471389770508,0</coordinates>
</Point>
</Placemark>
<Placemark>
<name>駅通り（大黒屋）</name>
<description></description>
<Point>
<coordinates>133.6536865234375,34.12713623046875,0</coordinates>
</Point>
</Placemark>
<Placemark>
<name>元町（元町広場）</name>
<description></description>
<Point>
<coordinates>133.64520263671875,34.12767028808594,0</coordinates>
</Point>
</Placemark>
<Placemark>
<name>観音寺港</name>
<description></description>
<Point>
<coordinates>133.63795471191406,34.12630081176758,0</coordinates>
</Point>
</Placemark>
<Placemark>
<name>出作（誠味堂）</name>
<description></description>
<Point>
<coordinates>133.6763458251953,34.11989974975586,0</coordinates>
</Point>
</Placemark>
<Placemark>
<name>運動公園正門</name>
<description></description>
<Point>
<coordinates>133.6853790283203,34.10848617553711,0</coordinates>
</Point>
</Placemark>
<Placemark>
<name>木之郷（高橋呉服店）</name>
<description></description>
<Point>
<coordinates>133.6803436279297,34.10497283935547,0</coordinates>
</Point>
</Placemark>
<Placemark>
<name>中出（香川銀行）</name>
<description></description>
<Point>
<coordinates>133.6699981689453,34.111900329589844,0</coordinates>
</Point>
</Placemark>
<Placemark>
<name>昭和（マルナカ東口）</name>
<description></description>
<Point>
<coordinates>133.65367126464844,34.121429443359375,0</coordinates>
</Point>
</Placemark>
<Placemark>
<name>常磐小学校</name>
<description></description>
<Point>
<coordinates>133.67556762695312,34.12675476074219,0</coordinates>
</Point>
</Placemark>
<Placemark>
<name>池之尻郵使局</name>
<description></description>
<Point>
<coordinates>133.69403076171875,34.116233825683594,0</coordinates>
</Point>
</Placemark>
<Placemark>
<name>百々</name>
<description></description>
<Point>
<coordinates>133.6781768798828,34.100257873535156,0</coordinates>
</Point>
</Placemark>
<Placemark>
<name>山王</name>
<description></description>
<Point>
<coordinates>133.66546630859375,34.10495376586914,0</coordinates>
</Point>
</Placemark>
<Placemark>
<name>林西集会場</name>
<description></description>
<Point>
<coordinates>133.65516662597656,34.08918762207031,0</coordinates>
</Point>
</Placemark>
<Placemark>
<name>三豊総合病院</name>
<description></description>
<Point>
<coordinates>133.64344787597656,34.082054138183594,0</coordinates>
</Point>
</Placemark>
<Placemark>
<name>谷口（奥谷）</name>
<description></description>
<Point>
<coordinates>133.71661376953125,34.078857421875,0</coordinates>
</Point>
</Placemark>
<Placemark>
<name>丸井北（JA豊南紀伊支所）</name>
<description></description>
<Point>
<coordinates>133.69041442871094,34.09348678588867,0</coordinates>
</Point>
</Placemark>
<Placemark>
<name>出晴</name>
<description></description>
<Point>
<coordinates>133.69046020507812,34.09879684448242,0</coordinates>
</Point>
</Placemark>
<Placemark>
<name>常次（JA粟井支店）</name>
<description></description>
<Point>
<coordinates>133.6971893310547,34.09793472290039,0</coordinates>
</Point>
</Placemark>
<Placemark>
<name>豊田幼稚園</name>
<description></description>
<Point>
<coordinates>133.7017364501953,34.10884475708008,0</coordinates>
</Point>
</Placemark>
<Placemark>
<name>粟屋</name>
<description></description>
<Point>
<coordinates>133.69619750976562,34.1178092956543,0</coordinates>
</Point>
</Placemark>
<Placemark>
<name>江藤</name>
<description></description>
<Point>
<coordinates>133.7060089111328,34.12868881225586,0</coordinates>
</Point>
</Placemark>
<Placemark>
<name>本大（ふたぱ保育園）</name>
<description></description>
<Point>
<coordinates>133.695556640625,34.13433837890625,0</coordinates>
</Point>
</Placemark>
<Placemark>
<name>吉岡本村</name>
<description></description>
<Point>
<coordinates>133.68836975097656,34.132896423339844,0</coordinates>
</Point>
</Placemark>
<Placemark>
<name>村黒小岡（松井病院）</name>
<description></description>
<Point>
<coordinates>133.6661834716797,34.1332893371582,0</coordinates>
</Point>
</Placemark>
<Placemark>
<name>上市（コミュニティセンター）</name>
<description></description>
<Point>
<coordinates>133.6526336669922,34.1301155090332,0</coordinates>
</Point>
</Placemark>
<Placemark>
<name>観音寺郵便局</name>
<description></description>
<Point>
<coordinates>133.65455627441406,34.1270637512207,0</coordinates>
</Point>
</Placemark>
<Placemark>
<name>瀬戸町</name>
<description></description>
<Point>
<coordinates>133.63821411132812,34.12001419067383,0</coordinates>
</Point>
</Placemark>
<Placemark>
<name>山田産業団地</name>
<description></description>
<Point>
<coordinates>133.64462280273438,34.108882904052734,0</coordinates>
</Point>
</Placemark>
<Placemark>
<name>香川井下病院</name>
<description></description>
<Point>
<coordinates>133.6444854736328,34.09711837768555,0</coordinates>
</Point>
</Placemark>
<Placemark>
<name>五軒屋（マルナカ）</name>
<description></description>
<Point>
<coordinates>133.64181518554688,34.085697174072266,0</coordinates>
</Point>
</Placemark>
<Placemark>
<name>田野々</name>
<description></description>
<Point>
<coordinates>133.68441772460938,34.042354583740234,0</coordinates>
</Point>
</Placemark>
<Placemark>
<name>海老済</name>
<description></description>
<Point>
<coordinates>133.69143676757812,34.03129577636719,0</coordinates>
</Point>
</Placemark>
<Placemark>
<name>谷上（教育センター）</name>
<description></description>
<Point>
<coordinates>133.6904754638672,34.05651092529297,0</coordinates>
</Point>
</Placemark>
<Placemark>
<name>上中（JA豊南萩原支所）</name>
<description></description>
<Point>
<coordinates>133.677734375,34.07355880737305,0</coordinates>
</Point>
</Placemark>
<Placemark>
<name>下木屋（石川医院）</name>
<description></description>
<Point>
<coordinates>133.66522216796875,34.089263916015625,0</coordinates>
</Point>
</Placemark>
<Placemark>
<name>宮之下（JA豊南本所）</name>
<description></description>
<Point>
<coordinates>133.66224670410156,34.08611297607422,0</coordinates>
</Point>
</Placemark>
<Placemark>
<name>豆塚集会場</name>
<description></description>
<Point>
<coordinates>133.66287231445312,34.07524490356445,0</coordinates>
</Point>
</Placemark>
<Placemark>
<name>萩原郵使局</name>
<description></description>
<Point>
<coordinates>133.6751251220703,34.077735900878906,0</coordinates>
</Point>
</Placemark>
<Placemark>
<name>大野原支所（いきいきセンター）</name>
<description></description>
<Point>
<coordinates>133.66456604003906,34.08367156982422,0</coordinates>
</Point>
</Placemark>
<Placemark>
<name>萩の湯</name>
<description></description>
<Point>
<coordinates>133.66009521484375,34.083702087402344,0</coordinates>
</Point>
</Placemark>
<Placemark>
<name>すぽっシユ豊浜</name>
<description></description>
<Point>
<coordinates>133.64088439941406,34.07520294189453,0</coordinates>
</Point>
</Placemark>
<Placemark>
<name>豊浜駅</name>
<description></description>
<Point>
<coordinates>133.64382934570312,34.07986831665039,0</coordinates>
</Point>
</Placemark>
<Placemark>
<name>昭和（マルナカ）</name>
<description></description>
<Point>
<coordinates>133.65367126464844,34.121429443359375,0</coordinates>
</Point>
</Placemark>
<Placemark>
<name>南公民館</name>
<description></description>
<Point>
<coordinates>133.6510467529297,34.126609802246094,0</coordinates>
</Point>
</Placemark>
<Placemark>
<name>琴弾公園（森内科）</name>
<description></description>
<Point>
<coordinates>133.64999389648438,34.132835388183594,0</coordinates>
</Point>
</Placemark>
<Placemark>
<name>室本港</name>
<description></description>
<Point>
<coordinates>133.64537048339844,34.15581130981445,0</coordinates>
</Point>
</Placemark>
<Placemark>
<name>高屋明下（高室公民館）</name>
<description></description>
<Point>
<coordinates>133.65365600585938,34.14549255371094,0</coordinates>
</Point>
</Placemark>
<Placemark>
<name>箕浦</name>
<description></description>
<Point>
<coordinates>133.6208953857422,34.048831939697266,0</coordinates>
</Point>
</Placemark>
<Placemark>
<name>関谷公民館</name>
<description></description>
<Point>
<coordinates>133.6309051513672,34.05615997314453,0</coordinates>
</Point>
</Placemark>
<Placemark>
<name>大平木</name>
<description></description>
<Point>
<coordinates>133.6355438232422,34.06373977661133,0</coordinates>
</Point>
</Placemark>
<Placemark>
<name>道溝（和田分団屯所）</name>
<description></description>
<Point>
<coordinates>133.64788818359375,34.0687255859375,0</coordinates>
</Point>
</Placemark>
<Placemark>
<name>大坪（なしの郷看板）</name>
<description></description>
<Point>
<coordinates>133.6574249267578,34.06094741821289,0</coordinates>
</Point>
</Placemark>
<Placemark>
<name>豊浜支所</name>
<description></description>
<Point>
<coordinates>133.6370086669922,34.073974609375,0</coordinates>
</Point>
</Placemark>
<Placemark>
<name>東浜</name>
<description></description>
<Point>
<coordinates>133.63760375976562,34.079559326171875,0</coordinates>
</Point>
</Placemark>
<Placemark>
<name>須賀（自治会館）</name>
<description></description>
<Point>
<coordinates>133.6409454345703,34.07916259765625,0</coordinates>
</Point>
</Placemark>
<Placemark>
<name>宮之下（Aコープ豊南）</name>
<description></description>
<Point>
<coordinates>133.661865234375,34.084922790527344,0</coordinates>
</Point>
</Placemark>
<Placemark>
<name>十三塚</name>
<description></description>
<Point>
<coordinates>133.6599578857422,34.10026931762695,0</coordinates>
</Point>
</Placemark>
<Placemark>
<name>坂本（観音寺サティ）</name>
<description></description>
<Point>
<coordinates>133.661865234375,34.124237060546875,0</coordinates>
</Point>
</Placemark>
<Placemark>
<name>村黒（デイリーヤマザキ）</name>
<description></description>
<Point>
<coordinates>133.66416931152344,34.13325119018555,0</coordinates>
</Point>
</Placemark>
<Placemark>
<name>伊吹真浦港</name>
<description></description>
<Point>
<coordinates>133.5335235595703,34.12602996826172,0</coordinates>
</Point>
</Placemark>
<Placemark>
<name>荒神社</name>
<description></description>
<Point>
<coordinates>133.53366088867188,34.12942123413086,0</coordinates>
</Point>
</Placemark>
<Placemark>
<name>伊吹小学校</name>
<description></description>
<Point>
<coordinates>133.53500366210938,34.127567291259766,0</coordinates>
</Point>
</Placemark>
<Placemark>
<name>北浦六地蔵</name>
<description></description>
<Point>
<coordinates>133.53594970703125,34.129642486572266,0</coordinates>
</Point>
</Placemark>
<Placemark>
<name>伊吹八幡神社（公民館下）</name>
<description></description>
<Point>
<coordinates>133.53526306152344,34.12816619873047,0</coordinates>
</Point>
</Placemark>
<Placemark>
<name>さぬき市役所</name>
<description></description>
<Point>
<coordinates>134.17166137695312,34.324893951416016,0</coordinates>
</Point>
</Placemark>
<Placemark>
<name>琴電志度駅</name>
<description></description>
<Point>
<coordinates>134.17312622070312,34.322593688964844,0</coordinates>
</Point>
</Placemark>
<Placemark>
<name>JR志度駅</name>
<description></description>
<Point>
<coordinates>134.1732635498047,34.32180404663086,0</coordinates>
</Point>
</Placemark>
<Placemark>
<name>大橋</name>
<description></description>
<Point>
<coordinates>134.18099975585938,34.32023620605469,0</coordinates>
</Point>
</Placemark>
<Placemark>
<name>天野</name>
<description></description>
<Point>
<coordinates>134.1861114501953,34.321739196777344,0</coordinates>
</Point>
</Placemark>
<Placemark>
<name>徳島文理大</name>
<description></description>
<Point>
<coordinates>134.1908721923828,34.326171875,0</coordinates>
</Point>
</Placemark>
<Placemark>
<name>徳島文理大国道口</name>
<description></description>
<Point>
<coordinates>134.18992614746094,34.32345962524414,0</coordinates>
</Point>
</Placemark>
<Placemark>
<name>天野峠</name>
<description></description>
<Point>
<coordinates>134.19815063476562,34.32171630859375,0</coordinates>
</Point>
</Placemark>
<Placemark>
<name>志度東中前</name>
<description></description>
<Point>
<coordinates>134.2079315185547,34.32355880737305,0</coordinates>
</Point>
</Placemark>
<Placemark>
<name>鴨部川橋</name>
<description></description>
<Point>
<coordinates>134.21096801757812,34.323036193847656,0</coordinates>
</Point>
</Placemark>
<Placemark>
<name>成山口</name>
<description></description>
<Point>
<coordinates>134.21435546875,34.318946838378906,0</coordinates>
</Point>
</Placemark>
<Placemark>
<name>鴨部公民館</name>
<description></description>
<Point>
<coordinates>134.2176055908203,34.312477111816406,0</coordinates>
</Point>
</Placemark>
<Placemark>
<name>鴨部出張所前</name>
<description></description>
<Point>
<coordinates>134.22662353515625,34.3125114440918,0</coordinates>
</Point>
</Placemark>
<Placemark>
<name>羽立峠</name>
<description></description>
<Point>
<coordinates>134.23387145996094,34.31018829345703,0</coordinates>
</Point>
</Placemark>
<Placemark>
<name>北羽立</name>
<description></description>
<Point>
<coordinates>134.24266052246094,34.303184509277344,0</coordinates>
</Point>
</Placemark>
<Placemark>
<name>南羽立</name>
<description></description>
<Point>
<coordinates>134.24493408203125,34.296546936035156,0</coordinates>
</Point>
</Placemark>
<Placemark>
<name>津田高校</name>
<description></description>
<Point>
<coordinates>134.24671936035156,34.2938232421875,0</coordinates>
</Point>
</Placemark>
<Placemark>
<name>津田病院</name>
<description></description>
<Point>
<coordinates>134.246826171875,34.2917366027832,0</coordinates>
</Point>
</Placemark>
<Placemark>
<name>JR津田駅前</name>
<description></description>
<Point>
<coordinates>134.24879455566406,34.28964614868164,0</coordinates>
</Point>
</Placemark>
<Placemark>
<name>津田農協前</name>
<description></description>
<Point>
<coordinates>134.24949645996094,34.28974533081055,0</coordinates>
</Point>
</Placemark>
<Placemark>
<name>津田支所</name>
<description></description>
<Point>
<coordinates>134.2510986328125,34.28784942626953,0</coordinates>
</Point>
</Placemark>
<Placemark>
<name>神野</name>
<description></description>
<Point>
<coordinates>134.2485809326172,34.28366470336914,0</coordinates>
</Point>
</Placemark>
<Placemark>
<name>柴谷トンネル南口</name>
<description></description>
<Point>
<coordinates>134.24244689941406,34.27743911743164,0</coordinates>
</Point>
</Placemark>
<Placemark>
<name>谷町</name>
<description></description>
<Point>
<coordinates>134.2361602783203,34.27099609375,0</coordinates>
</Point>
</Placemark>
<Placemark>
<name>川東</name>
<description></description>
<Point>
<coordinates>134.24227905273438,34.26506042480469,0</coordinates>
</Point>
</Placemark>
<Placemark>
<name>昭和</name>
<description></description>
<Point>
<coordinates>134.25303649902344,34.26579284667969,0</coordinates>
</Point>
</Placemark>
<Placemark>
<name>友近</name>
<description></description>
<Point>
<coordinates>134.25015258789062,34.26146697998047,0</coordinates>
</Point>
</Placemark>
<Placemark>
<name>田面</name>
<description></description>
<Point>
<coordinates>134.24981689453125,34.25783920288086,0</coordinates>
</Point>
</Placemark>
<Placemark>
<name>さざんか荘</name>
<description></description>
<Point>
<coordinates>134.25732421875,34.2531852722168,0</coordinates>
</Point>
</Placemark>
<Placemark>
<name>道の駅みろく</name>
<description></description>
<Point>
<coordinates>134.2423858642578,34.2588996887207,0</coordinates>
</Point>
</Placemark>
<Placemark>
<name>大川一中前</name>
<description></description>
<Point>
<coordinates>134.23512268066406,34.26102066040039,0</coordinates>
</Point>
</Placemark>
<Placemark>
<name>大川支所</name>
<description></description>
<Point>
<coordinates>134.23565673828125,34.26405334472656,0</coordinates>
</Point>
</Placemark>
<Placemark>
<name>並松</name>
<description></description>
<Point>
<coordinates>134.23507690429688,34.2623405456543,0</coordinates>
</Point>
</Placemark>
<Placemark>
<name>陶山養鶏場</name>
<description></description>
<Point>
<coordinates>134.2282257080078,34.2646369934082,0</coordinates>
</Point>
</Placemark>
<Placemark>
<name>筒野</name>
<description></description>
<Point>
<coordinates>134.221435546875,34.265586853027344,0</coordinates>
</Point>
</Placemark>
<Placemark>
<name>大角</name>
<description></description>
<Point>
<coordinates>134.21383666992188,34.2657470703125,0</coordinates>
</Point>
</Placemark>
<Placemark>
<name>石田高校南</name>
<description></description>
<Point>
<coordinates>134.21136474609375,34.26245880126953,0</coordinates>
</Point>
</Placemark>
<Placemark>
<name>布勢</name>
<description></description>
<Point>
<coordinates>134.20150756835938,34.26081085205078,0</coordinates>
</Point>
</Placemark>
<Placemark>
<name>さぬき市民病院</name>
<description></description>
<Point>
<coordinates>134.20150756835938,34.26606750488281,0</coordinates>
</Point>
</Placemark>
<Placemark>
<name>寒川支所</name>
<description></description>
<Point>
<coordinates>134.20443725585938,34.266780853271484,0</coordinates>
</Point>
</Placemark>
<Placemark>
<name>山王団地前</name>
<description></description>
<Point>
<coordinates>134.20591735839844,34.26765823364258,0</coordinates>
</Point>
</Placemark>
<Placemark>
<name>西山王</name>
<description></description>
<Point>
<coordinates>134.2058563232422,34.272003173828125,0</coordinates>
</Point>
</Placemark>
<Placemark>
<name>寒川高校前</name>
<description></description>
<Point>
<coordinates>134.2069091796875,34.27692794799805,0</coordinates>
</Point>
</Placemark>
<Placemark>
<name>山崎</name>
<description></description>
<Point>
<coordinates>134.2063751220703,34.282108306884766,0</coordinates>
</Point>
</Placemark>
<Placemark>
<name>南野間</name>
<description></description>
<Point>
<coordinates>134.20098876953125,34.283042907714844,0</coordinates>
</Point>
</Placemark>
<Placemark>
<name>JR造田駅</name>
<description></description>
<Point>
<coordinates>134.18594360351562,34.28258514404297,0</coordinates>
</Point>
</Placemark>
<Placemark>
<name>広瀬橋</name>
<description></description>
<Point>
<coordinates>134.1768341064453,34.27898406982422,0</coordinates>
</Point>
</Placemark>
<Placemark>
<name>森貞</name>
<description></description>
<Point>
<coordinates>134.17623901367188,34.2725830078125,0</coordinates>
</Point>
</Placemark>
<Placemark>
<name>東町</name>
<description></description>
<Point>
<coordinates>134.17604064941406,34.26724624633789,0</coordinates>
</Point>
</Placemark>
<Placemark>
<name>旭町</name>
<description></description>
<Point>
<coordinates>134.17337036132812,34.26498794555664,0</coordinates>
</Point>
</Placemark>
<Placemark>
<name>大川バス本社前</name>
<description></description>
<Point>
<coordinates>134.169921875,34.26515579223633,0</coordinates>
</Point>
</Placemark>
<Placemark>
<name>国道口</name>
<description></description>
<Point>
<coordinates>134.17832946777344,34.32048034667969,0</coordinates>
</Point>
</Placemark>
<Placemark>
<name>志度中学校前</name>
<description></description>
<Point>
<coordinates>134.17747497558594,34.316646575927734,0</coordinates>
</Point>
</Placemark>
<Placemark>
<name>藤村</name>
<description></description>
<Point>
<coordinates>134.173583984375,34.31525802612305,0</coordinates>
</Point>
</Placemark>
<Placemark>
<name>グリーンタウン</name>
<description></description>
<Point>
<coordinates>134.1694793701172,34.3116569519043,0</coordinates>
</Point>
</Placemark>
<Placemark>
<name>志度バスストップ</name>
<description></description>
<Point>
<coordinates>134.17779541015625,34.310855865478516,0</coordinates>
</Point>
</Placemark>
<Placemark>
<name>幸田</name>
<description></description>
<Point>
<coordinates>134.18032836914062,34.30610656738281,0</coordinates>
</Point>
</Placemark>
<Placemark>
<name>JRオレンジタウン駅</name>
<description></description>
<Point>
<coordinates>134.18048095703125,34.30229568481445,0</coordinates>
</Point>
</Placemark>
<Placemark>
<name>長行</name>
<description></description>
<Point>
<coordinates>134.1790313720703,34.29523468017578,0</coordinates>
</Point>
</Placemark>
<Placemark>
<name>日切地蔵</name>
<description></description>
<Point>
<coordinates>134.1762237548828,34.28787612915039,0</coordinates>
</Point>
</Placemark>
<Placemark>
<name>宮西</name>
<description></description>
<Point>
<coordinates>134.1758270263672,34.284889221191406,0</coordinates>
</Point>
</Placemark>
<Placemark>
<name>長尾支所西側</name>
<description></description>
<Point>
<coordinates>134.1759490966797,34.26486587524414,0</coordinates>
</Point>
</Placemark>
<Placemark>
<name>陵</name>
<description></description>
<Point>
<coordinates>134.17578125,34.2591552734375,0</coordinates>
</Point>
</Placemark>
<Placemark>
<name>亀鶴</name>
<description></description>
<Point>
<coordinates>134.17529296875,34.253353118896484,0</coordinates>
</Point>
</Placemark>
<Placemark>
<name>亀鶴公園</name>
<description></description>
<Point>
<coordinates>134.18194580078125,34.249855041503906,0</coordinates>
</Point>
</Placemark>
<Placemark>
<name>ツインパルながお</name>
<description></description>
<Point>
<coordinates>134.18653869628906,34.24843978881836,0</coordinates>
</Point>
</Placemark>
<Placemark>
<name>塚原橋</name>
<description></description>
<Point>
<coordinates>134.17381286621094,34.25102615356445,0</coordinates>
</Point>
</Placemark>
<Placemark>
<name>行基苑</name>
<description></description>
<Point>
<coordinates>134.1671905517578,34.24769592285156,0</coordinates>
</Point>
</Placemark>
<Placemark>
<name>屯所前</name>
<description></description>
<Point>
<coordinates>134.1725616455078,34.248104095458984,0</coordinates>
</Point>
</Placemark>
<Placemark>
<name>一心庵</name>
<description></description>
<Point>
<coordinates>134.17442321777344,34.24364471435547,0</coordinates>
</Point>
</Placemark>
<Placemark>
<name>市乃江</name>
<description></description>
<Point>
<coordinates>134.175048828125,34.238731384277344,0</coordinates>
</Point>
</Placemark>
<Placemark>
<name>大石</name>
<description></description>
<Point>
<coordinates>134.17269897460938,34.2346076965332,0</coordinates>
</Point>
</Placemark>
<Placemark>
<name>梅ヶ畑</name>
<description></description>
<Point>
<coordinates>134.17176818847656,34.230621337890625,0</coordinates>
</Point>
</Placemark>
<Placemark>
<name>下中津</name>
<description></description>
<Point>
<coordinates>134.17178344726562,34.223121643066406,0</coordinates>
</Point>
</Placemark>
<Placemark>
<name>道の駅ながお</name>
<description></description>
<Point>
<coordinates>134.17416381835938,34.22136306762695,0</coordinates>
</Point>
</Placemark>
<Placemark>
<name>来栖</name>
<description></description>
<Point>
<coordinates>134.17962646484375,34.22173309326172,0</coordinates>
</Point>
</Placemark>
<Placemark>
<name>山王</name>
<description></description>
<Point>
<coordinates>134.18374633789062,34.22068786621094,0</coordinates>
</Point>
</Placemark>
<Placemark>
<name>道面</name>
<description></description>
<Point>
<coordinates>134.18524169921875,34.215606689453125,0</coordinates>
</Point>
</Placemark>
<Placemark>
<name>肥多尾</name>
<description></description>
<Point>
<coordinates>134.18438720703125,34.2120246887207,0</coordinates>
</Point>
</Placemark>
<Placemark>
<name>大多和</name>
<description></description>
<Point>
<coordinates>134.18124389648438,34.210655212402344,0</coordinates>
</Point>
</Placemark>
<Placemark>
<name>額峠</name>
<description></description>
<Point>
<coordinates>134.17489624023438,34.197906494140625,0</coordinates>
</Point>
</Placemark>
<Placemark>
<name>牧場口</name>
<description></description>
<Point>
<coordinates>134.176025390625,34.19401550292969,0</coordinates>
</Point>
</Placemark>
<Placemark>
<name>助光</name>
<description></description>
<Point>
<coordinates>134.17477416992188,34.190731048583984,0</coordinates>
</Point>
</Placemark>
<Placemark>
<name>多和小学校前</name>
<description></description>
<Point>
<coordinates>134.17088317871094,34.18695831298828,0</coordinates>
</Point>
</Placemark>
<Placemark>
<name>東谷</name>
<description></description>
<Point>
<coordinates>134.17652893066406,34.18293380737305,0</coordinates>
</Point>
</Placemark>
<Placemark>
<name>竹屋敷</name>
<description></description>
<Point>
<coordinates>134.1859893798828,34.17649459838867,0</coordinates>
</Point>
</Placemark>
<Placemark>
<name>槇川</name>
<description></description>
<Point>
<coordinates>134.19085693359375,34.17621994018555,0</coordinates>
</Point>
</Placemark>
<Placemark>
<name>大窪寺</name>
<description></description>
<Point>
<coordinates>134.20664978027344,34.1903076171875,0</coordinates>
</Point>
</Placemark>
<Placemark>
<name>馬草</name>
<description></description>
<Point>
<coordinates>134.16676330566406,34.181304931640625,0</coordinates>
</Point>
</Placemark>
<Placemark>
<name>力石</name>
<description></description>
<Point>
<coordinates>134.16671752929688,34.177494049072266,0</coordinates>
</Point>
</Placemark>
<Placemark>
<name>上中山</name>
<description></description>
<Point>
<coordinates>134.1634521484375,34.17064666748047,0</coordinates>
</Point>
</Placemark>
<Placemark>
<name>中山</name>
<description></description>
<Point>
<coordinates>134.1555938720703,34.16891860961914,0</coordinates>
</Point>
</Placemark>
<Placemark>
<name>交流プラザ前</name>
<description></description>
<Point>
<coordinates>134.1737518310547,34.323917388916016,0</coordinates>
</Point>
</Placemark>
<Placemark>
<name>市場前</name>
<description></description>
<Point>
<coordinates>134.1754913330078,34.32399368286133,0</coordinates>
</Point>
</Placemark>
<Placemark>
<name>寺町</name>
<description></description>
<Point>
<coordinates>134.17794799804688,34.32442855834961,0</coordinates>
</Point>
</Placemark>
<Placemark>
<name>弁天</name>
<description></description>
<Point>
<coordinates>134.1859130859375,34.32707214355469,0</coordinates>
</Point>
</Placemark>
<Placemark>
<name>徳島文理大・音楽ホール口</name>
<description></description>
<Point>
<coordinates>134.191650390625,34.32612991333008,0</coordinates>
</Point>
</Placemark>
<Placemark>
<name>徳島文理大北口</name>
<description></description>
<Point>
<coordinates>134.1881866455078,34.328338623046875,0</coordinates>
</Point>
</Placemark>
<Placemark>
<name>小方峠口</name>
<description></description>
<Point>
<coordinates>134.19346618652344,34.33001708984375,0</coordinates>
</Point>
</Placemark>
<Placemark>
<name>鴨庄橋西側</name>
<description></description>
<Point>
<coordinates>134.2056121826172,34.32756042480469,0</coordinates>
</Point>
</Placemark>
<Placemark>
<name>小方漁村センター</name>
<description></description>
<Point>
<coordinates>134.1909637451172,34.332862854003906,0</coordinates>
</Point>
</Placemark>
<Placemark>
<name>昭和橋西側</name>
<description></description>
<Point>
<coordinates>134.1986083984375,34.33837127685547,0</coordinates>
</Point>
</Placemark>
<Placemark>
<name>大谷</name>
<description></description>
<Point>
<coordinates>134.20318603515625,34.3329963684082,0</coordinates>
</Point>
</Placemark>
<Placemark>
<name>長浜</name>
<description></description>
<Point>
<coordinates>134.20668029785156,34.34257507324219,0</coordinates>
</Point>
</Placemark>
<Placemark>
<name>大串温泉</name>
<description></description>
<Point>
<coordinates>134.2084197998047,34.36395263671875,0</coordinates>
</Point>
</Placemark>
<Placemark>
<name>鴨庄郵便局前</name>
<description></description>
<Point>
<coordinates>134.207275390625,34.32783889770508,0</coordinates>
</Point>
</Placemark>
<Placemark>
<name>生涯学習館</name>
<description></description>
<Point>
<coordinates>134.2107391357422,34.32862854003906,0</coordinates>
</Point>
</Placemark>
<Placemark>
<name>大井</name>
<description></description>
<Point>
<coordinates>134.21726989746094,34.33344650268555,0</coordinates>
</Point>
</Placemark>
<Placemark>
<name>日盛の里</name>
<description></description>
<Point>
<coordinates>134.22225952148438,34.33525848388672,0</coordinates>
</Point>
</Placemark>
<Placemark>
<name>苫張</name>
<description></description>
<Point>
<coordinates>134.2217559814453,34.345821380615234,0</coordinates>
</Point>
</Placemark>
<Placemark>
<name>興津海水浴場</name>
<description></description>
<Point>
<coordinates>134.22708129882812,34.340816497802734,0</coordinates>
</Point>
</Placemark>
<Placemark>
<name>興津口</name>
<description></description>
<Point>
<coordinates>134.22402954101562,34.3358154296875,0</coordinates>
</Point>
</Placemark>
<Placemark>
<name>堀切</name>
<description></description>
<Point>
<coordinates>134.2306365966797,34.337318420410156,0</coordinates>
</Point>
</Placemark>
<Placemark>
<name>西浜</name>
<description></description>
<Point>
<coordinates>134.2342529296875,34.33707046508789,0</coordinates>
</Point>
</Placemark>
<Placemark>
<name>小田</name>
<description></description>
<Point>
<coordinates>134.23658752441406,34.33705139160156,0</coordinates>
</Point>
</Placemark>
<Placemark>
<name>本小田</name>
<description></description>
<Point>
<coordinates>134.24057006835938,34.33849334716797,0</coordinates>
</Point>
</Placemark>
<Placemark>
<name>大空口</name>
<description></description>
<Point>
<coordinates>134.24378967285156,34.33723831176758,0</coordinates>
</Point>
</Placemark>
<Placemark>
<name>志度カントリークラブ口</name>
<description></description>
<Point>
<coordinates>134.24966430664062,34.337860107421875,0</coordinates>
</Point>
</Placemark>
<Placemark>
<name>三井団地</name>
<description></description>
<Point>
<coordinates>134.18283081054688,34.316524505615234,0</coordinates>
</Point>
</Placemark>
<Placemark>
<name>津村ハイツ</name>
<description></description>
<Point>
<coordinates>134.1862030029297,34.3134765625,0</coordinates>
</Point>
</Placemark>
<Placemark>
<name>志度南交流センター前</name>
<description></description>
<Point>
<coordinates>134.18780517578125,34.31169891357422,0</coordinates>
</Point>
</Placemark>
<Placemark>
<name>ニュータウン第3公園</name>
<description></description>
<Point>
<coordinates>134.1869354248047,34.30894088745117,0</coordinates>
</Point>
</Placemark>
<Placemark>
<name>末公民館</name>
<description></description>
<Point>
<coordinates>134.1934356689453,34.30400848388672,0</coordinates>
</Point>
</Placemark>
<Placemark>
<name>野間池</name>
<description></description>
<Point>
<coordinates>134.19700622558594,34.289791107177734,0</coordinates>
</Point>
</Placemark>
<Placemark>
<name>乙井橋</name>
<description></description>
<Point>
<coordinates>134.1968536376953,34.28529739379883,0</coordinates>
</Point>
</Placemark>
<Placemark>
<name>天王中学校前</name>
<description></description>
<Point>
<coordinates>134.2004852294922,34.270992279052734,0</coordinates>
</Point>
</Placemark>
<Placemark>
<name>香東園口</name>
<description></description>
<Point>
<coordinates>134.19483947753906,34.27703857421875,0</coordinates>
</Point>
</Placemark>
<Placemark>
<name>神前小学校前</name>
<description></description>
<Point>
<coordinates>134.2084197998047,34.28406524658203,0</coordinates>
</Point>
</Placemark>
<Placemark>
<name>藁屋道</name>
<description></description>
<Point>
<coordinates>134.20973205566406,34.286598205566406,0</coordinates>
</Point>
</Placemark>
<Placemark>
<name>中村</name>
<description></description>
<Point>
<coordinates>134.2135009765625,34.28788757324219,0</coordinates>
</Point>
</Placemark>
<Placemark>
<name>男山神社前</name>
<description></description>
<Point>
<coordinates>134.2174835205078,34.28965759277344,0</coordinates>
</Point>
</Placemark>
<Placemark>
<name>馬次道</name>
<description></description>
<Point>
<coordinates>134.223876953125,34.29207992553711,0</coordinates>
</Point>
</Placemark>
<Placemark>
<name>津田運動公園</name>
<description></description>
<Point>
<coordinates>134.23037719726562,34.292213439941406,0</coordinates>
</Point>
</Placemark>
<Placemark>
<name>川北</name>
<description></description>
<Point>
<coordinates>134.2374725341797,34.29034423828125,0</coordinates>
</Point>
</Placemark>
<Placemark>
<name>さわやか荘入口</name>
<description></description>
<Point>
<coordinates>134.23944091796875,34.29180145263672,0</coordinates>
</Point>
</Placemark>
<Placemark>
<name>猪塚</name>
<description></description>
<Point>
<coordinates>134.2607879638672,34.327449798583984,0</coordinates>
</Point>
</Placemark>
<Placemark>
<name>瀬ノ下</name>
<description></description>
<Point>
<coordinates>134.2616729736328,34.32398986816406,0</coordinates>
</Point>
</Placemark>
<Placemark>
<name>曽根</name>
<description></description>
<Point>
<coordinates>134.26283264160156,34.3207893371582,0</coordinates>
</Point>
</Placemark>
<Placemark>
<name>江泊</name>
<description></description>
<Point>
<coordinates>134.26193237304688,34.319549560546875,0</coordinates>
</Point>
</Placemark>
<Placemark>
<name>松尾</name>
<description></description>
<Point>
<coordinates>134.25875854492188,34.31632614135742,0</coordinates>
</Point>
</Placemark>
<Placemark>
<name>平畑</name>
<description></description>
<Point>
<coordinates>134.25086975097656,34.31168746948242,0</coordinates>
</Point>
</Placemark>
<Placemark>
<name>吉見</name>
<description></description>
<Point>
<coordinates>134.24571228027344,34.306373596191406,0</coordinates>
</Point>
</Placemark>
<Placemark>
<name>北原</name>
<description></description>
<Point>
<coordinates>134.24514770507812,34.3049201965332,0</coordinates>
</Point>
</Placemark>
<Placemark>
<name>三ツ星ベルト前</name>
<description></description>
<Point>
<coordinates>134.2456817626953,34.30175018310547,0</coordinates>
</Point>
</Placemark>
<Placemark>
<name>ふれあい会館</name>
<description></description>
<Point>
<coordinates>134.2461700439453,34.299781799316406,0</coordinates>
</Point>
</Placemark>
<Placemark>
<name>津田橋</name>
<description></description>
<Point>
<coordinates>134.24546813964844,34.29652786254883,0</coordinates>
</Point>
</Placemark>
<Placemark>
<name>琴林</name>
<description></description>
<Point>
<coordinates>134.25408935546875,34.28611755371094,0</coordinates>
</Point>
</Placemark>
<Placemark>
<name>クアパーク津田</name>
<description></description>
<Point>
<coordinates>134.25839233398438,34.28424072265625,0</coordinates>
</Point>
</Placemark>
<Placemark>
<name>鶴羽西町東</name>
<description></description>
<Point>
<coordinates>134.2611083984375,34.28163146972656,0</coordinates>
</Point>
</Placemark>
<Placemark>
<name>鶴羽郵便局</name>
<description></description>
<Point>
<coordinates>134.26492309570312,34.2814826965332,0</coordinates>
</Point>
</Placemark>
<Placemark>
<name>東部児童館</name>
<description></description>
<Point>
<coordinates>134.2682647705078,34.28261947631836,0</coordinates>
</Point>
</Placemark>
<Placemark>
<name>鶴羽幼稚園</name>
<description></description>
<Point>
<coordinates>134.26829528808594,34.28166198730469,0</coordinates>
</Point>
</Placemark>
<Placemark>
<name>岡ノ端東</name>
<description></description>
<Point>
<coordinates>134.27439880371094,34.28151321411133,0</coordinates>
</Point>
</Placemark>
<Placemark>
<name>中谷</name>
<description></description>
<Point>
<coordinates>134.279296875,34.27922439575195,0</coordinates>
</Point>
</Placemark>
<Placemark>
<name>大山上</name>
<description></description>
<Point>
<coordinates>134.28517150878906,34.269981384277344,0</coordinates>
</Point>
</Placemark>
<Placemark>
<name>大山</name>
<description></description>
<Point>
<coordinates>134.28628540039062,34.273651123046875,0</coordinates>
</Point>
</Placemark>
<Placemark>
<name>大川オアシス</name>
<description></description>
<Point>
<coordinates>134.28343200683594,34.27696228027344,0</coordinates>
</Point>
</Placemark>
<Placemark>
<name>JR鶴羽駅</name>
<description></description>
<Point>
<coordinates>134.27401733398438,34.28024673461914,0</coordinates>
</Point>
</Placemark>
<Placemark>
<name>天神</name>
<description></description>
<Point>
<coordinates>134.26779174804688,34.2768440246582,0</coordinates>
</Point>
</Placemark>
<Placemark>
<name>津田バストップ</name>
<description></description>
<Point>
<coordinates>134.2636260986328,34.2771110534668,0</coordinates>
</Point>
</Placemark>
<Placemark>
<name>鶴羽西町中</name>
<description></description>
<Point>
<coordinates>134.25814819335938,34.27786636352539,0</coordinates>
</Point>
</Placemark>
<Placemark>
<name>鶴羽西町西</name>
<description></description>
<Point>
<coordinates>134.26052856445312,34.28120422363281,0</coordinates>
</Point>
</Placemark>
<Placemark>
<name>津田道の駅</name>
<description></description>
<Point>
<coordinates>134.25270080566406,34.28543472290039,0</coordinates>
</Point>
</Placemark>
<Placemark>
<name>三豊市役所</name>
<description></description>
<Point>
<coordinates>133.71493530273438,34.18206787109375,0</coordinates>
</Point>
</Placemark>
<Placemark>
<name>マルナカ高瀬店</name>
<description></description>
<Point>
<coordinates>133.71685791015625,34.1812744140625,0</coordinates>
</Point>
</Placemark>
<Placemark>
<name>小野歯科医院</name>
<description></description>
<Point>
<coordinates>133.71763610839844,34.183189392089844,0</coordinates>
</Point>
</Placemark>
<Placemark>
<name>白井眼科</name>
<description></description>
<Point>
<coordinates>133.71824645996094,34.18696594238281,0</coordinates>
</Point>
</Placemark>
<Placemark>
<name>高瀬第一医院</name>
<description></description>
<Point>
<coordinates>133.7198486328125,34.189937591552734,0</coordinates>
</Point>
</Placemark>
<Placemark>
<name>井出</name>
<description></description>
<Point>
<coordinates>133.7282257080078,34.19156265258789,0</coordinates>
</Point>
</Placemark>
<Placemark>
<name>たかせ天然温泉</name>
<description></description>
<Point>
<coordinates>133.73057556152344,34.19668197631836,0</coordinates>
</Point>
</Placemark>
<Placemark>
<name>西村</name>
<description></description>
<Point>
<coordinates>133.73251342773438,34.19361114501953,0</coordinates>
</Point>
</Placemark>
<Placemark>
<name>北原</name>
<description></description>
<Point>
<coordinates>133.7346954345703,34.19639205932617,0</coordinates>
</Point>
</Placemark>
<Placemark>
<name>上之荘</name>
<description></description>
<Point>
<coordinates>133.73748779296875,34.198307037353516,0</coordinates>
</Point>
</Placemark>
<Placemark>
<name>石淵</name>
<description></description>
<Point>
<coordinates>133.74378967285156,34.199134826660156,0</coordinates>
</Point>
</Placemark>
<Placemark>
<name>中浦</name>
<description></description>
<Point>
<coordinates>133.73719787597656,34.19486999511719,0</coordinates>
</Point>
</Placemark>
<Placemark>
<name>末</name>
<description></description>
<Point>
<coordinates>133.7438201904297,34.18870544433594,0</coordinates>
</Point>
</Placemark>
<Placemark>
<name>西ノ側</name>
<description></description>
<Point>
<coordinates>133.74928283691406,34.18376922607422,0</coordinates>
</Point>
</Placemark>
<Placemark>
<name>本谷</name>
<description></description>
<Point>
<coordinates>133.75241088867188,34.18367385864258,0</coordinates>
</Point>
</Placemark>
<Placemark>
<name>五歩田</name>
<description></description>
<Point>
<coordinates>133.75808715820312,34.186519622802734,0</coordinates>
</Point>
</Placemark>
<Placemark>
<name>西ノ脇</name>
<description></description>
<Point>
<coordinates>133.76170349121094,34.19285202026367,0</coordinates>
</Point>
</Placemark>
<Placemark>
<name>浦側</name>
<description></description>
<Point>
<coordinates>133.76651000976562,34.1937255859375,0</coordinates>
</Point>
</Placemark>
<Placemark>
<name>前側</name>
<description></description>
<Point>
<coordinates>133.77061462402344,34.189598083496094,0</coordinates>
</Point>
</Placemark>
<Placemark>
<name>大吉</name>
<description></description>
<Point>
<coordinates>133.7791748046875,34.18733596801758,0</coordinates>
</Point>
</Placemark>
<Placemark>
<name>石舟</name>
<description></description>
<Point>
<coordinates>133.78175354003906,34.182437896728516,0</coordinates>
</Point>
</Placemark>
<Placemark>
<name>椛ノ木</name>
<description></description>
<Point>
<coordinates>133.7858123779297,34.176639556884766,0</coordinates>
</Point>
</Placemark>
<Placemark>
<name>上栂</name>
<description></description>
<Point>
<coordinates>133.79608154296875,34.17692184448242,0</coordinates>
</Point>
</Placemark>
<Placemark>
<name>琴浦</name>
<description></description>
<Point>
<coordinates>133.8011016845703,34.17572784423828,0</coordinates>
</Point>
</Placemark>
<Placemark>
<name>原下</name>
<description></description>
<Point>
<coordinates>133.8028106689453,34.17069625854492,0</coordinates>
</Point>
</Placemark>
<Placemark>
<name>良心市たかせ</name>
<description></description>
<Point>
<coordinates>133.79225158691406,34.17000198364258,0</coordinates>
</Point>
</Placemark>
<Placemark>
<name>樫谷</name>
<description></description>
<Point>
<coordinates>133.77813720703125,34.170082092285156,0</coordinates>
</Point>
</Placemark>
<Placemark>
<name>東善</name>
<description></description>
<Point>
<coordinates>133.77366638183594,34.172950744628906,0</coordinates>
</Point>
</Placemark>
<Placemark>
<name>西森</name>
<description></description>
<Point>
<coordinates>133.7684326171875,34.17441940307617,0</coordinates>
</Point>
</Placemark>
<Placemark>
<name>麻農構センター</name>
<description></description>
<Point>
<coordinates>133.7679901123047,34.176795959472656,0</coordinates>
</Point>
</Placemark>
<Placemark>
<name>荒山</name>
<description></description>
<Point>
<coordinates>133.76206970214844,34.17570877075195,0</coordinates>
</Point>
</Placemark>
<Placemark>
<name>あさの市</name>
<description></description>
<Point>
<coordinates>133.75579833984375,34.174949645996094,0</coordinates>
</Point>
</Placemark>
<Placemark>
<name>杉庄</name>
<description></description>
<Point>
<coordinates>133.7489013671875,34.17131423950195,0</coordinates>
</Point>
</Placemark>
<Placemark>
<name>本村</name>
<description></description>
<Point>
<coordinates>133.74545288085938,34.16829299926758,0</coordinates>
</Point>
</Placemark>
<Placemark>
<name>二ノ宮農構センター</name>
<description></description>
<Point>
<coordinates>133.73825073242188,34.160316467285156,0</coordinates>
</Point>
</Placemark>
<Placemark>
<name>山地</name>
<description></description>
<Point>
<coordinates>133.73422241210938,34.16499328613281,0</coordinates>
</Point>
</Placemark>
<Placemark>
<name>郷ノ岡</name>
<description></description>
<Point>
<coordinates>133.73377990722656,34.168182373046875,0</coordinates>
</Point>
</Placemark>
<Placemark>
<name>矢ノ岡</name>
<description></description>
<Point>
<coordinates>133.7342987060547,34.17285919189453,0</coordinates>
</Point>
</Placemark>
<Placemark>
<name>安藤内科医院</name>
<description></description>
<Point>
<coordinates>133.72869873046875,34.17619705200195,0</coordinates>
</Point>
</Placemark>
<Placemark>
<name>下土井</name>
<description></description>
<Point>
<coordinates>133.72398376464844,34.1788444519043,0</coordinates>
</Point>
</Placemark>
<Placemark>
<name>高瀬中学校前</name>
<description></description>
<Point>
<coordinates>133.72109985351562,34.178924560546875,0</coordinates>
</Point>
</Placemark>
<Placemark>
<name>森川整形外科病院</name>
<description></description>
<Point>
<coordinates>133.7166748046875,34.17793655395508,0</coordinates>
</Point>
</Placemark>
<Placemark>
<name>高瀬高校口</name>
<description></description>
<Point>
<coordinates>133.71636962890625,34.17630386352539,0</coordinates>
</Point>
</Placemark>
<Placemark>
<name>道音寺</name>
<description></description>
<Point>
<coordinates>133.71148681640625,34.17387771606445,0</coordinates>
</Point>
</Placemark>
<Placemark>
<name>西香川病院</name>
<description></description>
<Point>
<coordinates>133.70176696777344,34.174808502197266,0</coordinates>
</Point>
</Placemark>
<Placemark>
<name>新町</name>
<description></description>
<Point>
<coordinates>133.70889282226562,34.180667877197266,0</coordinates>
</Point>
</Placemark>
<Placemark>
<name>高瀬駅</name>
<description></description>
<Point>
<coordinates>133.7113494873047,34.183624267578125,0</coordinates>
</Point>
</Placemark>
<Placemark>
<name>高橋ヒフ科医院</name>
<description></description>
<Point>
<coordinates>133.71543884277344,34.18593978881836,0</coordinates>
</Point>
</Placemark>
<Placemark>
<name>新名</name>
<description></description>
<Point>
<coordinates>133.711669921875,34.18860626220703,0</coordinates>
</Point>
</Placemark>
<Placemark>
<name>西下</name>
<description></description>
<Point>
<coordinates>133.70413208007812,34.192256927490234,0</coordinates>
</Point>
</Placemark>
<Placemark>
<name>宗吉</name>
<description></description>
<Point>
<coordinates>133.7011260986328,34.19547653198242,0</coordinates>
</Point>
</Placemark>
<Placemark>
<name>西浜</name>
<description></description>
<Point>
<coordinates>133.69947814941406,34.197967529296875,0</coordinates>
</Point>
</Placemark>
<Placemark>
<name>JA下高瀬支店</name>
<description></description>
<Point>
<coordinates>133.7003173828125,34.200843811035156,0</coordinates>
</Point>
</Placemark>
<Placemark>
<name>三野庁舎</name>
<description></description>
<Point>
<coordinates>133.70648193359375,34.20234680175781,0</coordinates>
</Point>
</Placemark>
<Placemark>
<name>東浜</name>
<description></description>
<Point>
<coordinates>133.70193481445312,34.207210540771484,0</coordinates>
</Point>
</Placemark>
<Placemark>
<name>みずた内科</name>
<description></description>
<Point>
<coordinates>133.69578552246094,34.21770477294922,0</coordinates>
</Point>
</Placemark>
<Placemark>
<name>詫間駅</name>
<description></description>
<Point>
<coordinates>133.69239807128906,34.220951080322266,0</coordinates>
</Point>
</Placemark>
<Placemark>
<name>岩崎病院</name>
<description></description>
<Point>
<coordinates>133.69039916992188,34.21982955932617,0</coordinates>
</Point>
</Placemark>
<Placemark>
<name>マルナカ詫間店</name>
<description></description>
<Point>
<coordinates>133.68490600585938,34.21880340576172,0</coordinates>
</Point>
</Placemark>
<Placemark>
<name>的場</name>
<description></description>
<Point>
<coordinates>133.6822967529297,34.219181060791016,0</coordinates>
</Point>
</Placemark>
<Placemark>
<name>蟻の首</name>
<description></description>
<Point>
<coordinates>133.6769561767578,34.2186164855957,0</coordinates>
</Point>
</Placemark>
<Placemark>
<name>永康病院</name>
<description></description>
<Point>
<coordinates>133.67312622070312,34.21812438964844,0</coordinates>
</Point>
</Placemark>
<Placemark>
<name>詫間庁舎</name>
<description></description>
<Point>
<coordinates>133.674072265625,34.22101593017578,0</coordinates>
</Point>
</Placemark>
<Placemark>
<name>マルナカ浜田店</name>
<description></description>
<Point>
<coordinates>133.6654052734375,34.228328704833984,0</coordinates>
</Point>
</Placemark>
<Placemark>
<name>本村中</name>
<description></description>
<Point>
<coordinates>133.6602020263672,34.2265739440918,0</coordinates>
</Point>
</Placemark>
<Placemark>
<name>本村</name>
<description></description>
<Point>
<coordinates>133.66156005859375,34.223876953125,0</coordinates>
</Point>
</Placemark>
<Placemark>
<name>本村上</name>
<description></description>
<Point>
<coordinates>133.65744018554688,34.2215576171875,0</coordinates>
</Point>
</Placemark>
<Placemark>
<name>詫開越</name>
<description></description>
<Point>
<coordinates>133.6500701904297,34.2125358581543,0</coordinates>
</Point>
</Placemark>
<Placemark>
<name>朝日</name>
<description></description>
<Point>
<coordinates>133.64657592773438,34.21006774902344,0</coordinates>
</Point>
</Placemark>
<Placemark>
<name>大北</name>
<description></description>
<Point>
<coordinates>133.644775390625,34.20635986328125,0</coordinates>
</Point>
</Placemark>
<Placemark>
<name>平石幼稚園前</name>
<description></description>
<Point>
<coordinates>133.6500244140625,34.204036712646484,0</coordinates>
</Point>
</Placemark>
<Placemark>
<name>仁尾小学校前</name>
<description></description>
<Point>
<coordinates>133.65023803710938,34.202388763427734,0</coordinates>
</Point>
</Placemark>
<Placemark>
<name>仁尾町文化会館</name>
<description></description>
<Point>
<coordinates>133.6458740234375,34.20013427734375,0</coordinates>
</Point>
</Placemark>
<Placemark>
<name>仁尾南</name>
<description></description>
<Point>
<coordinates>133.64617919921875,34.19892120361328,0</coordinates>
</Point>
</Placemark>
<Placemark>
<name>仁尾庁舎</name>
<description></description>
<Point>
<coordinates>133.6452178955078,34.19688034057617,0</coordinates>
</Point>
</Placemark>
<Placemark>
<name>仁尾郵便局</name>
<description></description>
<Point>
<coordinates>133.64361572265625,34.20075607299805,0</coordinates>
</Point>
</Placemark>
<Placemark>
<name>賀茂神社</name>
<description></description>
<Point>
<coordinates>133.64273071289062,34.20399856567383,0</coordinates>
</Point>
</Placemark>
<Placemark>
<name>仁尾マリーナ口</name>
<description></description>
<Point>
<coordinates>133.6412353515625,34.207279205322266,0</coordinates>
</Point>
</Placemark>
<Placemark>
<name>古江</name>
<description></description>
<Point>
<coordinates>133.63735961914062,34.209434509277344,0</coordinates>
</Point>
</Placemark>
<Placemark>
<name>家の浦</name>
<description></description>
<Point>
<coordinates>133.62522888183594,34.21644592285156,0</coordinates>
</Point>
</Placemark>
<Placemark>
<name>名部戸</name>
<description></description>
<Point>
<coordinates>133.61813354492188,34.22141647338867,0</coordinates>
</Point>
</Placemark>
<Placemark>
<name>鴨之越</name>
<description></description>
<Point>
<coordinates>133.61270141601562,34.22642135620117,0</coordinates>
</Point>
</Placemark>
<Placemark>
<name>大浜南</name>
<description></description>
<Point>
<coordinates>133.6087188720703,34.23023223876953,0</coordinates>
</Point>
</Placemark>
<Placemark>
<name>大浜</name>
<description></description>
<Point>
<coordinates>133.6103515625,34.233642578125,0</coordinates>
</Point>
</Placemark>
<Placemark>
<name>三豊工業高校前</name>
<description></description>
<Point>
<coordinates>133.64662170410156,34.07926559448242,0</coordinates>
</Point>
</Placemark>
<Placemark>
<name>瀬後</name>
<description></description>
<Point>
<coordinates>133.6590118408203,34.08232879638672,0</coordinates>
</Point>
</Placemark>
<Placemark>
<name>大野原中央公民館</name>
<description></description>
<Point>
<coordinates>133.66371154785156,34.084510803222656,0</coordinates>
</Point>
</Placemark>
<Placemark>
<name>大野原中学校口</name>
<description></description>
<Point>
<coordinates>133.66836547851562,34.08623123168945,0</coordinates>
</Point>
</Placemark>
<Placemark>
<name>中姫中央</name>
<description></description>
<Point>
<coordinates>133.67306518554688,34.08952713012695,0</coordinates>
</Point>
</Placemark>
<Placemark>
<name>青岡</name>
<description></description>
<Point>
<coordinates>133.68093872070312,34.09103012084961,0</coordinates>
</Point>
</Placemark>
<Placemark>
<name>丸井北</name>
<description></description>
<Point>
<coordinates>133.69041442871094,34.09348678588867,0</coordinates>
</Point>
</Placemark>
<Placemark>
<name>粟井</name>
<description></description>
<Point>
<coordinates>133.69668579101562,34.09678649902344,0</coordinates>
</Point>
</Placemark>
<Placemark>
<name>新田</name>
<description></description>
<Point>
<coordinates>133.7036590576172,34.10430908203125,0</coordinates>
</Point>
</Placemark>
<Placemark>
<name>三谷</name>
<description></description>
<Point>
<coordinates>133.7156524658203,34.10991668701172,0</coordinates>
</Point>
</Placemark>
<Placemark>
<name>池の向</name>
<description></description>
<Point>
<coordinates>133.7197723388672,34.111671447753906,0</coordinates>
</Point>
</Placemark>
<Placemark>
<name>山本東</name>
<description></description>
<Point>
<coordinates>133.726318359375,34.11421585083008,0</coordinates>
</Point>
</Placemark>
<Placemark>
<name>山本庁舎</name>
<description></description>
<Point>
<coordinates>133.7246856689453,34.11862564086914,0</coordinates>
</Point>
</Placemark>
<Placemark>
<name>マルナカ山本店</name>
<description></description>
<Point>
<coordinates>133.7222900390625,34.11973190307617,0</coordinates>
</Point>
</Placemark>
<Placemark>
<name>しのはら医院</name>
<description></description>
<Point>
<coordinates>133.72203063964844,34.12100601196289,0</coordinates>
</Point>
</Placemark>
<Placemark>
<name>西中</name>
<description></description>
<Point>
<coordinates>133.73402404785156,34.11798095703125,0</coordinates>
</Point>
</Placemark>
<Placemark>
<name>橋本病院</name>
<description></description>
<Point>
<coordinates>133.7358856201172,34.11783981323242,0</coordinates>
</Point>
</Placemark>
<Placemark>
<name>JA宝山支店</name>
<description></description>
<Point>
<coordinates>133.7410430908203,34.120121002197266,0</coordinates>
</Point>
</Placemark>
<Placemark>
<name>長瀬</name>
<description></description>
<Point>
<coordinates>133.7451934814453,34.12409210205078,0</coordinates>
</Point>
</Placemark>
<Placemark>
<name>砂古</name>
<description></description>
<Point>
<coordinates>133.75387573242188,34.12884521484375,0</coordinates>
</Point>
</Placemark>
<Placemark>
<name>中屋敷</name>
<description></description>
<Point>
<coordinates>133.7602996826172,34.132606506347656,0</coordinates>
</Point>
</Placemark>
<Placemark>
<name>大坪</name>
<description></description>
<Point>
<coordinates>133.7645721435547,34.1358642578125,0</coordinates>
</Point>
</Placemark>
<Placemark>
<name>砂川</name>
<description></description>
<Point>
<coordinates>133.76812744140625,34.139461517333984,0</coordinates>
</Point>
</Placemark>
<Placemark>
<name>神田定住センター</name>
<description></description>
<Point>
<coordinates>133.77127075195312,34.14179229736328,0</coordinates>
</Point>
</Placemark>
<Placemark>
<name>神田工業団地</name>
<description></description>
<Point>
<coordinates>133.77618408203125,34.144813537597656,0</coordinates>
</Point>
</Placemark>
<Placemark>
<name>土井</name>
<description></description>
<Point>
<coordinates>133.77926635742188,34.14719772338867,0</coordinates>
</Point>
</Placemark>
<Placemark>
<name>田の口</name>
<description></description>
<Point>
<coordinates>133.78253173828125,34.151058197021484,0</coordinates>
</Point>
</Placemark>
<Placemark>
<name>南立石</name>
<description></description>
<Point>
<coordinates>133.7860870361328,34.15276336669922,0</coordinates>
</Point>
</Placemark>
<Placemark>
<name>立石</name>
<description></description>
<Point>
<coordinates>133.78965759277344,34.15538024902344,0</coordinates>
</Point>
</Placemark>
<Placemark>
<name>北立石</name>
<description></description>
<Point>
<coordinates>133.79530334472656,34.15985870361328,0</coordinates>
</Point>
</Placemark>
<Placemark>
<name>佐文</name>
<description></description>
<Point>
<coordinates>133.81248474121094,34.17197036743164,0</coordinates>
</Point>
</Placemark>
<Placemark>
<name>いこいの郷公園</name>
<description></description>
<Point>
<coordinates>133.81809997558594,34.17757034301758,0</coordinates>
</Point>
</Placemark>
<Placemark>
<name>買田</name>
<description></description>
<Point>
<coordinates>133.8250732421875,34.18021774291992,0</coordinates>
</Point>
</Placemark>
<Placemark>
<name>琴電琴平駅</name>
<description></description>
<Point>
<coordinates>133.8191680908203,34.19069290161133,0</coordinates>
</Point>
</Placemark>