<?xml version="1.0" encoding="UTF-8" ?>
<gpx xmlns="http://www.topografix.com/GPX/1/1" version="1.1" creator="osmtracker-android" xmlns:xsi="http://www.w3.org/2001/XMLSchema-instance" xsi:schemaLocation="http://www.topografix.com/GPX/1/1 http://www.topografix.com/GPX/1/1/gpx.xsd ">
<metadata>
<name><![CDATA[バス停 : 高知]]></name>
<desc><![CDATA[国土数値情報に基づく]]></desc>
</metadata>
<wpt lat="33.56773376464844" lon="133.54408264160156">
 <time>2015-12-06T02:24:46ZZ</time>
 <name><![CDATA[新高知駅バスターミナル]]></name>
</wpt>

<wpt lat="33.55952835083008" lon="133.54330444335938">
 <time>2015-12-06T02:24:46ZZ</time>
 <name><![CDATA[はりまや橋バス停デンテツターミナル前]]></name>
</wpt>

<wpt lat="33.559288024902344" lon="133.5465850830078">
 <time>2015-12-06T02:24:46ZZ</time>
 <name><![CDATA[はりまや橋バス停はりまや観光バスターミナル]]></name>
</wpt>

<wpt lat="33.559303283691406" lon="133.5443572998047">
 <time>2015-12-06T02:24:46ZZ</time>
 <name><![CDATA[はりまや橋得月櫻前]]></name>
</wpt>

<wpt lat="33.76968002319336" lon="133.65994262695312">
 <time>2015-12-06T02:24:46ZZ</time>
 <name><![CDATA[大豊バス停]]></name>
</wpt>

<wpt lat="33.76975631713867" lon="133.66053771972656">
 <time>2015-12-06T02:24:46ZZ</time>
 <name><![CDATA[大豊]]></name>
</wpt>

<wpt lat="33.55837631225586" lon="133.55621337890625">
 <time>2015-12-06T02:24:46ZZ</time>
 <name><![CDATA[知寄町一丁目]]></name>
</wpt>

<wpt lat="33.561767578125" lon="133.5431365966797">
 <time>2015-12-06T02:24:46ZZ</time>
 <name><![CDATA[はりまや橋]]></name>
</wpt>

<wpt lat="33.56773376464844" lon="133.54408264160156">
 <time>2015-12-06T02:24:46ZZ</time>
 <name><![CDATA[高知駅]]></name>
</wpt>

<wpt lat="33.56603240966797" lon="133.5444793701172">
 <time>2015-12-06T02:24:46ZZ</time>
 <name><![CDATA[高知駅]]></name>
</wpt>

<wpt lat="33.58160400390625" lon="133.56610107421875">
 <time>2015-12-06T02:24:46ZZ</time>
 <name><![CDATA[一宮高知営業所]]></name>
</wpt>

<wpt lat="33.55826950073242" lon="133.5574493408203">
 <time>2015-12-06T02:24:46ZZ</time>
 <name><![CDATA[知寄町一丁目]]></name>
</wpt>

<wpt lat="33.56149673461914" lon="133.54310607910156">
 <time>2015-12-06T02:24:46ZZ</time>
 <name><![CDATA[はりまや橋]]></name>
</wpt>

<wpt lat="33.56603240966797" lon="133.5444793701172">
 <time>2015-12-06T02:24:46ZZ</time>
 <name><![CDATA[高知駅バスターミナル]]></name>
</wpt>

<wpt lat="33.55944061279297" lon="133.5447540283203">
 <time>2015-12-06T02:24:46ZZ</time>
 <name><![CDATA[はりまやばし]]></name>
</wpt>

<wpt lat="32.98702621459961" lon="132.94590759277344">
 <time>2015-12-06T02:24:46ZZ</time>
 <name><![CDATA[高知西南交通本社]]></name>
</wpt>

<wpt lat="33.250125885009766" lon="134.1797332763672">
 <time>2015-12-06T02:24:46ZZ</time>
 <name><![CDATA[岬]]></name>
</wpt>

<wpt lat="33.25745391845703" lon="134.1811065673828">
 <time>2015-12-06T02:24:46ZZ</time>
 <name><![CDATA[高岡]]></name>
</wpt>

<wpt lat="33.29180145263672" lon="134.18597412109375">
 <time>2015-12-06T02:24:46ZZ</time>
 <name><![CDATA[三津]]></name>
</wpt>

<wpt lat="33.394412994384766" lon="134.20614624023438">
 <time>2015-12-06T02:24:46ZZ</time>
 <name><![CDATA[佐喜浜]]></name>
</wpt>

<wpt lat="33.50324630737305" lon="134.26930236816406">
 <time>2015-12-06T02:24:46ZZ</time>
 <name><![CDATA[野根]]></name>
</wpt>

<wpt lat="33.52726745605469" lon="134.280029296875">
 <time>2015-12-06T02:24:46ZZ</time>
 <name><![CDATA[生見]]></name>
</wpt>

<wpt lat="33.58205032348633" lon="133.56626892089844">
 <time>2015-12-06T02:24:46ZZ</time>
 <name><![CDATA[一宮営業所]]></name>
</wpt>

<wpt lat="33.56745910644531" lon="133.5445556640625">
 <time>2015-12-06T02:24:46ZZ</time>
 <name><![CDATA[高知駅]]></name>
</wpt>

<wpt lat="33.52726745605469" lon="134.280029296875">
 <time>2015-12-06T02:24:46ZZ</time>
 <name><![CDATA[生見（東洋町役場）]]></name>
</wpt>

<wpt lat="33.55048370361328" lon="134.3048095703125">
 <time>2015-12-06T02:24:46ZZ</time>
 <name><![CDATA[水床トンネル口]]></name>
</wpt>

<wpt lat="33.54915237426758" lon="134.30282592773438">
 <time>2015-12-06T02:24:46ZZ</time>
 <name><![CDATA[甲浦造船所前]]></name>
</wpt>

<wpt lat="33.548377990722656" lon="134.30120849609375">
 <time>2015-12-06T02:24:46ZZ</time>
 <name><![CDATA[甲浦東]]></name>
</wpt>

<wpt lat="33.54786682128906" lon="134.2979278564453">
 <time>2015-12-06T02:24:46ZZ</time>
 <name><![CDATA[甲浦]]></name>
</wpt>

<wpt lat="33.54802322387695" lon="134.29678344726562">
 <time>2015-12-06T02:24:46ZZ</time>
 <name><![CDATA[甲浦西]]></name>
</wpt>

<wpt lat="33.54639434814453" lon="134.29562377929688">
 <time>2015-12-06T02:24:46ZZ</time>
 <name><![CDATA[甲浦学校前]]></name>
</wpt>

<wpt lat="33.543914794921875" lon="134.2953643798828">
 <time>2015-12-06T02:24:46ZZ</time>
 <name><![CDATA[甲浦口]]></name>
</wpt>

<wpt lat="33.54703903198242" lon="134.28848266601562">
 <time>2015-12-06T02:24:46ZZ</time>
 <name><![CDATA[甲浦駅前]]></name>
</wpt>

<wpt lat="33.576995849609375" lon="133.56112670898438">
 <time>2015-12-06T02:24:46ZZ</time>
 <name><![CDATA[高知インター南BT]]></name>
</wpt>

<wpt lat="33.39241027832031" lon="133.2926483154297">
 <time>2015-12-06T02:24:46ZZ</time>
 <name><![CDATA[須崎駅]]></name>
</wpt>

<wpt lat="33.559356689453125" lon="133.46603393554688">
 <time>2015-12-06T02:24:46ZZ</time>
 <name><![CDATA[いのインター口]]></name>
</wpt>

<wpt lat="33.5526123046875" lon="133.4904022216797">
 <time>2015-12-06T02:24:46ZZ</time>
 <name><![CDATA[高知大学北口]]></name>
</wpt>

<wpt lat="33.55555725097656" lon="133.50552368164062">
 <time>2015-12-06T02:24:46ZZ</time>
 <name><![CDATA[高知旭町三丁目]]></name>
</wpt>

<wpt lat="33.55824279785156" lon="133.5328826904297">
 <time>2015-12-06T02:24:46ZZ</time>
 <name><![CDATA[高知県庁前]]></name>
</wpt>

<wpt lat="32.965782165527344" lon="132.69798278808594">
 <time>2015-12-06T02:24:46ZZ</time>
 <name><![CDATA[小川]]></name>
</wpt>

<wpt lat="32.959312438964844" lon="132.70730590820312">
 <time>2015-12-06T02:24:46ZZ</time>
 <name><![CDATA[長畑]]></name>
</wpt>

<wpt lat="32.950992584228516" lon="132.71780395507812">
 <time>2015-12-06T02:24:46ZZ</time>
 <name><![CDATA[野地橋]]></name>
</wpt>

<wpt lat="32.93585968017578" lon="132.72109985351562">
 <time>2015-12-06T02:24:46ZZ</time>
 <name><![CDATA[宿毛郵便局前]]></name>
</wpt>

<wpt lat="32.93844985961914" lon="132.7308807373047">
 <time>2015-12-06T02:24:46ZZ</time>
 <name><![CDATA[文教センター]]></name>
</wpt>

<wpt lat="32.93783950805664" lon="132.72836303710938">
 <time>2015-12-06T02:24:46ZZ</time>
 <name><![CDATA[宿毛営業所]]></name>
</wpt>

<wpt lat="33.56654739379883" lon="133.54356384277344">
 <time>2015-12-06T02:24:46ZZ</time>
 <name><![CDATA[高知駅バスターミナル]]></name>
</wpt>

<wpt lat="33.56627655029297" lon="133.53915405273438">
 <time>2015-12-06T02:24:46ZZ</time>
 <name><![CDATA[北本町一丁目]]></name>
</wpt>

<wpt lat="33.5661506652832" lon="133.53680419921875">
 <time>2015-12-06T02:24:46ZZ</time>
 <name><![CDATA[愛宕一丁目]]></name>
</wpt>

<wpt lat="33.56569290161133" lon="133.53367614746094">
 <time>2015-12-06T02:24:46ZZ</time>
 <name><![CDATA[洞ヶ島公園]]></name>
</wpt>

<wpt lat="33.56501388549805" lon="133.5312042236328">
 <time>2015-12-06T02:24:46ZZ</time>
 <name><![CDATA[入明町分かれ]]></name>
</wpt>

<wpt lat="33.56349563598633" lon="133.5279083251953">
 <time>2015-12-06T02:24:46ZZ</time>
 <name><![CDATA[法務局前]]></name>
</wpt>

<wpt lat="33.56112289428711" lon="133.52679443359375">
 <time>2015-12-06T02:24:46ZZ</time>
 <name><![CDATA[城西公園西]]></name>
</wpt>

<wpt lat="33.55885314941406" lon="133.52699279785156">
 <time>2015-12-06T02:24:46ZZ</time>
 <name><![CDATA[升形商店街]]></name>
</wpt>

<wpt lat="33.558834075927734" lon="133.52955627441406">
 <time>2015-12-06T02:24:46ZZ</time>
 <name><![CDATA[裁判所前]]></name>
</wpt>

<wpt lat="33.55921173095703" lon="133.53192138671875">
 <time>2015-12-06T02:24:46ZZ</time>
 <name><![CDATA[県庁]]></name>
</wpt>

<wpt lat="33.55939483642578" lon="133.53292846679688">
 <time>2015-12-06T02:24:46ZZ</time>
 <name><![CDATA[高知城土佐二十四万石博会場前]]></name>
</wpt>

<wpt lat="33.56086349487305" lon="133.53514099121094">
 <time>2015-12-06T02:24:46ZZ</time>
 <name><![CDATA[ひろめ市場前]]></name>
</wpt>

<wpt lat="33.56127166748047" lon="133.53688049316406">
 <time>2015-12-06T02:24:46ZZ</time>
 <name><![CDATA[追手前高校前]]></name>
</wpt>

<wpt lat="33.56163787841797" lon="133.5384979248047">
 <time>2015-12-06T02:24:46ZZ</time>
 <name><![CDATA[追手筋一丁目]]></name>
</wpt>

<wpt lat="33.56214904785156" lon="133.5414276123047">
 <time>2015-12-06T02:24:46ZZ</time>
 <name><![CDATA[追手前公園前]]></name>
</wpt>

<wpt lat="33.56439971923828" lon="133.54351806640625">
 <time>2015-12-06T02:24:46ZZ</time>
 <name><![CDATA[高知橋]]></name>
</wpt>

<wpt lat="33.50056457519531" lon="133.90904235839844">
 <time>2015-12-06T02:24:46ZZ</time>
 <name><![CDATA[本町一丁目]]></name>
</wpt>

<wpt lat="33.50010299682617" lon="133.9112091064453">
 <time>2015-12-06T02:24:46ZZ</time>
 <name><![CDATA[港町]]></name>
</wpt>

<wpt lat="33.49797058105469" lon="133.91787719726562">
 <time>2015-12-06T02:24:46ZZ</time>
 <name><![CDATA[栄町]]></name>
</wpt>

<wpt lat="33.50177001953125" lon="133.92515563964844">
 <time>2015-12-06T02:24:46ZZ</time>
 <name><![CDATA[川北農協前]]></name>
</wpt>

<wpt lat="33.50592041015625" lon="133.93675231933594">
 <time>2015-12-06T02:24:46ZZ</time>
 <name><![CDATA[東の岡]]></name>
</wpt>

<wpt lat="33.508079528808594" lon="133.9463653564453">
 <time>2015-12-06T02:24:46ZZ</time>
 <name><![CDATA[古戸]]></name>
</wpt>

<wpt lat="33.5278205871582" lon="133.95314025878906">
 <time>2015-12-06T02:24:46ZZ</time>
 <name><![CDATA[奈比賀]]></name>
</wpt>

<wpt lat="33.554012298583984" lon="133.94284057617188">
 <time>2015-12-06T02:24:46ZZ</time>
 <name><![CDATA[こまどり]]></name>
</wpt>

<wpt lat="33.55638122558594" lon="133.95872497558594">
 <time>2015-12-06T02:24:46ZZ</time>
 <name><![CDATA[入河内]]></name>
</wpt>

<wpt lat="33.562591552734375" lon="133.9705352783203">
 <time>2015-12-06T02:24:46ZZ</time>
 <name><![CDATA[黒瀬]]></name>
</wpt>

<wpt lat="33.580753326416016" lon="133.97991943359375">
 <time>2015-12-06T02:24:46ZZ</time>
 <name><![CDATA[大井]]></name>
</wpt>

<wpt lat="33.634033203125" lon="134.0062713623047">
 <time>2015-12-06T02:24:46ZZ</time>
 <name><![CDATA[古井小中学校]]></name>
</wpt>

<wpt lat="33.642642974853516" lon="134.009521484375">
 <time>2015-12-06T02:24:46ZZ</time>
 <name><![CDATA[古井]]></name>
</wpt>

<wpt lat="33.6894416809082" lon="134.03018188476562">
 <time>2015-12-06T02:24:46ZZ</time>
 <name><![CDATA[別役]]></name>
</wpt>

<wpt lat="33.504302978515625" lon="133.90692138671875">
 <time>2015-12-06T02:24:46ZZ</time>
 <name><![CDATA[安芸駅]]></name>
</wpt>

<wpt lat="33.5042610168457" lon="133.90335083007812">
 <time>2015-12-06T02:24:46ZZ</time>
 <name><![CDATA[安芸郵便局前]]></name>
</wpt>

<wpt lat="33.50502014160156" lon="133.8980712890625">
 <time>2015-12-06T02:24:46ZZ</time>
 <name><![CDATA[安芸病院前]]></name>
</wpt>

<wpt lat="33.50143814086914" lon="133.89102172851562">
 <time>2015-12-06T02:24:46ZZ</time>
 <name><![CDATA[カリヨン広場]]></name>
</wpt>

<wpt lat="33.5013427734375" lon="133.8982391357422">
 <time>2015-12-06T02:24:46ZZ</time>
 <name><![CDATA[井ノ口通り]]></name>
</wpt>

<wpt lat="33.50049591064453" lon="133.90249633789062">
 <time>2015-12-06T02:24:46ZZ</time>
 <name><![CDATA[本町郵便局前]]></name>
</wpt>

<wpt lat="33.499935150146484" lon="133.9050750732422">
 <time>2015-12-06T02:24:46ZZ</time>
 <name><![CDATA[元気館通り]]></name>
</wpt>

<wpt lat="33.499427795410156" lon="133.90756225585938">
 <time>2015-12-06T02:24:46ZZ</time>
 <name><![CDATA[本町コミセン前]]></name>
</wpt>

<wpt lat="33.50143051147461" lon="133.90908813476562">
 <time>2015-12-06T02:24:46ZZ</time>
 <name><![CDATA[元町]]></name>
</wpt>

<wpt lat="33.501708984375" lon="133.90919494628906">
 <time>2015-12-06T02:24:46ZZ</time>
 <name><![CDATA[川向]]></name>
</wpt>

<wpt lat="33.50658416748047" lon="133.91049194335938">
 <time>2015-12-06T02:24:46ZZ</time>
 <name><![CDATA[玉造]]></name>
</wpt>

<wpt lat="33.50977325439453" lon="133.91127014160156">
 <time>2015-12-06T02:24:46ZZ</time>
 <name><![CDATA[春日]]></name>
</wpt>

<wpt lat="33.51581954956055" lon="133.91224670410156">
 <time>2015-12-06T02:24:46ZZ</time>
 <name><![CDATA[野良時計前]]></name>
</wpt>

<wpt lat="33.51856994628906" lon="133.91102600097656">
 <time>2015-12-06T02:24:46ZZ</time>
 <name><![CDATA[西木戸]]></name>
</wpt>

<wpt lat="33.52507781982422" lon="133.9066162109375">
 <time>2015-12-06T02:24:46ZZ</time>
 <name><![CDATA[僧津]]></name>
</wpt>

<wpt lat="33.53138732910156" lon="133.89788818359375">
 <time>2015-12-06T02:24:46ZZ</time>
 <name><![CDATA[井ノ口公民館前]]></name>
</wpt>

<wpt lat="33.54226303100586" lon="133.89512634277344">
 <time>2015-12-06T02:24:46ZZ</time>
 <name><![CDATA[井ノ口局前]]></name>
</wpt>

<wpt lat="33.54563522338867" lon="133.89488220214844">
 <time>2015-12-06T02:24:46ZZ</time>
 <name><![CDATA[山田通]]></name>
</wpt>

<wpt lat="33.55582046508789" lon="133.900146484375">
 <time>2015-12-06T02:24:46ZZ</time>
 <name><![CDATA[栃ノ木]]></name>
</wpt>

<wpt lat="33.55794143676758" lon="133.9040069580078">
 <time>2015-12-06T02:24:46ZZ</time>
 <name><![CDATA[東地]]></name>
</wpt>

<wpt lat="33.5816535949707" lon="133.92491149902344">
 <time>2015-12-06T02:24:46ZZ</time>
 <name><![CDATA[安芸の川口]]></name>
</wpt>

<wpt lat="33.60053253173828" lon="133.9104766845703">
 <time>2015-12-06T02:24:46ZZ</time>
 <name><![CDATA[寺内]]></name>
</wpt>

<wpt lat="33.616546630859375" lon="133.91873168945312">
 <time>2015-12-06T02:24:46ZZ</time>
 <name><![CDATA[谷口]]></name>
</wpt>

<wpt lat="33.62201690673828" lon="133.9228057861328">
 <time>2015-12-06T02:24:46ZZ</time>
 <name><![CDATA[畑山局前]]></name>
</wpt>

<wpt lat="33.6247673034668" lon="133.92514038085938">
 <time>2015-12-06T02:24:46ZZ</time>
 <name><![CDATA[畑山]]></name>
</wpt>

<wpt lat="33.498268127441406" lon="133.90432739257812">
 <time>2015-12-06T02:24:46ZZ</time>
 <name><![CDATA[元気館]]></name>
</wpt>

<wpt lat="33.50529861450195" lon="133.92764282226562">
 <time>2015-12-06T02:24:46ZZ</time>
 <name><![CDATA[清香園入口]]></name>
</wpt>

<wpt lat="33.50992202758789" lon="133.93272399902344">
 <time>2015-12-06T02:24:46ZZ</time>
 <name><![CDATA[清香園前]]></name>
</wpt>

<wpt lat="33.495574951171875" lon="133.93052673339844">
 <time>2015-12-06T02:24:46ZZ</time>
 <name><![CDATA[岡入口]]></name>
</wpt>

<wpt lat="33.50080871582031" lon="133.93605041503906">
 <time>2015-12-06T02:24:46ZZ</time>
 <name><![CDATA[宮田岡]]></name>
</wpt>

<wpt lat="33.508934020996094" lon="133.91879272460938">
 <time>2015-12-06T02:24:46ZZ</time>
 <name><![CDATA[清水住宅前]]></name>
</wpt>

<wpt lat="33.51610565185547" lon="133.919189453125">
 <time>2015-12-06T02:24:46ZZ</time>
 <name><![CDATA[江川入口]]></name>
</wpt>

<wpt lat="33.52347183227539" lon="133.91883850097656">
 <time>2015-12-06T02:24:46ZZ</time>
 <name><![CDATA[江川]]></name>
</wpt>

<wpt lat="33.527305603027344" lon="133.91903686523438">
 <time>2015-12-06T02:24:46ZZ</time>
 <name><![CDATA[堂ノ尾]]></name>
</wpt>

<wpt lat="33.50117111206055" lon="133.90231323242188">
 <time>2015-12-06T02:24:46ZZ</time>
 <name><![CDATA[すまいるあき前]]></name>
</wpt>

<wpt lat="33.528533935546875" lon="133.9142608642578">
 <time>2015-12-06T02:24:46ZZ</time>
 <name><![CDATA[内原野団地]]></name>
</wpt>

<wpt lat="33.53425216674805" lon="133.91270446777344">
 <time>2015-12-06T02:24:46ZZ</time>
 <name><![CDATA[内原野公園]]></name>
</wpt>

<wpt lat="33.53046798706055" lon="133.91197204589844">
 <time>2015-12-06T02:24:46ZZ</time>
 <name><![CDATA[陶芸館前]]></name>
</wpt>

<wpt lat="33.5461311340332" lon="133.89854431152344">
 <time>2015-12-06T02:24:46ZZ</time>
 <name><![CDATA[山田]]></name>
</wpt>

<wpt lat="33.525428771972656" lon="133.89874267578125">
 <time>2015-12-06T02:24:46ZZ</time>
 <name><![CDATA[一ノ宮]]></name>
</wpt>

<wpt lat="33.51762771606445" lon="133.89833068847656">
 <time>2015-12-06T02:24:46ZZ</time>
 <name><![CDATA[高台寺]]></name>
</wpt>

<wpt lat="33.51081085205078" lon="133.89810180664062">
 <time>2015-12-06T02:24:46ZZ</time>
 <name><![CDATA[黒鳥]]></name>
</wpt>

<wpt lat="33.508235931396484" lon="133.907470703125">
 <time>2015-12-06T02:24:46ZZ</time>
 <name><![CDATA[柳田団地前]]></name>
</wpt>

<wpt lat="33.56611251831055" lon="133.9420166015625">
 <time>2015-12-06T02:24:46ZZ</time>
 <name><![CDATA[八ノ谷]]></name>
</wpt>

<wpt lat="33.57376480102539" lon="133.89450073242188">
 <time>2015-12-06T02:24:46ZZ</time>
 <name><![CDATA[下尾川]]></name>
</wpt>

<wpt lat="33.58990478515625" lon="133.8777313232422">
 <time>2015-12-06T02:24:46ZZ</time>
 <name><![CDATA[上尾川]]></name>
</wpt>

<wpt lat="33.497291564941406" lon="133.40953063964844">
 <time>2015-12-06T02:24:46ZZ</time>
 <name><![CDATA[高岡営業所]]></name>
</wpt>

<wpt lat="33.49373245239258" lon="133.41053771972656">
 <time>2015-12-06T02:24:46ZZ</time>
 <name><![CDATA[鳴川通]]></name>
</wpt>

<wpt lat="33.49384307861328" lon="133.4133758544922">
 <time>2015-12-06T02:24:46ZZ</time>
 <name><![CDATA[蓮池公園前]]></name>
</wpt>

<wpt lat="33.49556350708008" lon="133.41709899902344">
 <time>2015-12-06T02:24:46ZZ</time>
 <name><![CDATA[高岡高校通]]></name>
</wpt>

<wpt lat="33.495487213134766" lon="133.4203338623047">
 <time>2015-12-06T02:24:46ZZ</time>
 <name><![CDATA[土佐市民公園前]]></name>
</wpt>

<wpt lat="33.495513916015625" lon="133.42236328125">
 <time>2015-12-06T02:24:46ZZ</time>
 <name><![CDATA[本町通]]></name>
</wpt>

<wpt lat="33.49574661254883" lon="133.4254150390625">
 <time>2015-12-06T02:24:46ZZ</time>
 <name><![CDATA[土佐市役所前]]></name>
</wpt>

<wpt lat="33.49594497680664" lon="133.42706298828125">
 <time>2015-12-06T02:24:46ZZ</time>
 <name><![CDATA[井上病院前]]></name>
</wpt>

<wpt lat="33.496055603027344" lon="133.42898559570312">
 <time>2015-12-06T02:24:46ZZ</time>
 <name><![CDATA[長谷寄通]]></name>
</wpt>

<wpt lat="33.49616622924805" lon="133.4313201904297">
 <time>2015-12-06T02:24:46ZZ</time>
 <name><![CDATA[変電所通]]></name>
</wpt>

<wpt lat="33.496253967285156" lon="133.43368530273438">
 <time>2015-12-06T02:24:46ZZ</time>
 <name><![CDATA[地頭名]]></name>
</wpt>

<wpt lat="33.496341705322266" lon="133.43540954589844">
 <time>2015-12-06T02:24:46ZZ</time>
 <name><![CDATA[西芝]]></name>
</wpt>

<wpt lat="33.495933532714844" lon="133.43858337402344">
 <time>2015-12-06T02:24:46ZZ</time>
 <name><![CDATA[東芝]]></name>
</wpt>

<wpt lat="33.49173355102539" lon="133.4463653564453">
 <time>2015-12-06T02:24:46ZZ</time>
 <name><![CDATA[南中島]]></name>
</wpt>

<wpt lat="33.49026107788086" lon="133.4474334716797">
 <time>2015-12-06T02:24:46ZZ</time>
 <name><![CDATA[高石]]></name>
</wpt>

<wpt lat="33.48667907714844" lon="133.45108032226562">
 <time>2015-12-06T02:24:46ZZ</time>
 <name><![CDATA[堀切]]></name>
</wpt>

<wpt lat="33.48397445678711" lon="133.45225524902344">
 <time>2015-12-06T02:24:46ZZ</time>
 <name><![CDATA[用石]]></name>
</wpt>

<wpt lat="33.48167419433594" lon="133.453857421875">
 <time>2015-12-06T02:24:46ZZ</time>
 <name><![CDATA[用石第二]]></name>
</wpt>

<wpt lat="33.478179931640625" lon="133.4557647705078">
 <time>2015-12-06T02:24:46ZZ</time>
 <name><![CDATA[万願寺]]></name>
</wpt>

<wpt lat="33.47390365600586" lon="133.45994567871094">
 <time>2015-12-06T02:24:46ZZ</time>
 <name><![CDATA[今渡峠]]></name>
</wpt>

<wpt lat="33.4705696105957" lon="133.4616241455078">
 <time>2015-12-06T02:24:46ZZ</time>
 <name><![CDATA[今渡]]></name>
</wpt>

<wpt lat="33.466800689697266" lon="133.46142578125">
 <time>2015-12-06T02:24:46ZZ</time>
 <name><![CDATA[奥谷通]]></name>
</wpt>

<wpt lat="33.464046478271484" lon="133.46202087402344">
 <time>2015-12-06T02:24:46ZZ</time>
 <name><![CDATA[本村]]></name>
</wpt>

<wpt lat="33.45977020263672" lon="133.46424865722656">
 <time>2015-12-06T02:24:46ZZ</time>
 <name><![CDATA[新居学校前]]></name>
</wpt>

<wpt lat="33.455448150634766" lon="133.46559143066406">
 <time>2015-12-06T02:24:46ZZ</time>
 <name><![CDATA[新居立石]]></name>
</wpt>

<wpt lat="33.451663970947266" lon="133.46290588378906">
 <time>2015-12-06T02:24:46ZZ</time>
 <name><![CDATA[池の浦]]></name>
</wpt>

<wpt lat="33.44974899291992" lon="133.460205078125">
 <time>2015-12-06T02:24:46ZZ</time>
 <name><![CDATA[白菊園前]]></name>
</wpt>

<wpt lat="33.448516845703125" lon="133.45742797851562">
 <time>2015-12-06T02:24:46ZZ</time>
 <name><![CDATA[萩岬]]></name>
</wpt>

<wpt lat="33.45014572143555" lon="133.45233154296875">
 <time>2015-12-06T02:24:46ZZ</time>
 <name><![CDATA[しおかぜ公園前]]></name>
</wpt>

<wpt lat="33.452728271484375" lon="133.45126342773438">
 <time>2015-12-06T02:24:46ZZ</time>
 <name><![CDATA[橋田]]></name>
</wpt>

<wpt lat="33.45273971557617" lon="133.44900512695312">
 <time>2015-12-06T02:24:46ZZ</time>
 <name><![CDATA[新崎]]></name>
</wpt>

<wpt lat="33.451751708984375" lon="133.4447479248047">
 <time>2015-12-06T02:24:46ZZ</time>
 <name><![CDATA[東町]]></name>
</wpt>

<wpt lat="33.450714111328125" lon="133.44256591796875">
 <time>2015-12-06T02:24:46ZZ</time>
 <name><![CDATA[市場前]]></name>
</wpt>

<wpt lat="33.448970794677734" lon="133.4407958984375">
 <time>2015-12-06T02:24:46ZZ</time>
 <name><![CDATA[東ノ丁]]></name>
</wpt>

<wpt lat="33.44611740112305" lon="133.4386444091797">
 <time>2015-12-06T02:24:46ZZ</time>
 <name><![CDATA[松岡]]></name>
</wpt>

<wpt lat="33.43917465209961" lon="133.44375610351562">
 <time>2015-12-06T02:24:46ZZ</time>
 <name><![CDATA[井尻]]></name>
</wpt>

<wpt lat="33.43351745605469" lon="133.44973754882812">
 <time>2015-12-06T02:24:46ZZ</time>
 <name><![CDATA[向萩の浜]]></name>
</wpt>

<wpt lat="33.431182861328125" lon="133.45411682128906">
 <time>2015-12-06T02:24:46ZZ</time>
 <name><![CDATA[竜（三陽荘）]]></name>
</wpt>

<wpt lat="33.4420166015625" lon="133.43743896484375">
 <time>2015-12-06T02:24:46ZZ</time>
 <name><![CDATA[スカイライン入口]]></name>
</wpt>

<wpt lat="33.43959426879883" lon="133.43649291992188">
 <time>2015-12-06T02:24:46ZZ</time>
 <name><![CDATA[福浜]]></name>
</wpt>

<wpt lat="33.438594818115234" lon="133.43507385253906">
 <time>2015-12-06T02:24:46ZZ</time>
 <name><![CDATA[海洋高校前]]></name>
</wpt>

<wpt lat="33.43858337402344" lon="133.43353271484375">
 <time>2015-12-06T02:24:46ZZ</time>
 <name><![CDATA[大川橋]]></name>
</wpt>

<wpt lat="33.43743133544922" lon="133.43173217773438">
 <time>2015-12-06T02:24:46ZZ</time>
 <name><![CDATA[宇佐]]></name>
</wpt>

<wpt lat="33.438533782958984" lon="133.43409729003906">
 <time>2015-12-06T02:24:46ZZ</time>
 <name><![CDATA[灘]]></name>
</wpt>

<wpt lat="33.440372467041016" lon="133.43417358398438">
 <time>2015-12-06T02:24:46ZZ</time>
 <name><![CDATA[中川橋前]]></name>
</wpt>

<wpt lat="33.45144271850586" lon="133.44195556640625">
 <time>2015-12-06T02:24:46ZZ</time>
 <name><![CDATA[信用組合前]]></name>
</wpt>

<wpt lat="33.453086853027344" lon="133.4421844482422">
 <time>2015-12-06T02:24:46ZZ</time>
 <name><![CDATA[西中郷]]></name>
</wpt>

<wpt lat="33.455421447753906" lon="133.44398498535156">
 <time>2015-12-06T02:24:46ZZ</time>
 <name><![CDATA[宇佐出荷場前]]></name>
</wpt>

<wpt lat="33.475669860839844" lon="133.44027709960938">
 <time>2015-12-06T02:24:46ZZ</time>
 <name><![CDATA[米山]]></name>
</wpt>

<wpt lat="33.47922897338867" lon="133.44102478027344">
 <time>2015-12-06T02:24:46ZZ</time>
 <name><![CDATA[塚地集会所前]]></name>
</wpt>

<wpt lat="33.481143951416016" lon="133.4398651123047">
 <time>2015-12-06T02:24:46ZZ</time>
 <name><![CDATA[ウトロ谷]]></name>
</wpt>

<wpt lat="33.48429489135742" lon="133.43896484375">
 <time>2015-12-06T02:24:46ZZ</time>
 <name><![CDATA[JA高石直販所前]]></name>
</wpt>

<wpt lat="33.48933410644531" lon="133.43873596191406">
 <time>2015-12-06T02:24:46ZZ</time>
 <name><![CDATA[野尻]]></name>
</wpt>

<wpt lat="33.49337387084961" lon="133.43960571289062">
 <time>2015-12-06T02:24:46ZZ</time>
 <name><![CDATA[サニーマート東口]]></name>
</wpt>

<wpt lat="33.390525817871094" lon="133.29356384277344">
 <time>2015-12-06T02:24:46ZZ</time>
 <name><![CDATA[文化会館前]]></name>
</wpt>

<wpt lat="33.39082336425781" lon="133.2906494140625">
 <time>2015-12-06T02:24:46ZZ</time>
 <name><![CDATA[四国電力前]]></name>
</wpt>

<wpt lat="33.39140701293945" lon="133.28416442871094">
 <time>2015-12-06T02:24:46ZZ</time>
 <name><![CDATA[新高陵病院前]]></name>
</wpt>

<wpt lat="33.399723052978516" lon="133.2834014892578">
 <time>2015-12-06T02:24:46ZZ</time>
 <name><![CDATA[市役所前]]></name>
</wpt>

<wpt lat="33.40700149536133" lon="133.28732299804688">
 <time>2015-12-06T02:24:46ZZ</time>
 <name><![CDATA[大間]]></name>
</wpt>

<wpt lat="33.41180419921875" lon="133.291259765625">
 <time>2015-12-06T02:24:46ZZ</time>
 <name><![CDATA[ピア前]]></name>
</wpt>

<wpt lat="33.390968322753906" lon="133.3048095703125">
 <time>2015-12-06T02:24:46ZZ</time>
 <name><![CDATA[串ノ浦]]></name>
</wpt>

<wpt lat="33.3833122253418" lon="133.3037872314453">
 <time>2015-12-06T02:24:46ZZ</time>
 <name><![CDATA[エム・セテック第二工場前]]></name>
</wpt>

<wpt lat="33.381160736083984" lon="133.3048858642578">
 <time>2015-12-06T02:24:46ZZ</time>
 <name><![CDATA[西勢井]]></name>
</wpt>

<wpt lat="33.382076263427734" lon="133.306396484375">
 <time>2015-12-06T02:24:46ZZ</time>
 <name><![CDATA[勢井]]></name>
</wpt>

<wpt lat="33.37987518310547" lon="133.3140106201172">
 <time>2015-12-06T02:24:46ZZ</time>
 <name><![CDATA[野見郵便局前]]></name>
</wpt>

<wpt lat="33.377986907958984" lon="133.31427001953125">
 <time>2015-12-06T02:24:46ZZ</time>
 <name><![CDATA[野見]]></name>
</wpt>

<wpt lat="33.380897521972656" lon="133.31448364257812">
 <time>2015-12-06T02:24:46ZZ</time>
 <name><![CDATA[小学校前]]></name>
</wpt>

<wpt lat="33.38335037231445" lon="133.31842041015625">
 <time>2015-12-06T02:24:46ZZ</time>
 <name><![CDATA[大谷漁協]]></name>
</wpt>

<wpt lat="33.38320541381836" lon="133.32077026367188">
 <time>2015-12-06T02:24:46ZZ</time>
 <name><![CDATA[大谷]]></name>
</wpt>

<wpt lat="33.37702560424805" lon="133.32508850097656">
 <time>2015-12-06T02:24:46ZZ</time>
 <name><![CDATA[くすのき園]]></name>
</wpt>

<wpt lat="33.36192321777344" lon="133.3172149658203">
 <time>2015-12-06T02:24:46ZZ</time>
 <name><![CDATA[白浜]]></name>
</wpt>

<wpt lat="33.35799026489258" lon="133.31723022460938">
 <time>2015-12-06T02:24:46ZZ</time>
 <name><![CDATA[蜂ケ尻]]></name>
</wpt>

<wpt lat="33.35769271850586" lon="133.31005859375">
 <time>2015-12-06T02:24:46ZZ</time>
 <name><![CDATA[中ノ島]]></name>
</wpt>

<wpt lat="33.517478942871094" lon="133.7703399658203">
 <time>2015-12-06T02:24:46ZZ</time>
 <name><![CDATA[住吉]]></name>
</wpt>

<wpt lat="33.52359390258789" lon="133.76220703125">
 <time>2015-12-06T02:24:46ZZ</time>
 <name><![CDATA[手結山]]></name>
</wpt>

<wpt lat="33.52796173095703" lon="133.75941467285156">
 <time>2015-12-06T02:24:46ZZ</time>
 <name><![CDATA[餅屋前]]></name>
</wpt>

<wpt lat="33.52945327758789" lon="133.75662231445312">
 <time>2015-12-06T02:24:46ZZ</time>
 <name><![CDATA[埋立]]></name>
</wpt>

<wpt lat="33.53193664550781" lon="133.7575225830078">
 <time>2015-12-06T02:24:46ZZ</time>
 <name><![CDATA[手結]]></name>
</wpt>

<wpt lat="33.53409194946289" lon="133.75437927246094">
 <time>2015-12-06T02:24:46ZZ</time>
 <name><![CDATA[夜須駅]]></name>
</wpt>

<wpt lat="33.536338806152344" lon="133.75482177734375">
 <time>2015-12-06T02:24:46ZZ</time>
 <name><![CDATA[夜須横町]]></name>
</wpt>

<wpt lat="33.53806686401367" lon="133.75631713867188">
 <time>2015-12-06T02:24:46ZZ</time>
 <name><![CDATA[夜須支所前]]></name>
</wpt>

<wpt lat="33.54191207885742" lon="133.7597198486328">
 <time>2015-12-06T02:24:46ZZ</time>
 <name><![CDATA[保育園前]]></name>
</wpt>

<wpt lat="33.54318618774414" lon="133.7611541748047">
 <time>2015-12-06T02:24:46ZZ</time>
 <name><![CDATA[学校前]]></name>
</wpt>

<wpt lat="33.548316955566406" lon="133.76901245117188">
 <time>2015-12-06T02:24:46ZZ</time>
 <name><![CDATA[十ノ木通]]></name>
</wpt>

<wpt lat="33.5513916015625" lon="133.7740020751953">
 <time>2015-12-06T02:24:46ZZ</time>
 <name><![CDATA[備後]]></name>
</wpt>

<wpt lat="33.55636215209961" lon="133.7779998779297">
 <time>2015-12-06T02:24:46ZZ</time>
 <name><![CDATA[上夜須]]></name>
</wpt>

<wpt lat="33.560977935791016" lon="133.78184509277344">
 <time>2015-12-06T02:24:46ZZ</time>
 <name><![CDATA[添地]]></name>
</wpt>

<wpt lat="33.56538391113281" lon="133.79061889648438">
 <time>2015-12-06T02:24:46ZZ</time>
 <name><![CDATA[夜須川]]></name>
</wpt>

<wpt lat="33.5806999206543" lon="133.7946014404297">
 <time>2015-12-06T02:24:46ZZ</time>
 <name><![CDATA[細川]]></name>
</wpt>

<wpt lat="33.569358825683594" lon="133.80308532714844">
 <time>2015-12-06T02:24:46ZZ</time>
 <name><![CDATA[天王]]></name>
</wpt>

<wpt lat="33.57898712158203" lon="133.80892944335938">
 <time>2015-12-06T02:24:46ZZ</time>
 <name><![CDATA[中の宮]]></name>
</wpt>

<wpt lat="33.58331298828125" lon="133.81617736816406">
 <time>2015-12-06T02:24:46ZZ</time>
 <name><![CDATA[国光]]></name>
</wpt>

<wpt lat="33.58821105957031" lon="133.82826232910156">
 <time>2015-12-06T02:24:46ZZ</time>
 <name><![CDATA[峠]]></name>
</wpt>

<wpt lat="33.591880798339844" lon="133.83351135253906">
 <time>2015-12-06T02:24:46ZZ</time>
 <name><![CDATA[羽尾]]></name>
</wpt>

<wpt lat="33.56233596801758" lon="133.6979522705078">
 <time>2015-12-06T02:24:46ZZ</time>
 <name><![CDATA[のいち駅]]></name>
</wpt>

<wpt lat="33.5643310546875" lon="133.70106506347656">
 <time>2015-12-06T02:24:46ZZ</time>
 <name><![CDATA[香南市役所前]]></name>
</wpt>

<wpt lat="33.587467193603516" lon="133.71104431152344">
 <time>2015-12-06T02:24:46ZZ</time>
 <name><![CDATA[白岩新橋]]></name>
</wpt>

<wpt lat="33.58921813964844" lon="133.7126007080078">
 <time>2015-12-06T02:24:46ZZ</time>
 <name><![CDATA[つきみ野入口]]></name>
</wpt>

<wpt lat="33.59039306640625" lon="133.71495056152344">
 <time>2015-12-06T02:24:46ZZ</time>
 <name><![CDATA[国吉商店前]]></name>
</wpt>

<wpt lat="33.59646987915039" lon="133.72401428222656">
 <time>2015-12-06T02:24:46ZZ</time>
 <name><![CDATA[山ノ神谷]]></name>
</wpt>

<wpt lat="33.58939743041992" lon="133.7075958251953">
 <time>2015-12-06T02:24:46ZZ</time>
 <name><![CDATA[下分公民館前]]></name>
</wpt>

<wpt lat="33.590633392333984" lon="133.70272827148438">
 <time>2015-12-06T02:24:46ZZ</time>
 <name><![CDATA[西佐古公民館東]]></name>
</wpt>

<wpt lat="33.585289001464844" lon="133.69769287109375">
 <time>2015-12-06T02:24:46ZZ</time>
 <name><![CDATA[父養寺北]]></name>
</wpt>

<wpt lat="33.57327651977539" lon="133.69699096679688">
 <time>2015-12-06T02:24:46ZZ</time>
 <name><![CDATA[兄弟橋北]]></name>
</wpt>

<wpt lat="33.56509780883789" lon="133.69619750976562">
 <time>2015-12-06T02:24:46ZZ</time>
 <name><![CDATA[野市保育所西]]></name>
</wpt>

<wpt lat="33.53932571411133" lon="133.73777770996094">
 <time>2015-12-06T02:24:46ZZ</time>
 <name><![CDATA[香我美駅]]></name>
</wpt>

<wpt lat="33.539981842041016" lon="133.73187255859375">
 <time>2015-12-06T02:24:46ZZ</time>
 <name><![CDATA[岸本]]></name>
</wpt>

<wpt lat="33.539878845214844" lon="133.7275390625">
 <time>2015-12-06T02:24:46ZZ</time>
 <name><![CDATA[江見町]]></name>
</wpt>

<wpt lat="33.541748046875" lon="133.7222137451172">
 <time>2015-12-06T02:24:46ZZ</time>
 <name><![CDATA[赤岡南町]]></name>
</wpt>

<wpt lat="33.54168701171875" lon="133.70877075195312">
 <time>2015-12-06T02:24:46ZZ</time>
 <name><![CDATA[千鳥橋]]></name>
</wpt>

<wpt lat="33.5418586730957" lon="133.70587158203125">
 <time>2015-12-06T02:24:46ZZ</time>
 <name><![CDATA[沢田酒店前]]></name>
</wpt>

<wpt lat="33.54179763793945" lon="133.7030029296875">
 <time>2015-12-06T02:24:46ZZ</time>
 <name><![CDATA[福井タバコ店前]]></name>
</wpt>

<wpt lat="33.54151916503906" lon="133.70008850097656">
 <time>2015-12-06T02:24:46ZZ</time>
 <name><![CDATA[吉川支所前]]></name>
</wpt>

<wpt lat="33.55674743652344" lon="133.6953125">
 <time>2015-12-06T02:24:46ZZ</time>
 <name><![CDATA[宇賀]]></name>
</wpt>

<wpt lat="33.55792236328125" lon="133.69993591308594">
 <time>2015-12-06T02:24:46ZZ</time>
 <name><![CDATA[自動車学校前]]></name>
</wpt>

<wpt lat="33.538795471191406" lon="133.73135375976562">
 <time>2015-12-06T02:24:46ZZ</time>
 <name><![CDATA[明神国道南]]></name>
</wpt>

<wpt lat="33.54183578491211" lon="133.73129272460938">
 <time>2015-12-06T02:24:46ZZ</time>
 <name><![CDATA[明神]]></name>
</wpt>

<wpt lat="33.54158020019531" lon="133.73587036132812">
 <time>2015-12-06T02:24:46ZZ</time>
 <name><![CDATA[岸本屯所]]></name>
</wpt>

<wpt lat="33.540565490722656" lon="133.73800659179688">
 <time>2015-12-06T02:24:46ZZ</time>
 <name><![CDATA[堀川公園]]></name>
</wpt>

<wpt lat="33.539947509765625" lon="133.7427978515625">
 <time>2015-12-06T02:24:46ZZ</time>
 <name><![CDATA[月見山上り口]]></name>
</wpt>

<wpt lat="33.55046463012695" lon="133.74752807617188">
 <time>2015-12-06T02:24:46ZZ</time>
 <name><![CDATA[変電所]]></name>
</wpt>

<wpt lat="33.554046630859375" lon="133.74179077148438">
 <time>2015-12-06T02:24:46ZZ</time>
 <name><![CDATA[徳王子公民館]]></name>
</wpt>

<wpt lat="33.55502700805664" lon="133.73422241210938">
 <time>2015-12-06T02:24:46ZZ</time>
 <name><![CDATA[新店]]></name>
</wpt>

<wpt lat="33.56169509887695" lon="133.73890686035156">
 <time>2015-12-06T02:24:46ZZ</time>
 <name><![CDATA[市民館東口]]></name>
</wpt>

<wpt lat="33.561248779296875" lon="133.7349853515625">
 <time>2015-12-06T02:24:46ZZ</time>
 <name><![CDATA[市民館西口]]></name>
</wpt>

<wpt lat="33.56718444824219" lon="133.7368927001953">
 <time>2015-12-06T02:24:46ZZ</time>
 <name><![CDATA[久保田通]]></name>
</wpt>

<wpt lat="33.56672286987305" lon="133.74130249023438">
 <time>2015-12-06T02:24:46ZZ</time>
 <name><![CDATA[Aコープ前]]></name>
</wpt>

<wpt lat="33.57033920288086" lon="133.74188232421875">
 <time>2015-12-06T02:24:46ZZ</time>
 <name><![CDATA[香我美支所前]]></name>
</wpt>

<wpt lat="33.57722473144531" lon="133.73983764648438">
 <time>2015-12-06T02:24:46ZZ</time>
 <name><![CDATA[富家通]]></name>
</wpt>

<wpt lat="33.57939910888672" lon="133.74261474609375">
 <time>2015-12-06T02:24:46ZZ</time>
 <name><![CDATA[市場前]]></name>
</wpt>

<wpt lat="33.57516098022461" lon="133.7366943359375">
 <time>2015-12-06T02:24:46ZZ</time>
 <name><![CDATA[前田入口]]></name>
</wpt>

<wpt lat="33.56806945800781" lon="133.72698974609375">
 <time>2015-12-06T02:24:46ZZ</time>
 <name><![CDATA[山南通]]></name>
</wpt>

<wpt lat="33.56511688232422" lon="133.71800231933594">
 <time>2015-12-06T02:24:46ZZ</time>
 <name><![CDATA[みどり野スーパー]]></name>
</wpt>

<wpt lat="33.56182098388672" lon="133.71409606933594">
 <time>2015-12-06T02:24:46ZZ</time>
 <name><![CDATA[みどり野団地通]]></name>
</wpt>

<wpt lat="33.561283111572266" lon="133.7172088623047">
 <time>2015-12-06T02:24:46ZZ</time>
 <name><![CDATA[野地東]]></name>
</wpt>

<wpt lat="33.56179428100586" lon="133.70953369140625">
 <time>2015-12-06T02:24:46ZZ</time>
 <name><![CDATA[新宮通]]></name>
</wpt>

<wpt lat="33.56178665161133" lon="133.70333862304688">
 <time>2015-12-06T02:24:46ZZ</time>
 <name><![CDATA[石家]]></name>
</wpt>

<wpt lat="33.608028411865234" lon="133.7838592529297">
 <time>2015-12-06T02:24:46ZZ</time>
 <name><![CDATA[高畔]]></name>
</wpt>

<wpt lat="33.602474212646484" lon="133.7776336669922">
 <time>2015-12-06T02:24:46ZZ</time>
 <name><![CDATA[樋の谷橋]]></name>
</wpt>

<wpt lat="33.59943389892578" lon="133.77256774902344">
 <time>2015-12-06T02:24:46ZZ</time>
 <name><![CDATA[中西川]]></name>
</wpt>

<wpt lat="33.59294509887695" lon="133.76510620117188">
 <time>2015-12-06T02:24:46ZZ</time>
 <name><![CDATA[岩鍋]]></name>
</wpt>

<wpt lat="33.585670471191406" lon="133.75526428222656">
 <time>2015-12-06T02:24:46ZZ</time>
 <name><![CDATA[小畠]]></name>
</wpt>

<wpt lat="33.5820198059082" lon="133.74778747558594">
 <time>2015-12-06T02:24:46ZZ</time>
 <name><![CDATA[吉次通]]></name>
</wpt>

<wpt lat="33.57258987426758" lon="133.7418212890625">
 <time>2015-12-06T02:24:46ZZ</time>
 <name><![CDATA[香我美小学校前]]></name>
</wpt>

<wpt lat="33.56175994873047" lon="133.7007293701172">
 <time>2015-12-06T02:24:46ZZ</time>
 <name><![CDATA[野市東町]]></name>
</wpt>

<wpt lat="33.62496566772461" lon="133.8322296142578">
 <time>2015-12-06T02:24:46ZZ</time>
 <name><![CDATA[奈良峠]]></name>
</wpt>

<wpt lat="33.614688873291016" lon="133.8230438232422">
 <time>2015-12-06T02:24:46ZZ</time>
 <name><![CDATA[奈良橋]]></name>
</wpt>

<wpt lat="33.60733413696289" lon="133.8177032470703">
 <time>2015-12-06T02:24:46ZZ</time>
 <name><![CDATA[中土居]]></name>
</wpt>

<wpt lat="33.60713577270508" lon="133.8148651123047">
 <time>2015-12-06T02:24:46ZZ</time>
 <name><![CDATA[別役]]></name>
</wpt>

<wpt lat="33.596900939941406" lon="133.80442810058594">
 <time>2015-12-06T02:24:46ZZ</time>
 <name><![CDATA[正延]]></name>
</wpt>

<wpt lat="33.59062194824219" lon="133.79591369628906">
 <time>2015-12-06T02:24:46ZZ</time>
 <name><![CDATA[温泉前]]></name>
</wpt>

<wpt lat="33.581111907958984" lon="133.77903747558594">
 <time>2015-12-06T02:24:46ZZ</time>
 <name><![CDATA[中山川公会堂前]]></name>
</wpt>

<wpt lat="33.58565139770508" lon="133.7720184326172">
 <time>2015-12-06T02:24:46ZZ</time>
 <name><![CDATA[下山川]]></name>
</wpt>

<wpt lat="33.57528305053711" lon="133.76231384277344">
 <time>2015-12-06T02:24:46ZZ</time>
 <name><![CDATA[大岩]]></name>
</wpt>

<wpt lat="33.57149124145508" lon="133.75106811523438">
 <time>2015-12-06T02:24:46ZZ</time>
 <name><![CDATA[上河内]]></name>
</wpt>

<wpt lat="33.567115783691406" lon="133.7333984375">
 <time>2015-12-06T02:24:46ZZ</time>
 <name><![CDATA[中学校前]]></name>
</wpt>

<wpt lat="33.56647872924805" lon="133.7467498779297">
 <time>2015-12-06T02:24:46ZZ</time>
 <name><![CDATA[下河内]]></name>
</wpt>

<wpt lat="33.568023681640625" lon="133.756103515625">
 <time>2015-12-06T02:24:46ZZ</time>
 <name><![CDATA[たちばな団地]]></name>
</wpt>

<wpt lat="33.563873291015625" lon="133.75901794433594">
 <time>2015-12-06T02:24:46ZZ</time>
 <name><![CDATA[稗地]]></name>
</wpt>

<wpt lat="33.567481994628906" lon="133.7663116455078">
 <time>2015-12-06T02:24:46ZZ</time>
 <name><![CDATA[堀ノ内]]></name>
</wpt>

<wpt lat="33.56524658203125" lon="133.75253295898438">
 <time>2015-12-06T02:24:46ZZ</time>
 <name><![CDATA[岡]]></name>
</wpt>

<wpt lat="33.59783935546875" lon="133.77085876464844">
 <time>2015-12-06T02:24:46ZZ</time>
 <name><![CDATA[そとば通]]></name>
</wpt>

<wpt lat="33.5928955078125" lon="133.77276611328125">
 <time>2015-12-06T02:24:46ZZ</time>
 <name><![CDATA[行宗橋]]></name>
</wpt>

<wpt lat="33.697532653808594" lon="133.87423706054688">
 <time>2015-12-06T02:24:46ZZ</time>
 <name><![CDATA[大栃]]></name>
</wpt>

<wpt lat="33.696598052978516" lon="133.87469482421875">
 <time>2015-12-06T02:24:46ZZ</time>
 <name><![CDATA[プラザ前]]></name>
</wpt>

<wpt lat="33.693538665771484" lon="133.87840270996094">
 <time>2015-12-06T02:24:46ZZ</time>
 <name><![CDATA[明石橋|]]></name>
</wpt>

<wpt lat="33.693328857421875" lon="133.87962341308594">
 <time>2015-12-06T02:24:46ZZ</time>
 <name><![CDATA[山崎I]]></name>
</wpt>

<wpt lat="33.69549560546875" lon="133.8837432861328">
 <time>2015-12-06T02:24:46ZZ</time>
 <name><![CDATA[東土居]]></name>
</wpt>

<wpt lat="33.6999397277832" lon="133.88427734375">
 <time>2015-12-06T02:24:46ZZ</time>
 <name><![CDATA[塩]]></name>
</wpt>

<wpt lat="33.70138168334961" lon="133.89056396484375">
 <time>2015-12-06T02:24:46ZZ</time>
 <name><![CDATA[下日の地]]></name>
</wpt>

<wpt lat="33.7017707824707" lon="133.8920440673828">
 <time>2015-12-06T02:24:46ZZ</time>
 <name><![CDATA[日の地]]></name>
</wpt>

<wpt lat="33.700931549072266" lon="133.89462280273438">
 <time>2015-12-06T02:24:46ZZ</time>
 <name><![CDATA[上日の地]]></name>
</wpt>

<wpt lat="33.70216369628906" lon="133.8991241455078">
 <time>2015-12-06T02:24:46ZZ</time>
 <name><![CDATA[佐岡口]]></name>
</wpt>

<wpt lat="33.70888137817383" lon="133.90325927734375">
 <time>2015-12-06T02:24:46ZZ</time>
 <name><![CDATA[押谷]]></name>
</wpt>

<wpt lat="33.7118034362793" lon="133.90573120117188">
 <time>2015-12-06T02:24:46ZZ</time>
 <name><![CDATA[檜ケ谷]]></name>
</wpt>

<wpt lat="33.71308898925781" lon="133.91677856445312">
 <time>2015-12-06T02:24:46ZZ</time>
 <name><![CDATA[土佐小浜]]></name>
</wpt>

<wpt lat="33.7160530090332" lon="133.91880798339844">
 <time>2015-12-06T02:24:46ZZ</time>
 <name><![CDATA[谷口横]]></name>
</wpt>

<wpt lat="33.71564865112305" lon="133.92257690429688">
 <time>2015-12-06T02:24:46ZZ</time>
 <name><![CDATA[根木屋]]></name>
</wpt>

<wpt lat="33.71603775024414" lon="133.9276123046875">
 <time>2015-12-06T02:24:46ZZ</time>
 <name><![CDATA[須賀井]]></name>
</wpt>

<wpt lat="33.72006607055664" lon="133.93020629882812">
 <time>2015-12-06T02:24:46ZZ</time>
 <name><![CDATA[野久保]]></name>
</wpt>

<wpt lat="33.720245361328125" lon="133.93560791015625">
 <time>2015-12-06T02:24:46ZZ</time>
 <name><![CDATA[岡の内]]></name>
</wpt>

<wpt lat="33.72419738769531" lon="133.9490203857422">
 <time>2015-12-06T02:24:46ZZ</time>
 <name><![CDATA[土佐川口]]></name>
</wpt>

<wpt lat="33.72823715209961" lon="133.9541015625">
 <time>2015-12-06T02:24:46ZZ</time>
 <name><![CDATA[中内口]]></name>
</wpt>

<wpt lat="33.73158264160156" lon="133.959228515625">
 <time>2015-12-06T02:24:46ZZ</time>
 <name><![CDATA[百々尾]]></name>
</wpt>

<wpt lat="33.7354850769043" lon="133.9669189453125">
 <time>2015-12-06T02:24:46ZZ</time>
 <name><![CDATA[津々呂]]></name>
</wpt>

<wpt lat="33.73609924316406" lon="133.970703125">
 <time>2015-12-06T02:24:46ZZ</time>
 <name><![CDATA[小松神社前]]></name>
</wpt>

<wpt lat="33.733455657958984" lon="133.976318359375">
 <time>2015-12-06T02:24:46ZZ</time>
 <name><![CDATA[別役]]></name>
</wpt>

<wpt lat="33.73474884033203" lon="133.9803009033203">
 <time>2015-12-06T02:24:46ZZ</time>
 <name><![CDATA[下土居ロ]]></name>
</wpt>

<wpt lat="33.737754821777344" lon="133.98526000976562">
 <time>2015-12-06T02:24:46ZZ</time>
 <name><![CDATA[沖ノ谷]]></name>
</wpt>

<wpt lat="33.74031448364258" lon="133.99212646484375">
 <time>2015-12-06T02:24:46ZZ</time>
 <name><![CDATA[木床]]></name>
</wpt>

<wpt lat="33.744171142578125" lon="134.00062561035156">
 <time>2015-12-06T02:24:46ZZ</time>
 <name><![CDATA[宮の瀬]]></name>
</wpt>

<wpt lat="33.744773864746094" lon="134.0074462890625">
 <time>2015-12-06T02:24:46ZZ</time>
 <name><![CDATA[成山口]]></name>
</wpt>

<wpt lat="33.74673080444336" lon="134.01255798339844">
 <time>2015-12-06T02:24:46ZZ</time>
 <name><![CDATA[樫山]]></name>
</wpt>

<wpt lat="33.75064468383789" lon="134.01882934570312">
 <time>2015-12-06T02:24:46ZZ</time>
 <name><![CDATA[舟ヶ谷]]></name>
</wpt>

<wpt lat="33.75758743286133" lon="134.02838134765625">
 <time>2015-12-06T02:24:46ZZ</time>
 <name><![CDATA[土佐落合]]></name>
</wpt>

<wpt lat="33.762237548828125" lon="134.0301055908203">
 <time>2015-12-06T02:24:46ZZ</time>
 <name><![CDATA[ぺふ峡温泉前]]></name>
</wpt>

<wpt lat="33.761810302734375" lon="134.0325469970703">
 <time>2015-12-06T02:24:46ZZ</time>
 <name><![CDATA[野地]]></name>
</wpt>

<wpt lat="33.7623291015625" lon="134.03492736816406">
 <time>2015-12-06T02:24:46ZZ</time>
 <name><![CDATA[朴谷□]]></name>
</wpt>

<wpt lat="33.76490783691406" lon="134.03451538085938">
 <time>2015-12-06T02:24:46ZZ</time>
 <name><![CDATA[別府]]></name>
</wpt>

<wpt lat="33.69784927368164" lon="133.8778839111328">
 <time>2015-12-06T02:24:46ZZ</time>
 <name><![CDATA[大栃神社前]]></name>
</wpt>

<wpt lat="33.70098114013672" lon="133.8793182373047">
 <time>2015-12-06T02:24:46ZZ</time>
 <name><![CDATA[斬屋敷]]></name>
</wpt>

<wpt lat="33.70358657836914" lon="133.87985229492188">
 <time>2015-12-06T02:24:46ZZ</time>
 <name><![CDATA[北村]]></name>
</wpt>

<wpt lat="33.711761474609375" lon="133.88441467285156">
 <time>2015-12-06T02:24:46ZZ</time>
 <name><![CDATA[間々]]></name>
</wpt>

<wpt lat="33.71980667114258" lon="133.8921356201172">
 <time>2015-12-06T02:24:46ZZ</time>
 <name><![CDATA[土佐立花]]></name>
</wpt>

<wpt lat="33.728118896484375" lon="133.89329528808594">
 <time>2015-12-06T02:24:46ZZ</time>
 <name><![CDATA[安丸]]></name>
</wpt>

<wpt lat="33.72908401489258" lon="133.8936767578125">
 <time>2015-12-06T02:24:46ZZ</time>
 <name><![CDATA[安丸郵便局前]]></name>
</wpt>

<wpt lat="33.73408889770508" lon="133.89955139160156">
 <time>2015-12-06T02:24:46ZZ</time>
 <name><![CDATA[大屋敷]]></name>
</wpt>

<wpt lat="33.73815155029297" lon="133.90354919433594">
 <time>2015-12-06T02:24:46ZZ</time>
 <name><![CDATA[笹口]]></name>
</wpt>

<wpt lat="33.740570068359375" lon="133.90432739257812">
 <time>2015-12-06T02:24:46ZZ</time>
 <name><![CDATA[五王堂]]></name>
</wpt>

<wpt lat="33.743125915527344" lon="133.90672302246094">
 <time>2015-12-06T02:24:46ZZ</time>
 <name><![CDATA[上番]]></name>
</wpt>

<wpt lat="33.748924255371094" lon="133.91458129882812">
 <time>2015-12-06T02:24:46ZZ</time>
 <name><![CDATA[大西口]]></name>
</wpt>

<wpt lat="33.749332427978516" lon="133.91732788085938">
 <time>2015-12-06T02:24:46ZZ</time>
 <name><![CDATA[温泉前]]></name>
</wpt>

<wpt lat="33.75346374511719" lon="133.9202117919922">
 <time>2015-12-06T02:24:46ZZ</time>
 <name><![CDATA[南池橋]]></name>
</wpt>

<wpt lat="33.75568771362305" lon="133.9256134033203">
 <time>2015-12-06T02:24:46ZZ</time>
 <name><![CDATA[冬谷橋]]></name>
</wpt>

<wpt lat="33.757057189941406" lon="133.92837524414062">
 <time>2015-12-06T02:24:46ZZ</time>
 <name><![CDATA[高井]]></name>
</wpt>

<wpt lat="33.76143264770508" lon="133.93203735351562">
 <time>2015-12-06T02:24:46ZZ</time>
 <name><![CDATA[袂石]]></name>
</wpt>

<wpt lat="33.764286041259766" lon="133.9365997314453">
 <time>2015-12-06T02:24:46ZZ</time>
 <name><![CDATA[堂の岡]]></name>
</wpt>

<wpt lat="33.76571273803711" lon="133.93734741210938">
 <time>2015-12-06T02:24:46ZZ</time>
 <name><![CDATA[安野尾口]]></name>
</wpt>

<wpt lat="33.76752471923828" lon="133.94871520996094">
 <time>2015-12-06T02:24:46ZZ</time>
 <name><![CDATA[沼井]]></name>
</wpt>

<wpt lat="33.771026611328125" lon="133.95477294921875">
 <time>2015-12-06T02:24:46ZZ</time>
 <name><![CDATA[中内]]></name>
</wpt>

<wpt lat="33.77608871459961" lon="133.95828247070312">
 <time>2015-12-06T02:24:46ZZ</time>
 <name><![CDATA[和久保]]></name>
</wpt>

<wpt lat="33.777896881103516" lon="133.96075439453125">
 <time>2015-12-06T02:24:46ZZ</time>
 <name><![CDATA[影]]></name>
</wpt>

<wpt lat="33.69831085205078" lon="133.87850952148438">
 <time>2015-12-06T02:24:46ZZ</time>
 <name><![CDATA[物部支所]]></name>
</wpt>

<wpt lat="33.69306182861328" lon="133.87074279785156">
 <time>2015-12-06T02:24:46ZZ</time>
 <name><![CDATA[東大比]]></name>
</wpt>

<wpt lat="33.69106674194336" lon="133.86798095703125">
 <time>2015-12-06T02:24:46ZZ</time>
 <name><![CDATA[西大比]]></name>
</wpt>

<wpt lat="33.69013214111328" lon="133.86630249023438">
 <time>2015-12-06T02:24:46ZZ</time>
 <name><![CDATA[東高尾]]></name>
</wpt>

<wpt lat="33.68769073486328" lon="133.8639373779297">
 <time>2015-12-06T02:24:46ZZ</time>
 <name><![CDATA[土佐高尾]]></name>
</wpt>

<wpt lat="33.68489074707031" lon="133.86648559570312">
 <time>2015-12-06T02:24:46ZZ</time>
 <name><![CDATA[沢居岩橋]]></name>
</wpt>

<wpt lat="33.680877685546875" lon="133.8729705810547">
 <time>2015-12-06T02:24:46ZZ</time>
 <name><![CDATA[東頓定]]></name>
</wpt>

<wpt lat="33.6776123046875" lon="133.87030029296875">
 <time>2015-12-06T02:24:46ZZ</time>
 <name><![CDATA[大平橋]]></name>
</wpt>

<wpt lat="33.677101135253906" lon="133.87327575683594">
 <time>2015-12-06T02:24:46ZZ</time>
 <name><![CDATA[宇井]]></name>
</wpt>

<wpt lat="33.67554473876953" lon="133.87689208984375">
 <time>2015-12-06T02:24:46ZZ</time>
 <name><![CDATA[林口]]></name>
</wpt>

<wpt lat="33.674320220947266" lon="133.87648010253906">
 <time>2015-12-06T02:24:46ZZ</time>
 <name><![CDATA[明改口]]></name>
</wpt>

<wpt lat="33.671958923339844" lon="133.87921142578125">
 <time>2015-12-06T02:24:46ZZ</time>
 <name><![CDATA[明改]]></name>
</wpt>

<wpt lat="33.669403076171875" lon="133.88864135742188">
 <time>2015-12-06T02:24:46ZZ</time>
 <name><![CDATA[仙頭の平]]></name>
</wpt>

<wpt lat="33.66868591308594" lon="133.89288330078125">
 <time>2015-12-06T02:24:46ZZ</time>
 <name><![CDATA[宮の入口]]></name>
</wpt>

<wpt lat="33.66896438598633" lon="133.8950958251953">
 <time>2015-12-06T02:24:46ZZ</time>
 <name><![CDATA[宮の後]]></name>
</wpt>

<wpt lat="33.671329498291016" lon="133.89913940429688">
 <time>2015-12-06T02:24:46ZZ</time>
 <name><![CDATA[栃谷]]></name>
</wpt>

<wpt lat="33.670230865478516" lon="133.8778533935547">
 <time>2015-12-06T02:24:46ZZ</time>
 <name><![CDATA[明改小前]]></name>
</wpt>

<wpt lat="33.66709899902344" lon="133.88356018066406">
 <time>2015-12-06T02:24:46ZZ</time>
 <name><![CDATA[巣山口]]></name>
</wpt>

<wpt lat="33.664268493652344" lon="133.88401794433594">
 <time>2015-12-06T02:24:46ZZ</time>
 <name><![CDATA[大古畑]]></name>
</wpt>

<wpt lat="33.662506103515625" lon="133.87864685058594">
 <time>2015-12-06T02:24:46ZZ</time>
 <name><![CDATA[栃本]]></name>
</wpt>

<wpt lat="33.648963928222656" lon="133.7840576171875">
 <time>2015-12-06T02:24:46ZZ</time>
 <name><![CDATA[保健福祉センター]]></name>
</wpt>

<wpt lat="33.64783477783203" lon="133.7788848876953">
 <time>2015-12-06T02:24:46ZZ</time>
 <name><![CDATA[美良布]]></name>
</wpt>

<wpt lat="33.649837493896484" lon="133.7795867919922">
 <time>2015-12-06T02:24:46ZZ</time>
 <name><![CDATA[泉町]]></name>
</wpt>

<wpt lat="33.651432037353516" lon="133.77798461914062">
 <time>2015-12-06T02:24:46ZZ</time>
 <name><![CDATA[小学校前]]></name>
</wpt>

<wpt lat="33.655601501464844" lon="133.77984619140625">
 <time>2015-12-06T02:24:46ZZ</time>
 <name><![CDATA[河口]]></name>
</wpt>

<wpt lat="33.656028747558594" lon="133.78321838378906">
 <time>2015-12-06T02:24:46ZZ</time>
 <name><![CDATA[日ノ御子]]></name>
</wpt>

<wpt lat="33.657501220703125" lon="133.7816925048828">
 <time>2015-12-06T02:24:46ZZ</time>
 <name><![CDATA[日ノ御子公会堂前]]></name>
</wpt>

<wpt lat="33.66524124145508" lon="133.78668212890625">
 <time>2015-12-06T02:24:46ZZ</time>
 <name><![CDATA[横谷口]]></name>
</wpt>

<wpt lat="33.666358947753906" lon="133.78944396972656">
 <time>2015-12-06T02:24:46ZZ</time>
 <name><![CDATA[横谷宮ノ前]]></name>
</wpt>

<wpt lat="33.669700622558594" lon="133.78988647460938">
 <time>2015-12-06T02:24:46ZZ</time>
 <name><![CDATA[中谷公会堂前]]></name>
</wpt>

<wpt lat="33.67299270629883" lon="133.79197692871094">
 <time>2015-12-06T02:24:46ZZ</time>
 <name><![CDATA[松村谷]]></name>
</wpt>

<wpt lat="33.67341232299805" lon="133.79562377929688">
 <time>2015-12-06T02:24:46ZZ</time>
 <name><![CDATA[谷相小学校前]]></name>
</wpt>

<wpt lat="33.673423767089844" lon="133.79966735839844">
 <time>2015-12-06T02:24:46ZZ</time>
 <name><![CDATA[三十代]]></name>
</wpt>

<wpt lat="33.67622756958008" lon="133.8016357421875">
 <time>2015-12-06T02:24:46ZZ</time>
 <name><![CDATA[ハーブ園前]]></name>
</wpt>

<wpt lat="33.67768096923828" lon="133.79888916015625">
 <time>2015-12-06T02:24:46ZZ</time>
 <name><![CDATA[谷相上ノダ]]></name>
</wpt>

<wpt lat="33.643192291259766" lon="133.74932861328125">
 <time>2015-12-06T02:24:46ZZ</time>
 <name><![CDATA[白川]]></name>
</wpt>

<wpt lat="33.64411163330078" lon="133.7545928955078">
 <time>2015-12-06T02:24:46ZZ</time>
 <name><![CDATA[香麗橋]]></name>
</wpt>

<wpt lat="33.64566421508789" lon="133.7577667236328">
 <time>2015-12-06T02:24:46ZZ</time>
 <name><![CDATA[市川]]></name>
</wpt>

<wpt lat="33.648311614990234" lon="133.76168823242188">
 <time>2015-12-06T02:24:46ZZ</time>
 <name><![CDATA[五百蔵]]></name>
</wpt>

<wpt lat="33.650352478027344" lon="133.76446533203125">
 <time>2015-12-06T02:24:46ZZ</time>
 <name><![CDATA[暁霞]]></name>
</wpt>

<wpt lat="33.65319061279297" lon="133.77099609375">
 <time>2015-12-06T02:24:46ZZ</time>
 <name><![CDATA[有瀬]]></name>
</wpt>

<wpt lat="33.64720153808594" lon="133.7758331298828">
 <time>2015-12-06T02:24:46ZZ</time>
 <name><![CDATA[大堀谷]]></name>
</wpt>

<wpt lat="33.64616394042969" lon="133.77105712890625">
 <time>2015-12-06T02:24:46ZZ</time>
 <name><![CDATA[釈迦堂前]]></name>
</wpt>

<wpt lat="33.64404296875" lon="133.7648162841797">
 <time>2015-12-06T02:24:46ZZ</time>
 <name><![CDATA[太郎丸]]></name>
</wpt>

<wpt lat="33.6433219909668" lon="133.7580108642578">
 <time>2015-12-06T02:24:46ZZ</time>
 <name><![CDATA[岩改口]]></name>
</wpt>

<wpt lat="33.634578704833984" lon="133.7576141357422">
 <time>2015-12-06T02:24:46ZZ</time>
 <name><![CDATA[萩野]]></name>
</wpt>

<wpt lat="33.62759780883789" lon="133.76400756835938">
 <time>2015-12-06T02:24:46ZZ</time>
 <name><![CDATA[北岩改]]></name>
</wpt>

<wpt lat="33.626304626464844" lon="133.76101684570312">
 <time>2015-12-06T02:24:46ZZ</time>
 <name><![CDATA[平]]></name>
</wpt>

<wpt lat="33.6211051940918" lon="133.76429748535156">
 <time>2015-12-06T02:24:46ZZ</time>
 <name><![CDATA[岩改]]></name>
</wpt>

<wpt lat="33.650482177734375" lon="133.7871551513672">
 <time>2015-12-06T02:24:46ZZ</time>
 <name><![CDATA[韮生野]]></name>
</wpt>

<wpt lat="33.65384292602539" lon="133.79368591308594">
 <time>2015-12-06T02:24:46ZZ</time>
 <name><![CDATA[小川]]></name>
</wpt>

<wpt lat="33.647056579589844" lon="133.8031463623047">
 <time>2015-12-06T02:24:46ZZ</time>
 <name><![CDATA[影ノ谷口]]></name>
</wpt>

<wpt lat="33.642860412597656" lon="133.8101806640625">
 <time>2015-12-06T02:24:46ZZ</time>
 <name><![CDATA[下久保川]]></name>
</wpt>

<wpt lat="33.63707733154297" lon="133.80873107910156">
 <time>2015-12-06T02:24:46ZZ</time>
 <name><![CDATA[久保川橋]]></name>
</wpt>

<wpt lat="33.63221740722656" lon="133.8070831298828">
 <time>2015-12-06T02:24:46ZZ</time>
 <name><![CDATA[胡麻尻]]></name>
</wpt>

<wpt lat="33.625518798828125" lon="133.80258178710938">
 <time>2015-12-06T02:24:46ZZ</time>
 <name><![CDATA[佐敷]]></name>
</wpt>

<wpt lat="33.624114990234375" lon="133.79945373535156">
 <time>2015-12-06T02:24:46ZZ</time>
 <name><![CDATA[栗ノ木]]></name>
</wpt>

<wpt lat="33.61939239501953" lon="133.7981414794922">
 <time>2015-12-06T02:24:46ZZ</time>
 <name><![CDATA[千萱]]></name>
</wpt>

<wpt lat="33.6840934753418" lon="133.84506225585938">
 <time>2015-12-06T02:24:46ZZ</time>
 <name><![CDATA[蕨野]]></name>
</wpt>

<wpt lat="33.70109176635742" lon="133.85765075683594">
 <time>2015-12-06T02:24:46ZZ</time>
 <name><![CDATA[永瀬]]></name>
</wpt>

<wpt lat="33.70794677734375" lon="133.8565216064453">
 <time>2015-12-06T02:24:46ZZ</time>
 <name><![CDATA[引立]]></name>
</wpt>

<wpt lat="33.706138610839844" lon="133.85496520996094">
 <time>2015-12-06T02:24:46ZZ</time>
 <name><![CDATA[猪野々]]></name>
</wpt>

<wpt lat="33.69681167602539" lon="133.85365295410156">
 <time>2015-12-06T02:24:46ZZ</time>
 <name><![CDATA[初田下]]></name>
</wpt>

<wpt lat="33.690467834472656" lon="133.8462677001953">
 <time>2015-12-06T02:24:46ZZ</time>
 <name><![CDATA[清爪]]></name>
</wpt>

<wpt lat="33.68986511230469" lon="133.8437957763672">
 <time>2015-12-06T02:24:46ZZ</time>
 <name><![CDATA[大谷口]]></name>
</wpt>

<wpt lat="33.68014144897461" lon="133.8355255126953">
 <time>2015-12-06T02:24:46ZZ</time>
 <name><![CDATA[日浦込]]></name>
</wpt>

<wpt lat="33.67673110961914" lon="133.8297119140625">
 <time>2015-12-06T02:24:46ZZ</time>
 <name><![CDATA[柚ノ木谷]]></name>
</wpt>

<wpt lat="33.67262649536133" lon="133.8284454345703">
 <time>2015-12-06T02:24:46ZZ</time>
 <name><![CDATA[梅久保]]></name>
</wpt>

<wpt lat="33.670413970947266" lon="133.82435607910156">
 <time>2015-12-06T02:24:46ZZ</time>
 <name><![CDATA[在所橋]]></name>
</wpt>

<wpt lat="33.66572952270508" lon="133.81724548339844">
 <time>2015-12-06T02:24:46ZZ</time>
 <name><![CDATA[永野]]></name>
</wpt>

<wpt lat="33.663639068603516" lon="133.8123779296875">
 <time>2015-12-06T02:24:46ZZ</time>
 <name><![CDATA[西永野]]></name>
</wpt>

<wpt lat="33.6611328125" lon="133.80491638183594">
 <time>2015-12-06T02:24:46ZZ</time>
 <name><![CDATA[朴ノ木橋]]></name>
</wpt>

<wpt lat="33.65938186645508" lon="133.80189514160156">
 <time>2015-12-06T02:24:46ZZ</time>
 <name><![CDATA[朴ノ木]]></name>
</wpt>

<wpt lat="33.65736389160156" lon="133.79554748535156">
 <time>2015-12-06T02:24:46ZZ</time>
 <name><![CDATA[下朴ノ木]]></name>
</wpt>

<wpt lat="33.67995071411133" lon="133.84120178222656">
 <time>2015-12-06T02:24:46ZZ</time>
 <name><![CDATA[白石]]></name>
</wpt>

<wpt lat="33.67844009399414" lon="133.83932495117188">
 <time>2015-12-06T02:24:46ZZ</time>
 <name><![CDATA[清爪口]]></name>
</wpt>

<wpt lat="33.6751823425293" lon="133.83474731445312">
 <time>2015-12-06T02:24:46ZZ</time>
 <name><![CDATA[永瀬発電所前]]></name>
</wpt>

<wpt lat="33.67364501953125" lon="133.83328247070312">
 <time>2015-12-06T02:24:46ZZ</time>
 <name><![CDATA[府内]]></name>
</wpt>

<wpt lat="33.66889190673828" lon="133.82662963867188">
 <time>2015-12-06T02:24:46ZZ</time>
 <name><![CDATA[在所]]></name>
</wpt>

<wpt lat="33.660125732421875" lon="133.8157501220703">
 <time>2015-12-06T02:24:46ZZ</time>
 <name><![CDATA[小吉野]]></name>
</wpt>

<wpt lat="33.65911865234375" lon="133.81240844726562">
 <time>2015-12-06T02:24:46ZZ</time>
 <name><![CDATA[吉野発電所前]]></name>
</wpt>

<wpt lat="33.65825653076172" lon="133.80950927734375">
 <time>2015-12-06T02:24:46ZZ</time>
 <name><![CDATA[吉野]]></name>
</wpt>

<wpt lat="33.65726852416992" lon="133.80616760253906">
 <time>2015-12-06T02:24:46ZZ</time>
 <name><![CDATA[青少年の家]]></name>
</wpt>

<wpt lat="33.65576934814453" lon="133.8013458251953">
 <time>2015-12-06T02:24:46ZZ</time>
 <name><![CDATA[朴ノ木口]]></name>
</wpt>

<wpt lat="33.57568359375" lon="134.17715454101562">
 <time>2015-12-06T02:24:46ZZ</time>
 <name><![CDATA[竹屋敷]]></name>
</wpt>

<wpt lat="33.54685974121094" lon="134.1815948486328">
 <time>2015-12-06T02:24:46ZZ</time>
 <name><![CDATA[尾河]]></name>
</wpt>

<wpt lat="33.5296630859375" lon="134.18023681640625">
 <time>2015-12-06T02:24:46ZZ</time>
 <name><![CDATA[菅ノ上]]></name>
</wpt>

<wpt lat="33.51127243041992" lon="134.16683959960938">
 <time>2015-12-06T02:24:46ZZ</time>
 <name><![CDATA[安倉]]></name>
</wpt>

<wpt lat="33.505859375" lon="134.14675903320312">
 <time>2015-12-06T02:24:46ZZ</time>
 <name><![CDATA[弘瀬]]></name>
</wpt>

<wpt lat="33.51390075683594" lon="134.13809204101562">
 <time>2015-12-06T02:24:46ZZ</time>
 <name><![CDATA[落合]]></name>
</wpt>

<wpt lat="33.42544174194336" lon="134.01766967773438">
 <time>2015-12-06T02:24:46ZZ</time>
 <name><![CDATA[奈半利駅]]></name>
</wpt>

<wpt lat="33.42827606201172" lon="134.00747680664062">
 <time>2015-12-06T02:24:46ZZ</time>
 <name><![CDATA[田野ふれあいセンター前]]></name>
</wpt>

<wpt lat="33.541015625" lon="134.11805725097656">
 <time>2015-12-06T02:24:46ZZ</time>
 <name><![CDATA[島]]></name>
</wpt>

<wpt lat="33.5136604309082" lon="134.12847900390625">
 <time>2015-12-06T02:24:46ZZ</time>
 <name><![CDATA[平鍋橋]]></name>
</wpt>

<wpt lat="33.512882232666016" lon="134.1206817626953">
 <time>2015-12-06T02:24:46ZZ</time>
 <name><![CDATA[平鍋郵便局前]]></name>
</wpt>

<wpt lat="33.50469970703125" lon="134.11676025390625">
 <time>2015-12-06T02:24:46ZZ</time>
 <name><![CDATA[城門ヶ段]]></name>
</wpt>

<wpt lat="33.50326156616211" lon="134.10838317871094">
 <time>2015-12-06T02:24:46ZZ</time>
 <name><![CDATA[長沢]]></name>
</wpt>

<wpt lat="33.49766540527344" lon="134.0998992919922">
 <time>2015-12-06T02:24:46ZZ</time>
 <name><![CDATA[小島]]></name>
</wpt>

<wpt lat="33.49081802368164" lon="134.08798217773438">
 <time>2015-12-06T02:24:46ZZ</time>
 <name><![CDATA[瀬詰]]></name>
</wpt>

<wpt lat="33.4890251159668" lon="134.0824737548828">
 <time>2015-12-06T02:24:46ZZ</time>
 <name><![CDATA[和田橋]]></name>
</wpt>

<wpt lat="33.47991943359375" lon="134.0789031982422">
 <time>2015-12-06T02:24:46ZZ</time>
 <name><![CDATA[青木]]></name>
</wpt>

<wpt lat="33.4704704284668" lon="134.05850219726562">
 <time>2015-12-06T02:24:46ZZ</time>
 <name><![CDATA[崎山]]></name>
</wpt>

<wpt lat="33.45676040649414" lon="134.05677795410156">
 <time>2015-12-06T02:24:46ZZ</time>
 <name><![CDATA[柏木]]></name>
</wpt>

<wpt lat="33.46229553222656" lon="134.05015563964844">
 <time>2015-12-06T02:24:46ZZ</time>
 <name><![CDATA[長山橋西詰]]></name>
</wpt>

<wpt lat="33.46229553222656" lon="134.04550170898438">
 <time>2015-12-06T02:24:46ZZ</time>
 <name><![CDATA[西谷口]]></name>
</wpt>

<wpt lat="33.45328903198242" lon="134.03758239746094">
 <time>2015-12-06T02:24:46ZZ</time>
 <name><![CDATA[加茂（久府付）]]></name>
</wpt>

<wpt lat="33.44825744628906" lon="134.04193115234375">
 <time>2015-12-06T02:24:46ZZ</time>
 <name><![CDATA[野友]]></name>
</wpt>

<wpt lat="33.440330505371094" lon="134.0321502685547">
 <time>2015-12-06T02:24:46ZZ</time>
 <name><![CDATA[モネの庭]]></name>
</wpt>

<wpt lat="33.43726348876953" lon="134.02821350097656">
 <time>2015-12-06T02:24:46ZZ</time>
 <name><![CDATA[車瀬出店]]></name>
</wpt>

<wpt lat="33.42483139038086" lon="134.02183532714844">
 <time>2015-12-06T02:24:46ZZ</time>
 <name><![CDATA[奈半利立町]]></name>
</wpt>

<wpt lat="33.57803726196289" lon="134.1077117919922">
 <time>2015-12-06T02:24:46ZZ</time>
 <name><![CDATA[久木分岐]]></name>
</wpt>

<wpt lat="33.57678985595703" lon="134.10618591308594">
 <time>2015-12-06T02:24:46ZZ</time>
 <name><![CDATA[久木]]></name>
</wpt>

<wpt lat="33.572994232177734" lon="134.11695861816406">
 <time>2015-12-06T02:24:46ZZ</time>
 <name><![CDATA[大谷口]]></name>
</wpt>

<wpt lat="33.567562103271484" lon="134.1131134033203">
 <time>2015-12-06T02:24:46ZZ</time>
 <name><![CDATA[憎津]]></name>
</wpt>

<wpt lat="33.54648208618164" lon="134.11471557617188">
 <time>2015-12-06T02:24:46ZZ</time>
 <name><![CDATA[久江の上]]></name>
</wpt>

<wpt lat="33.53972244262695" lon="134.1239013671875">
 <time>2015-12-06T02:24:46ZZ</time>
 <name><![CDATA[月谷口]]></name>
</wpt>

<wpt lat="33.528907775878906" lon="134.1332550048828">
 <time>2015-12-06T02:24:46ZZ</time>
 <name><![CDATA[堀ヶ生]]></name>
</wpt>

<wpt lat="33.52039337158203" lon="134.1348114013672">
 <time>2015-12-06T02:24:46ZZ</time>
 <name><![CDATA[二タ又]]></name>
</wpt>

<wpt lat="33.4929313659668" lon="134.05934143066406">
 <time>2015-12-06T02:24:46ZZ</time>
 <name><![CDATA[宗ノ上]]></name>
</wpt>

<wpt lat="33.47885513305664" lon="134.0487823486328">
 <time>2015-12-06T02:24:46ZZ</time>
 <name><![CDATA[木積]]></name>
</wpt>

<wpt lat="33.475807189941406" lon="134.03863525390625">
 <time>2015-12-06T02:24:46ZZ</time>
 <name><![CDATA[長山落合]]></name>
</wpt>

<wpt lat="33.47272491455078" lon="134.039794921875">
 <time>2015-12-06T02:24:46ZZ</time>
 <name><![CDATA[コンゴーボー]]></name>
</wpt>

<wpt lat="33.45285415649414" lon="134.08250427246094">
 <time>2015-12-06T02:24:46ZZ</time>
 <name><![CDATA[野川川内神社前]]></name>
</wpt>

<wpt lat="33.45243835449219" lon="134.0793914794922">
 <time>2015-12-06T02:24:46ZZ</time>
 <name><![CDATA[五人組]]></name>
</wpt>

<wpt lat="33.446746826171875" lon="134.07284545898438">
 <time>2015-12-06T02:24:46ZZ</time>
 <name><![CDATA[羽毛]]></name>
</wpt>

<wpt lat="33.44397735595703" lon="134.0631561279297">
 <time>2015-12-06T02:24:46ZZ</time>
 <name><![CDATA[野川公民館前]]></name>
</wpt>

<wpt lat="33.45016098022461" lon="134.0506134033203">
 <time>2015-12-06T02:24:46ZZ</time>
 <name><![CDATA[菖蒲]]></name>
</wpt>

<wpt lat="33.516578674316406" lon="134.1802978515625">
 <time>2015-12-06T02:24:46ZZ</time>
 <name><![CDATA[ヤハズ谷]]></name>
</wpt>

<wpt lat="33.515289306640625" lon="134.17401123046875">
 <time>2015-12-06T02:24:46ZZ</time>
 <name><![CDATA[菅ノ上小学校]]></name>
</wpt>

<wpt lat="33.51127243041992" lon="134.16683959960938">
 <time>2015-12-06T02:24:46ZZ</time>
 <name><![CDATA[安倉橋]]></name>
</wpt>

<wpt lat="33.505001068115234" lon="134.16644287109375">
 <time>2015-12-06T02:24:46ZZ</time>
 <name><![CDATA[安倉造林]]></name>
</wpt>

<wpt lat="33.50242614746094" lon="134.15606689453125">
 <time>2015-12-06T02:24:46ZZ</time>
 <name><![CDATA[蛇谷口]]></name>
</wpt>

<wpt lat="33.51829147338867" lon="133.809326171875">
 <time>2015-12-06T02:24:46ZZ</time>
 <name><![CDATA[ごめん・なはり線和食駅]]></name>
</wpt>

<wpt lat="33.51926040649414" lon="133.8102569580078">
 <time>2015-12-06T02:24:46ZZ</time>
 <name><![CDATA[郵便局前]]></name>
</wpt>

<wpt lat="33.52360916137695" lon="133.81021118164062">
 <time>2015-12-06T02:24:46ZZ</time>
 <name><![CDATA[JA土佐あき（わじき出張所）]]></name>
</wpt>

<wpt lat="33.52488708496094" lon="133.81036376953125">
 <time>2015-12-06T02:24:46ZZ</time>
 <name><![CDATA[中学校通]]></name>
</wpt>

<wpt lat="33.526832580566406" lon="133.8105926513672">
 <time>2015-12-06T02:24:46ZZ</time>
 <name><![CDATA[小学校通]]></name>
</wpt>

<wpt lat="33.532039642333984" lon="133.8111114501953">
 <time>2015-12-06T02:24:46ZZ</time>
 <name><![CDATA[馬ノ上ふれあいセンター前]]></name>
</wpt>

<wpt lat="33.540802001953125" lon="133.8151397705078">
 <time>2015-12-06T02:24:46ZZ</time>
 <name><![CDATA[ののじり]]></name>
</wpt>

<wpt lat="33.55217742919922" lon="133.8208465576172">
 <time>2015-12-06T02:24:46ZZ</time>
 <name><![CDATA[角石]]></name>
</wpt>

<wpt lat="33.553646087646484" lon="133.82125854492188">
 <time>2015-12-06T02:24:46ZZ</time>
 <name><![CDATA[堆肥センター前]]></name>
</wpt>

<wpt lat="33.55605697631836" lon="133.82460021972656">
 <time>2015-12-06T02:24:46ZZ</time>
 <name><![CDATA[馬床]]></name>
</wpt>

<wpt lat="33.562965393066406" lon="133.83026123046875">
 <time>2015-12-06T02:24:46ZZ</time>
 <name><![CDATA[神社前]]></name>
</wpt>

<wpt lat="33.563838958740234" lon="133.8337860107422">
 <time>2015-12-06T02:24:46ZZ</time>
 <name><![CDATA[チガヤ]]></name>
</wpt>

<wpt lat="33.56846237182617" lon="133.83485412597656">
 <time>2015-12-06T02:24:46ZZ</time>
 <name><![CDATA[久重三叉路]]></name>
</wpt>

<wpt lat="33.57640075683594" lon="133.83123779296875">
 <time>2015-12-06T02:24:46ZZ</time>
 <name><![CDATA[国光]]></name>
</wpt>

<wpt lat="33.54200744628906" lon="133.8109588623047">
 <time>2015-12-06T02:24:46ZZ</time>
 <name><![CDATA[中村橋]]></name>
</wpt>

<wpt lat="33.568111419677734" lon="133.83953857421875">
 <time>2015-12-06T02:24:46ZZ</time>
 <name><![CDATA[山の家]]></name>
</wpt>

<wpt lat="33.572505950927734" lon="133.82382202148438">
 <time>2015-12-06T02:24:46ZZ</time>
 <name><![CDATA[道家]]></name>
</wpt>

<wpt lat="33.54642105102539" lon="133.4324493408203">
 <time>2015-12-06T02:24:46ZZ</time>
 <name><![CDATA[すこやかセンター伊野]]></name>
</wpt>

<wpt lat="33.55072784423828" lon="133.4255828857422">
 <time>2015-12-06T02:24:46ZZ</time>
 <name><![CDATA[伊野小学校前]]></name>
</wpt>

<wpt lat="33.55045700073242" lon="133.4238739013672">
 <time>2015-12-06T02:24:46ZZ</time>
 <name><![CDATA[消防署前]]></name>
</wpt>

<wpt lat="33.549739837646484" lon="133.4207763671875">
 <time>2015-12-06T02:24:46ZZ</time>
 <name><![CDATA[大国さま前]]></name>
</wpt>

<wpt lat="33.54770278930664" lon="133.42250061035156">
 <time>2015-12-06T02:24:46ZZ</time>
 <name><![CDATA[公園町]]></name>
</wpt>

<wpt lat="33.54669952392578" lon="133.42552185058594">
 <time>2015-12-06T02:24:46ZZ</time>
 <name><![CDATA[伊野天神町]]></name>
</wpt>

<wpt lat="33.54784393310547" lon="133.4295196533203">
 <time>2015-12-06T02:24:46ZZ</time>
 <name><![CDATA[伊野駅前]]></name>
</wpt>

<wpt lat="33.54758071899414" lon="133.4300537109375">
 <time>2015-12-06T02:24:46ZZ</time>
 <name><![CDATA[伊野駅]]></name>
</wpt>

<wpt lat="33.54697799682617" lon="133.43426513671875">
 <time>2015-12-06T02:24:46ZZ</time>
 <name><![CDATA[仁淀病院前]]></name>
</wpt>

<wpt lat="33.541202545166016" lon="133.44300842285156">
 <time>2015-12-06T02:24:46ZZ</time>
 <name><![CDATA[伊野南墓地公園前]]></name>
</wpt>

<wpt lat="33.53862762451172" lon="133.44308471679688">
 <time>2015-12-06T02:24:46ZZ</time>
 <name><![CDATA[流田]]></name>
</wpt>

<wpt lat="33.53920364379883" lon="133.44589233398438">
 <time>2015-12-06T02:24:46ZZ</time>
 <name><![CDATA[柿又]]></name>
</wpt>

<wpt lat="33.53799819946289" lon="133.447509765625">
 <time>2015-12-06T02:24:46ZZ</time>
 <name><![CDATA[池ノ内]]></name>
</wpt>

<wpt lat="33.53506088256836" lon="133.4501190185547">
 <time>2015-12-06T02:24:46ZZ</time>
 <name><![CDATA[池ノ内分岐]]></name>
</wpt>

<wpt lat="33.532135009765625" lon="133.44992065429688">
 <time>2015-12-06T02:24:46ZZ</time>
 <name><![CDATA[天王ニュータウン東口]]></name>
</wpt>

<wpt lat="33.53059005737305" lon="133.4508056640625">
 <time>2015-12-06T02:24:46ZZ</time>
 <name><![CDATA[天王南8丁目]]></name>
</wpt>

<wpt lat="33.528526306152344" lon="133.45115661621094">
 <time>2015-12-06T02:24:46ZZ</time>
 <name><![CDATA[天王ニュータウン南]]></name>
</wpt>

<wpt lat="33.52886199951172" lon="133.4487762451172">
 <time>2015-12-06T02:24:46ZZ</time>
 <name><![CDATA[天王南3丁目]]></name>
</wpt>

<wpt lat="33.53074645996094" lon="133.4478302001953">
 <time>2015-12-06T02:24:46ZZ</time>
 <name><![CDATA[天王ニュータウン]]></name>
</wpt>

<wpt lat="33.52875518798828" lon="133.4435577392578">
 <time>2015-12-06T02:24:46ZZ</time>
 <name><![CDATA[天王ニュータウン西口]]></name>
</wpt>

<wpt lat="33.52748107910156" lon="133.4398956298828">
 <time>2015-12-06T02:24:46ZZ</time>
 <name><![CDATA[梅の木第二]]></name>
</wpt>

<wpt lat="33.52456283569336" lon="133.43768310546875">
 <time>2015-12-06T02:24:46ZZ</time>
 <name><![CDATA[大坪橋]]></name>
</wpt>

<wpt lat="33.521697998046875" lon="133.4357147216797">
 <time>2015-12-06T02:24:46ZZ</time>
 <name><![CDATA[大納]]></name>
</wpt>

<wpt lat="33.52037811279297" lon="133.4350128173828">
 <time>2015-12-06T02:24:46ZZ</time>
 <name><![CDATA[局前]]></name>
</wpt>

<wpt lat="33.52059555053711" lon="133.4332275390625">
 <time>2015-12-06T02:24:46ZZ</time>
 <name><![CDATA[八田]]></name>
</wpt>

<wpt lat="33.5251579284668" lon="133.42674255371094">
 <time>2015-12-06T02:24:46ZZ</time>
 <name><![CDATA[大元]]></name>
</wpt>

<wpt lat="33.52932357788086" lon="133.4274139404297">
 <time>2015-12-06T02:24:46ZZ</time>
 <name><![CDATA[南の谷]]></name>
</wpt>

<wpt lat="33.53196334838867" lon="133.4273681640625">
 <time>2015-12-06T02:24:46ZZ</time>
 <name><![CDATA[中の谷]]></name>
</wpt>

<wpt lat="33.53426742553711" lon="133.42730712890625">
 <time>2015-12-06T02:24:46ZZ</time>
 <name><![CDATA[小八十]]></name>
</wpt>

<wpt lat="33.536590576171875" lon="133.42649841308594">
 <time>2015-12-06T02:24:46ZZ</time>
 <name><![CDATA[大八十]]></name>
</wpt>

<wpt lat="33.53828811645508" lon="133.42501831054688">
 <time>2015-12-06T02:24:46ZZ</time>
 <name><![CDATA[天神]]></name>
</wpt>

<wpt lat="33.53990936279297" lon="133.42198181152344">
 <time>2015-12-06T02:24:46ZZ</time>
 <name><![CDATA[小鎌田]]></name>
</wpt>

<wpt lat="33.542137145996094" lon="133.41836547851562">
 <time>2015-12-06T02:24:46ZZ</time>
 <name><![CDATA[川内小学校前]]></name>
</wpt>

<wpt lat="33.54328155517578" lon="133.4167938232422">
 <time>2015-12-06T02:24:46ZZ</time>
 <name><![CDATA[尾山]]></name>
</wpt>

<wpt lat="33.54772186279297" lon="133.41357421875">
 <time>2015-12-06T02:24:46ZZ</time>
 <name><![CDATA[波川分岐]]></name>
</wpt>

<wpt lat="33.54841232299805" lon="133.4147491455078">
 <time>2015-12-06T02:24:46ZZ</time>
 <name><![CDATA[保養センター通]]></name>
</wpt>

<wpt lat="33.55078887939453" lon="133.4193115234375">
 <time>2015-12-06T02:24:46ZZ</time>
 <name><![CDATA[仁淀川橋東詰]]></name>
</wpt>

<wpt lat="33.571964263916016" lon="133.16990661621094">
 <time>2015-12-06T02:24:46ZZ</time>
 <name><![CDATA[大崎診療所]]></name>
</wpt>

<wpt lat="33.574703216552734" lon="133.16827392578125">
 <time>2015-12-06T02:24:46ZZ</time>
 <name><![CDATA[大崎駅]]></name>
</wpt>

<wpt lat="33.59136199951172" lon="133.16070556640625">
 <time>2015-12-06T02:24:46ZZ</time>
 <name><![CDATA[田村]]></name>
</wpt>

<wpt lat="33.608036041259766" lon="133.17010498046875">
 <time>2015-12-06T02:24:46ZZ</time>
 <name><![CDATA[支所前]]></name>
</wpt>

<wpt lat="33.608638763427734" lon="133.17193603515625">
 <time>2015-12-06T02:24:46ZZ</time>
 <name><![CDATA[酒井医院前]]></name>
</wpt>

<wpt lat="33.60916519165039" lon="133.17320251464844">
 <time>2015-12-06T02:24:46ZZ</time>
 <name><![CDATA[堀切]]></name>
</wpt>

<wpt lat="33.631595611572266" lon="133.163818359375">
 <time>2015-12-06T02:24:46ZZ</time>
 <name><![CDATA[明戸岩橋]]></name>
</wpt>

<wpt lat="33.636112213134766" lon="133.16188049316406">
 <time>2015-12-06T02:24:46ZZ</time>
 <name><![CDATA[大西]]></name>
</wpt>

<wpt lat="33.640525817871094" lon="133.14646911621094">
 <time>2015-12-06T02:24:46ZZ</time>
 <name><![CDATA[永代橋]]></name>
</wpt>

<wpt lat="33.640602111816406" lon="133.12625122070312">
 <time>2015-12-06T02:24:46ZZ</time>
 <name><![CDATA[用居郵便局前]]></name>
</wpt>

<wpt lat="33.63414001464844" lon="133.0819549560547">
 <time>2015-12-06T02:24:46ZZ</time>
 <name><![CDATA[ヲヲカゲ]]></name>
</wpt>

<wpt lat="33.64189910888672" lon="133.08938598632812">
 <time>2015-12-06T02:24:46ZZ</time>
 <name><![CDATA[瓜生野集落終点]]></name>
</wpt>

<wpt lat="33.64401626586914" lon="133.0966339111328">
 <time>2015-12-06T02:24:46ZZ</time>
 <name><![CDATA[桧谷集落終点]]></name>
</wpt>

<wpt lat="33.64054870605469" lon="133.11679077148438">
 <time>2015-12-06T02:24:46ZZ</time>
 <name><![CDATA[出丸終点]]></name>
</wpt>

<wpt lat="33.64431381225586" lon="133.11048889160156">
 <time>2015-12-06T02:24:46ZZ</time>
 <name><![CDATA[舟形川向橋]]></name>
</wpt>

<wpt lat="33.64628601074219" lon="133.1275177001953">
 <time>2015-12-06T02:24:46ZZ</time>
 <name><![CDATA[北谷終点]]></name>
</wpt>

<wpt lat="33.64725875854492" lon="133.14404296875">
 <time>2015-12-06T02:24:46ZZ</time>
 <name><![CDATA[大野集会所]]></name>
</wpt>

<wpt lat="33.67528533935547" lon="133.1439208984375">
 <time>2015-12-06T02:24:46ZZ</time>
 <name><![CDATA[椿山交流センター]]></name>
</wpt>

<wpt lat="33.62603759765625" lon="133.17030334472656">
 <time>2015-12-06T02:24:46ZZ</time>
 <name><![CDATA[池川大渡防火水槽]]></name>
</wpt>

<wpt lat="33.631011962890625" lon="133.16867065429688">
 <time>2015-12-06T02:24:46ZZ</time>
 <name><![CDATA[明戸岩集落終点]]></name>
</wpt>

<wpt lat="33.64816665649414" lon="133.15985107421875">
 <time>2015-12-06T02:24:46ZZ</time>
 <name><![CDATA[岩柄集会所]]></name>
</wpt>

<wpt lat="33.612552642822266" lon="133.1740264892578">
 <time>2015-12-06T02:24:46ZZ</time>
 <name><![CDATA[安部病院前]]></name>
</wpt>

<wpt lat="33.61127853393555" lon="133.18331909179688">
 <time>2015-12-06T02:24:46ZZ</time>
 <name><![CDATA[狩山口]]></name>
</wpt>

<wpt lat="33.640464782714844" lon="133.1940460205078">
 <time>2015-12-06T02:24:46ZZ</time>
 <name><![CDATA[成川余能橋]]></name>
</wpt>

<wpt lat="33.634490966796875" lon="133.20655822753906">
 <time>2015-12-06T02:24:46ZZ</time>
 <name><![CDATA[安居土居集落終点]]></name>
</wpt>

<wpt lat="33.640499114990234" lon="133.19456481933594">
 <time>2015-12-06T02:24:46ZZ</time>
 <name><![CDATA[成川]]></name>
</wpt>

<wpt lat="33.6453742980957" lon="133.1962890625">
 <time>2015-12-06T02:24:46ZZ</time>
 <name><![CDATA[宮ノ下]]></name>
</wpt>

<wpt lat="33.64935302734375" lon="133.19577026367188">
 <time>2015-12-06T02:24:46ZZ</time>
 <name><![CDATA[宮ヶ平]]></name>
</wpt>

<wpt lat="33.6549072265625" lon="133.19503784179688">
 <time>2015-12-06T02:24:46ZZ</time>
 <name><![CDATA[大屋集会所]]></name>
</wpt>

<wpt lat="33.67354202270508" lon="133.1827850341797">
 <time>2015-12-06T02:24:46ZZ</time>
 <name><![CDATA[樫山集会所]]></name>
</wpt>

<wpt lat="33.64606857299805" lon="133.20692443847656">
 <time>2015-12-06T02:24:46ZZ</time>
 <name><![CDATA[坪井川客天神社]]></name>
</wpt>

<wpt lat="33.63322830200195" lon="133.19468688964844">
 <time>2015-12-06T02:24:46ZZ</time>
 <name><![CDATA[入江谷　上]]></name>
</wpt>

<wpt lat="33.6312370300293" lon="133.18545532226562">
 <time>2015-12-06T02:24:46ZZ</time>
 <name><![CDATA[余能集会所]]></name>
</wpt>

<wpt lat="33.6103630065918" lon="133.18565368652344">
 <time>2015-12-06T02:24:46ZZ</time>
 <name><![CDATA[見ノ越]]></name>
</wpt>

<wpt lat="33.614356994628906" lon="133.19943237304688">
 <time>2015-12-06T02:24:46ZZ</time>
 <name><![CDATA[狩山集会所]]></name>
</wpt>

<wpt lat="33.61858367919922" lon="133.20338439941406">
 <time>2015-12-06T02:24:46ZZ</time>
 <name><![CDATA[大平本村]]></name>
</wpt>

<wpt lat="33.61960220336914" lon="133.20835876464844">
 <time>2015-12-06T02:24:46ZZ</time>
 <name><![CDATA[大平集会所]]></name>
</wpt>

<wpt lat="33.61442565917969" lon="133.2111053466797">
 <time>2015-12-06T02:24:46ZZ</time>
 <name><![CDATA[楮原集会所]]></name>
</wpt>

<wpt lat="33.61005783081055" lon="133.21205139160156">
 <time>2015-12-06T02:24:46ZZ</time>
 <name><![CDATA[カラグリ終点]]></name>
</wpt>

<wpt lat="33.59706115722656" lon="133.16213989257812">
 <time>2015-12-06T02:24:46ZZ</time>
 <name><![CDATA[長屋]]></name>
</wpt>

<wpt lat="33.60773468017578" lon="133.1723175048828">
 <time>2015-12-06T02:24:46ZZ</time>
 <name><![CDATA[北浦]]></name>
</wpt>

<wpt lat="33.60295486450195" lon="133.15829467773438">
 <time>2015-12-06T02:24:46ZZ</time>
 <name><![CDATA[西谷]]></name>
</wpt>

<wpt lat="33.60945129394531" lon="133.1561279296875">
 <time>2015-12-06T02:24:46ZZ</time>
 <name><![CDATA[自然学園]]></name>
</wpt>

<wpt lat="33.60383605957031" lon="133.15171813964844">
 <time>2015-12-06T02:24:46ZZ</time>
 <name><![CDATA[相ノ谷]]></name>
</wpt>

<wpt lat="33.60136032104492" lon="133.13865661621094">
 <time>2015-12-06T02:24:46ZZ</time>
 <name><![CDATA[石床橋]]></name>
</wpt>

<wpt lat="33.55785369873047" lon="133.13214111328125">
 <time>2015-12-06T02:24:46ZZ</time>
 <name><![CDATA[名野川]]></name>
</wpt>

<wpt lat="33.565250396728516" lon="133.1431427001953">
 <time>2015-12-06T02:24:46ZZ</time>
 <name><![CDATA[遅越]]></name>
</wpt>

<wpt lat="33.5610466003418" lon="133.14151000976562">
 <time>2015-12-06T02:24:46ZZ</time>
 <name><![CDATA[名野川大平]]></name>
</wpt>

<wpt lat="33.57243347167969" lon="133.10939025878906">
 <time>2015-12-06T02:24:46ZZ</time>
 <name><![CDATA[中]]></name>
</wpt>

<wpt lat="33.592063903808594" lon="133.14292907714844">
 <time>2015-12-06T02:24:46ZZ</time>
 <name><![CDATA[宗津]]></name>
</wpt>

<wpt lat="33.57413864135742" lon="133.15679931640625">
 <time>2015-12-06T02:24:46ZZ</time>
 <name><![CDATA[橘谷]]></name>
</wpt>

<wpt lat="33.546356201171875" lon="133.1166534423828">
 <time>2015-12-06T02:24:46ZZ</time>
 <name><![CDATA[潰溜]]></name>
</wpt>

<wpt lat="33.54449462890625" lon="133.10488891601562">
 <time>2015-12-06T02:24:46ZZ</time>
 <name><![CDATA[森山]]></name>
</wpt>

<wpt lat="33.546173095703125" lon="133.0967559814453">
 <time>2015-12-06T02:24:46ZZ</time>
 <name><![CDATA[大尾・上]]></name>
</wpt>

<wpt lat="33.537696838378906" lon="133.08241271972656">
 <time>2015-12-06T02:24:46ZZ</time>
 <name><![CDATA[鷲ノ巣]]></name>
</wpt>

<wpt lat="33.548404693603516" lon="133.0709228515625">
 <time>2015-12-06T02:24:46ZZ</time>
 <name><![CDATA[橘・上]]></name>
</wpt>

<wpt lat="33.5482063293457" lon="133.1236114501953">
 <time>2015-12-06T02:24:46ZZ</time>
 <name><![CDATA[峠ノ越]]></name>
</wpt>

<wpt lat="33.591121673583984" lon="133.1690216064453">
 <time>2015-12-06T02:24:46ZZ</time>
 <name><![CDATA[桜]]></name>
</wpt>

<wpt lat="33.59626007080078" lon="133.17373657226562">
 <time>2015-12-06T02:24:46ZZ</time>
 <name><![CDATA[鹿森]]></name>
</wpt>

<wpt lat="33.58504104614258" lon="133.18016052246094">
 <time>2015-12-06T02:24:46ZZ</time>
 <name><![CDATA[中村]]></name>
</wpt>

<wpt lat="33.57734298706055" lon="133.18551635742188">
 <time>2015-12-06T02:24:46ZZ</time>
 <name><![CDATA[蕨谷]]></name>
</wpt>

<wpt lat="33.575218200683594" lon="133.18873596191406">
 <time>2015-12-06T02:24:46ZZ</time>
 <name><![CDATA[西浦]]></name>
</wpt>

<wpt lat="33.57347869873047" lon="133.1953887939453">
 <time>2015-12-06T02:24:46ZZ</time>
 <name><![CDATA[寺村]]></name>
</wpt>

<wpt lat="33.57883834838867" lon="133.1946563720703">
 <time>2015-12-06T02:24:46ZZ</time>
 <name><![CDATA[寺村・上]]></name>
</wpt>

<wpt lat="33.58376693725586" lon="133.19815063476562">
 <time>2015-12-06T02:24:46ZZ</time>
 <name><![CDATA[岩戸]]></name>
</wpt>

<wpt lat="33.59202194213867" lon="133.2021484375">
 <time>2015-12-06T02:24:46ZZ</time>
 <name><![CDATA[峯岩戸]]></name>
</wpt>

<wpt lat="33.57482147216797" lon="133.2017364501953">
 <time>2015-12-06T02:24:46ZZ</time>
 <name><![CDATA[大板]]></name>
</wpt>

<wpt lat="33.5695915222168" lon="133.1830596923828">
 <time>2015-12-06T02:24:46ZZ</time>
 <name><![CDATA[加枝]]></name>
</wpt>

<wpt lat="33.56374740600586" lon="133.16317749023438">
 <time>2015-12-06T02:24:46ZZ</time>
 <name><![CDATA[久喜]]></name>
</wpt>

<wpt lat="33.552547454833984" lon="133.1552734375">
 <time>2015-12-06T02:24:46ZZ</time>
 <name><![CDATA[上久喜]]></name>
</wpt>

<wpt lat="33.547969818115234" lon="133.1464385986328">
 <time>2015-12-06T02:24:46ZZ</time>
 <name><![CDATA[柚ノ木谷]]></name>
</wpt>

<wpt lat="33.53513717651367" lon="133.1293182373047">
 <time>2015-12-06T02:24:46ZZ</time>
 <name><![CDATA[西村医院前]]></name>
</wpt>

<wpt lat="33.5363883972168" lon="133.12014770507812">
 <time>2015-12-06T02:24:46ZZ</time>
 <name><![CDATA[西谷口]]></name>
</wpt>

<wpt lat="33.545963287353516" lon="133.11724853515625">
 <time>2015-12-06T02:24:46ZZ</time>
 <name><![CDATA[大渡ダム]]></name>
</wpt>

<wpt lat="33.53964614868164" lon="133.06964111328125">
 <time>2015-12-06T02:24:46ZZ</time>
 <name><![CDATA[別枝大橋]]></name>
</wpt>

<wpt lat="33.53642654418945" lon="133.05921936035156">
 <time>2015-12-06T02:24:46ZZ</time>
 <name><![CDATA[岩屋]]></name>
</wpt>

<wpt lat="33.53190994262695" lon="133.05563354492188">
 <time>2015-12-06T02:24:46ZZ</time>
 <name><![CDATA[本村]]></name>
</wpt>

<wpt lat="33.527278900146484" lon="133.05032348632812">
 <time>2015-12-06T02:24:46ZZ</time>
 <name><![CDATA[霧之窪]]></name>
</wpt>

<wpt lat="33.5136604309082" lon="133.0528106689453">
 <time>2015-12-06T02:24:46ZZ</time>
 <name><![CDATA[芋生野集会所]]></name>
</wpt>

<wpt lat="33.500858306884766" lon="133.0488739013672">
 <time>2015-12-06T02:24:46ZZ</time>
 <name><![CDATA[都]]></name>
</wpt>

<wpt lat="33.506866455078125" lon="133.04481506347656">
 <time>2015-12-06T02:24:46ZZ</time>
 <name><![CDATA[別枝中村]]></name>
</wpt>

<wpt lat="33.538795471191406" lon="133.07354736328125">
 <time>2015-12-06T02:24:46ZZ</time>
 <name><![CDATA[沢渡農協前]]></name>
</wpt>

<wpt lat="33.53411102294922" lon="133.0869598388672">
 <time>2015-12-06T02:24:46ZZ</time>
 <name><![CDATA[大見槍集会所]]></name>
</wpt>

<wpt lat="33.53230285644531" lon="133.0779571533203">
 <time>2015-12-06T02:24:46ZZ</time>
 <name><![CDATA[道芝集会所]]></name>
</wpt>

<wpt lat="33.527679443359375" lon="133.07130432128906">
 <time>2015-12-06T02:24:46ZZ</time>
 <name><![CDATA[太田]]></name>
</wpt>

<wpt lat="33.529544830322266" lon="133.11151123046875">
 <time>2015-12-06T02:24:46ZZ</time>
 <name><![CDATA[中野]]></name>
</wpt>

<wpt lat="33.528377532958984" lon="133.11061096191406">
 <time>2015-12-06T02:24:46ZZ</time>
 <name><![CDATA[峰]]></name>
</wpt>

<wpt lat="33.53160095214844" lon="133.0986328125">
 <time>2015-12-06T02:24:46ZZ</time>
 <name><![CDATA[桂]]></name>
</wpt>

<wpt lat="33.54213333129883" lon="133.1006622314453">
 <time>2015-12-06T02:24:46ZZ</time>
 <name><![CDATA[高瀬本村]]></name>
</wpt>

<wpt lat="33.527584075927734" lon="133.12969970703125">
 <time>2015-12-06T02:24:46ZZ</time>
 <name><![CDATA[川渡]]></name>
</wpt>

<wpt lat="33.524192810058594" lon="133.1211700439453">
 <time>2015-12-06T02:24:46ZZ</time>
 <name><![CDATA[上川渡大師堂]]></name>
</wpt>

<wpt lat="33.520503997802734" lon="133.11817932128906">
 <time>2015-12-06T02:24:46ZZ</time>
 <name><![CDATA[戸立集会所]]></name>
</wpt>

<wpt lat="33.52572250366211" lon="133.1355743408203">
 <time>2015-12-06T02:24:46ZZ</time>
 <name><![CDATA[高杭]]></name>
</wpt>

<wpt lat="33.51464080810547" lon="133.13609313964844">
 <time>2015-12-06T02:24:46ZZ</time>
 <name><![CDATA[宮首]]></name>
</wpt>

<wpt lat="33.510555267333984" lon="133.14599609375">
 <time>2015-12-06T02:24:46ZZ</time>
 <name><![CDATA[木半夏]]></name>
</wpt>

<wpt lat="33.50065612792969" lon="133.134521484375">
 <time>2015-12-06T02:24:46ZZ</time>
 <name><![CDATA[農協支所前]]></name>
</wpt>

<wpt lat="33.50062561035156" lon="133.1360626220703">
 <time>2015-12-06T02:24:46ZZ</time>
 <name><![CDATA[東古城山]]></name>
</wpt>

<wpt lat="33.50291061401367" lon="133.1373291015625">
 <time>2015-12-06T02:24:46ZZ</time>
 <name><![CDATA[竹谷]]></name>
</wpt>

<wpt lat="33.49863815307617" lon="133.13304138183594">
 <time>2015-12-06T02:24:46ZZ</time>
 <name><![CDATA[寺野]]></name>
</wpt>

<wpt lat="33.521549224853516" lon="133.1344451904297">
 <time>2015-12-06T02:24:46ZZ</time>
 <name><![CDATA[下実間]]></name>
</wpt>

<wpt lat="33.515132904052734" lon="133.1328582763672">
 <time>2015-12-06T02:24:46ZZ</time>
 <name><![CDATA[上実間]]></name>
</wpt>

<wpt lat="33.509979248046875" lon="133.13461303710938">
 <time>2015-12-06T02:24:46ZZ</time>
 <name><![CDATA[中ノ瀬]]></name>
</wpt>

<wpt lat="33.51102828979492" lon="133.13328552246094">
 <time>2015-12-06T02:24:46ZZ</time>
 <name><![CDATA[上中瀬集会所]]></name>
</wpt>

<wpt lat="33.51003646850586" lon="133.1248321533203">
 <time>2015-12-06T02:24:46ZZ</time>
 <name><![CDATA[古田]]></name>
</wpt>

<wpt lat="33.501502990722656" lon="133.1314239501953">
 <time>2015-12-06T02:24:46ZZ</time>
 <name><![CDATA[長者]]></name>
</wpt>

<wpt lat="33.49515914916992" lon="133.12327575683594">
 <time>2015-12-06T02:24:46ZZ</time>
 <name><![CDATA[石井野口]]></name>
</wpt>

<wpt lat="33.49351501464844" lon="133.11888122558594">
 <time>2015-12-06T02:24:46ZZ</time>
 <name><![CDATA[石井野集落]]></name>
</wpt>

<wpt lat="33.48794174194336" lon="133.11428833007812">
 <time>2015-12-06T02:24:46ZZ</time>
 <name><![CDATA[形部]]></name>
</wpt>

<wpt lat="33.50100326538086" lon="133.10205078125">
 <time>2015-12-06T02:24:46ZZ</time>
 <name><![CDATA[泉]]></name>
</wpt>

<wpt lat="33.485294342041016" lon="133.1025390625">
 <time>2015-12-06T02:24:46ZZ</time>
 <name><![CDATA[織合橋]]></name>
</wpt>

<wpt lat="33.481510162353516" lon="133.0952606201172">
 <time>2015-12-06T02:24:46ZZ</time>
 <name><![CDATA[大植]]></name>
</wpt>

<wpt lat="33.6368522644043" lon="133.08773803710938">
 <time>2015-12-06T02:24:46ZZ</time>
 <name><![CDATA[瓜生野]]></name>
</wpt>

<wpt lat="33.63842010498047" lon="133.09388732910156">
 <time>2015-12-06T02:24:46ZZ</time>
 <name><![CDATA[折尾]]></name>
</wpt>

<wpt lat="33.638099670410156" lon="133.09791564941406">
 <time>2015-12-06T02:24:46ZZ</time>
 <name><![CDATA[桧谷]]></name>
</wpt>

<wpt lat="33.63644027709961" lon="133.10903930664062">
 <time>2015-12-06T02:24:46ZZ</time>
 <name><![CDATA[奥下田]]></name>
</wpt>

<wpt lat="33.63909149169922" lon="133.1189727783203">
 <time>2015-12-06T02:24:46ZZ</time>
 <name><![CDATA[舟形]]></name>
</wpt>

<wpt lat="33.64010238647461" lon="133.11895751953125">
 <time>2015-12-06T02:24:46ZZ</time>
 <name><![CDATA[出丸]]></name>
</wpt>

<wpt lat="33.64117431640625" lon="133.12271118164062">
 <time>2015-12-06T02:24:46ZZ</time>
 <name><![CDATA[宮向]]></name>
</wpt>

<wpt lat="33.640602111816406" lon="133.12625122070312">
 <time>2015-12-06T02:24:46ZZ</time>
 <name><![CDATA[用居]]></name>
</wpt>

<wpt lat="33.64005661010742" lon="133.13047790527344">
 <time>2015-12-06T02:24:46ZZ</time>
 <name><![CDATA[猪ノ谷]]></name>
</wpt>

<wpt lat="33.640525817871094" lon="133.14646911621094">
 <time>2015-12-06T02:24:46ZZ</time>
 <name><![CDATA[永代]]></name>
</wpt>

<wpt lat="33.631595611572266" lon="133.163818359375">
 <time>2015-12-06T02:24:46ZZ</time>
 <name><![CDATA[明戸岩]]></name>
</wpt>

<wpt lat="33.625335693359375" lon="133.16539001464844">
 <time>2015-12-06T02:24:46ZZ</time>
 <name><![CDATA[赤薮]]></name>
</wpt>

<wpt lat="33.61390686035156" lon="133.17031860351562">
 <time>2015-12-06T02:24:46ZZ</time>
 <name><![CDATA[有実]]></name>
</wpt>

<wpt lat="33.61036682128906" lon="133.174560546875">
 <time>2015-12-06T02:24:46ZZ</time>
 <name><![CDATA[上町]]></name>
</wpt>

<wpt lat="33.61116409301758" lon="133.17453002929688">
 <time>2015-12-06T02:24:46ZZ</time>
 <name><![CDATA[三叉]]></name>
</wpt>

<wpt lat="33.608036041259766" lon="133.17010498046875">
 <time>2015-12-06T02:24:46ZZ</time>
 <name><![CDATA[池川総合支所前]]></name>
</wpt>

<wpt lat="33.609832763671875" lon="133.17489624023438">
 <time>2015-12-06T02:24:46ZZ</time>
 <name><![CDATA[池川]]></name>
</wpt>

<wpt lat="33.609703063964844" lon="133.1775665283203">
 <time>2015-12-06T02:24:46ZZ</time>
 <name><![CDATA[家古谷]]></name>
</wpt>

<wpt lat="33.61544418334961" lon="133.18516540527344">
 <time>2015-12-06T02:24:46ZZ</time>
 <name><![CDATA[景成]]></name>
</wpt>

<wpt lat="33.63201141357422" lon="133.1924285888672">
 <time>2015-12-06T02:24:46ZZ</time>
 <name><![CDATA[和等地橋]]></name>
</wpt>

<wpt lat="33.634803771972656" lon="133.1937255859375">
 <time>2015-12-06T02:24:46ZZ</time>
 <name><![CDATA[入江谷]]></name>
</wpt>

<wpt lat="33.6549072265625" lon="133.19503784179688">
 <time>2015-12-06T02:24:46ZZ</time>
 <name><![CDATA[大屋]]></name>
</wpt>

<wpt lat="33.66144943237305" lon="133.1943817138672">
 <time>2015-12-06T02:24:46ZZ</time>
 <name><![CDATA[栂ノ瀬]]></name>
</wpt>

<wpt lat="33.66921615600586" lon="133.19085693359375">
 <time>2015-12-06T02:24:46ZZ</time>
 <name><![CDATA[安居渓谷]]></name>
</wpt>

<wpt lat="33.67611312866211" lon="133.1835174560547">
 <time>2015-12-06T02:24:46ZZ</time>
 <name><![CDATA[若山橋]]></name>
</wpt>

<wpt lat="33.604835510253906" lon="133.1639404296875">
 <time>2015-12-06T02:24:46ZZ</time>
 <name><![CDATA[小郷口]]></name>
</wpt>

<wpt lat="33.60295486450195" lon="133.15829467773438">
 <time>2015-12-06T02:24:46ZZ</time>
 <name><![CDATA[西谷口]]></name>
</wpt>

<wpt lat="33.60273361206055" lon="133.14706420898438">
 <time>2015-12-06T02:24:46ZZ</time>
 <name><![CDATA[堂ヶ内]]></name>
</wpt>

<wpt lat="33.60416793823242" lon="133.1424560546875">
 <time>2015-12-06T02:24:46ZZ</time>
 <name><![CDATA[坂本]]></name>
</wpt>

<wpt lat="33.60136032104492" lon="133.13865661621094">
 <time>2015-12-06T02:24:46ZZ</time>
 <name><![CDATA[石床]]></name>
</wpt>

<wpt lat="33.61016082763672" lon="133.1290740966797">
 <time>2015-12-06T02:24:46ZZ</time>
 <name><![CDATA[寄合]]></name>
</wpt>

<wpt lat="33.60575866699219" lon="133.1238555908203">
 <time>2015-12-06T02:24:46ZZ</time>
 <name><![CDATA[ツボイ]]></name>
</wpt>

<wpt lat="33.614906311035156" lon="133.19091796875">
 <time>2015-12-06T02:24:46ZZ</time>
 <name><![CDATA[ガイザコ]]></name>
</wpt>

<wpt lat="33.61458206176758" lon="133.20018005371094">
 <time>2015-12-06T02:24:46ZZ</time>
 <name><![CDATA[集会所前]]></name>
</wpt>

<wpt lat="33.615318298339844" lon="133.202880859375">
 <time>2015-12-06T02:24:46ZZ</time>
 <name><![CDATA[日浦]]></name>
</wpt>

<wpt lat="33.6152229309082" lon="133.2033233642578">
 <time>2015-12-06T02:24:46ZZ</time>
 <name><![CDATA[中川原]]></name>
</wpt>

<wpt lat="33.61598587036133" lon="133.20742797851562">
 <time>2015-12-06T02:24:46ZZ</time>
 <name><![CDATA[坂本橋]]></name>
</wpt>

<wpt lat="33.61677551269531" lon="133.2120361328125">
 <time>2015-12-06T02:24:46ZZ</time>
 <name><![CDATA[楮原]]></name>
</wpt>

<wpt lat="33.58210754394531" lon="133.11961364746094">
 <time>2015-12-06T02:24:46ZZ</time>
 <name><![CDATA[北川]]></name>
</wpt>

<wpt lat="33.572303771972656" lon="133.1229248046875">
 <time>2015-12-06T02:24:46ZZ</time>
 <name><![CDATA[下北川]]></name>
</wpt>

<wpt lat="33.562374114990234" lon="133.12464904785156">
 <time>2015-12-06T02:24:46ZZ</time>
 <name><![CDATA[昇雲橋]]></name>
</wpt>

<wpt lat="33.560001373291016" lon="133.13128662109375">
 <time>2015-12-06T02:24:46ZZ</time>
 <name><![CDATA[竹屋敷]]></name>
</wpt>

<wpt lat="33.55961227416992" lon="133.1343231201172">
 <time>2015-12-06T02:24:46ZZ</time>
 <name><![CDATA[正ノ石]]></name>
</wpt>

<wpt lat="33.55445861816406" lon="133.1429901123047">
 <time>2015-12-06T02:24:46ZZ</time>
 <name><![CDATA[崎ノ山]]></name>
</wpt>

<wpt lat="33.56218719482422" lon="133.15243530273438">
 <time>2015-12-06T02:24:46ZZ</time>
 <name><![CDATA[二子野]]></name>
</wpt>

<wpt lat="33.56613540649414" lon="133.15097045898438">
 <time>2015-12-06T02:24:46ZZ</time>
 <name><![CDATA[引地]]></name>
</wpt>

<wpt lat="33.57056427001953" lon="133.15956115722656">
 <time>2015-12-06T02:24:46ZZ</time>
 <name><![CDATA[相能]]></name>
</wpt>

<wpt lat="33.574703216552734" lon="133.16827392578125">
 <time>2015-12-06T02:24:46ZZ</time>
 <name><![CDATA[大崎]]></name>
</wpt>

<wpt lat="33.57777404785156" lon="133.07513427734375">
 <time>2015-12-06T02:24:46ZZ</time>
 <name><![CDATA[上名野川]]></name>
</wpt>

<wpt lat="33.57569122314453" lon="133.0789337158203">
 <time>2015-12-06T02:24:46ZZ</time>
 <name><![CDATA[下条]]></name>
</wpt>

<wpt lat="33.57450485229492" lon="133.0858154296875">
 <time>2015-12-06T02:24:46ZZ</time>
 <name><![CDATA[槙の谷]]></name>
</wpt>

<wpt lat="33.57147979736328" lon="133.0907745361328">
 <time>2015-12-06T02:24:46ZZ</time>
 <name><![CDATA[長坂橋]]></name>
</wpt>

<wpt lat="33.56900405883789" lon="133.0991668701172">
 <time>2015-12-06T02:24:46ZZ</time>
 <name><![CDATA[学校前]]></name>
</wpt>

<wpt lat="33.56758117675781" lon="133.101806640625">
 <time>2015-12-06T02:24:46ZZ</time>
 <name><![CDATA[上屋敷]]></name>
</wpt>

<wpt lat="33.5675048828125" lon="133.1051025390625">
 <time>2015-12-06T02:24:46ZZ</time>
 <name><![CDATA[斧ノ谷]]></name>
</wpt>

<wpt lat="33.56731033325195" lon="133.1079559326172">
 <time>2015-12-06T02:24:46ZZ</time>
 <name><![CDATA[下名野川橋]]></name>
</wpt>

<wpt lat="33.56616973876953" lon="133.1092987060547">
 <time>2015-12-06T02:24:46ZZ</time>
 <name><![CDATA[土居]]></name>
</wpt>

<wpt lat="33.56221008300781" lon="133.11978149414062">
 <time>2015-12-06T02:24:46ZZ</time>
 <name><![CDATA[二ノ滝]]></name>
</wpt>

<wpt lat="33.488555908203125" lon="133.1041259765625">
 <time>2015-12-06T02:24:46ZZ</time>
 <name><![CDATA[泉川]]></name>
</wpt>

<wpt lat="33.48917770385742" lon="133.11053466796875">
 <time>2015-12-06T02:24:46ZZ</time>
 <name><![CDATA[六地蔵]]></name>
</wpt>

<wpt lat="33.487613677978516" lon="133.11825561523438">
 <time>2015-12-06T02:24:46ZZ</time>
 <name><![CDATA[桧ヶ畝]]></name>
</wpt>

<wpt lat="33.49842834472656" lon="133.1269073486328">
 <time>2015-12-06T02:24:46ZZ</time>
 <name><![CDATA[五味谷]]></name>
</wpt>

<wpt lat="33.509979248046875" lon="133.13461303710938">
 <time>2015-12-06T02:24:46ZZ</time>
 <name><![CDATA[中の瀬]]></name>
</wpt>

<wpt lat="33.53546142578125" lon="133.1292266845703">
 <time>2015-12-06T02:24:46ZZ</time>
 <name><![CDATA[森]]></name>
</wpt>

<wpt lat="33.537315368652344" lon="133.1271209716797">
 <time>2015-12-06T02:24:46ZZ</time>
 <name><![CDATA[五味]]></name>
</wpt>

<wpt lat="33.53893280029297" lon="133.12791442871094">
 <time>2015-12-06T02:24:46ZZ</time>
 <name><![CDATA[森口橋]]></name>
</wpt>

<wpt lat="33.54890441894531" lon="133.1305389404297">
 <time>2015-12-06T02:24:46ZZ</time>
 <name><![CDATA[上仁淀]]></name>
</wpt>

<wpt lat="33.55021286010742" lon="133.14878845214844">
 <time>2015-12-06T02:24:46ZZ</time>
 <name><![CDATA[大蕨]]></name>
</wpt>

<wpt lat="33.54328918457031" lon="133.1371612548828">
 <time>2015-12-06T02:24:46ZZ</time>
 <name><![CDATA[松尾]]></name>
</wpt>

<wpt lat="33.53113555908203" lon="133.14120483398438">
 <time>2015-12-06T02:24:46ZZ</time>
 <name><![CDATA[谷山]]></name>
</wpt>

<wpt lat="33.526832580566406" lon="133.13693237304688">
 <time>2015-12-06T02:24:46ZZ</time>
 <name><![CDATA[中宮第1]]></name>
</wpt>

<wpt lat="33.52438735961914" lon="133.13653564453125">
 <time>2015-12-06T02:24:46ZZ</time>
 <name><![CDATA[中宮第2]]></name>
</wpt>

<wpt lat="33.52572250366211" lon="133.1355743408203">
 <time>2015-12-06T02:24:46ZZ</time>
 <name><![CDATA[椎尾]]></name>
</wpt>

<wpt lat="33.52763366699219" lon="133.13034057617188">
 <time>2015-12-06T02:24:46ZZ</time>
 <name><![CDATA[五所神社]]></name>
</wpt>

<wpt lat="33.512813568115234" lon="133.05323791503906">
 <time>2015-12-06T02:24:46ZZ</time>
 <name><![CDATA[芋生野]]></name>
</wpt>

<wpt lat="33.528167724609375" lon="133.05535888671875">
 <time>2015-12-06T02:24:46ZZ</time>
 <name><![CDATA[サガノ橋]]></name>
</wpt>

<wpt lat="33.54090881347656" lon="133.06884765625">
 <time>2015-12-06T02:24:46ZZ</time>
 <name><![CDATA[秋葉口]]></name>
</wpt>

<wpt lat="33.54282760620117" lon="133.0713348388672">
 <time>2015-12-06T02:24:46ZZ</time>
 <name><![CDATA[秋葉口団地]]></name>
</wpt>

<wpt lat="33.5418815612793" lon="133.09097290039062">
 <time>2015-12-06T02:24:46ZZ</time>
 <name><![CDATA[長渕]]></name>
</wpt>

<wpt lat="33.546173095703125" lon="133.0967559814453">
 <time>2015-12-06T02:24:46ZZ</time>
 <name><![CDATA[大尾]]></name>
</wpt>

<wpt lat="33.546932220458984" lon="133.10208129882812">
 <time>2015-12-06T02:24:46ZZ</time>
 <name><![CDATA[高瀬口]]></name>
</wpt>

<wpt lat="33.54060363769531" lon="133.11276245117188">
 <time>2015-12-06T02:24:46ZZ</time>
 <name><![CDATA[大渡ダム公園]]></name>
</wpt>

<wpt lat="33.53668975830078" lon="133.1201629638672">
 <time>2015-12-06T02:24:46ZZ</time>
 <name><![CDATA[西谷]]></name>
</wpt>

<wpt lat="33.47679138183594" lon="133.00369262695312">
 <time>2015-12-06T02:24:46ZZ</time>
 <name><![CDATA[天狗荘]]></name>
</wpt>

<wpt lat="33.47188186645508" lon="133.00169372558594">
 <time>2015-12-06T02:24:46ZZ</time>
 <name><![CDATA[白雲荘]]></name>
</wpt>

<wpt lat="33.46592330932617" lon="133.01414489746094">
 <time>2015-12-06T02:24:46ZZ</time>
 <name><![CDATA[横谷口]]></name>
</wpt>

<wpt lat="33.46003723144531" lon="133.01766967773438">
 <time>2015-12-06T02:24:46ZZ</time>
 <name><![CDATA[山王]]></name>
</wpt>

<wpt lat="33.45528793334961" lon="133.0191192626953">
 <time>2015-12-06T02:24:46ZZ</time>
 <name><![CDATA[枝ヶ谷]]></name>
</wpt>

<wpt lat="33.45037841796875" lon="133.02273559570312">
 <time>2015-12-06T02:24:46ZZ</time>
 <name><![CDATA[枝ヶ谷分岐]]></name>
</wpt>

<wpt lat="33.44575119018555" lon="133.01426696777344">
 <time>2015-12-06T02:24:46ZZ</time>
 <name><![CDATA[郷内]]></name>
</wpt>

<wpt lat="33.44292068481445" lon="133.00967407226562">
 <time>2015-12-06T02:24:46ZZ</time>
 <name><![CDATA[旧宮]]></name>
</wpt>

<wpt lat="33.43909454345703" lon="133.00518798828125">
 <time>2015-12-06T02:24:46ZZ</time>
 <name><![CDATA[古味口]]></name>
</wpt>

<wpt lat="33.43500518798828" lon="133.00498962402344">
 <time>2015-12-06T02:24:46ZZ</time>
 <name><![CDATA[長沢の滝口]]></name>
</wpt>

<wpt lat="33.43136215209961" lon="133.0086669921875">
 <time>2015-12-06T02:24:46ZZ</time>
 <name><![CDATA[小豆井谷]]></name>
</wpt>

<wpt lat="33.428077697753906" lon="133.0144500732422">
 <time>2015-12-06T02:24:46ZZ</time>
 <name><![CDATA[中白砂利]]></name>
</wpt>

<wpt lat="33.41643524169922" lon="133.02145385742188">
 <time>2015-12-06T02:24:46ZZ</time>
 <name><![CDATA[畦屋]]></name>
</wpt>

<wpt lat="33.413509368896484" lon="133.0231170654297">
 <time>2015-12-06T02:24:46ZZ</time>
 <name><![CDATA[奈路橋]]></name>
</wpt>

<wpt lat="33.40643310546875" lon="133.02841186523438">
 <time>2015-12-06T02:24:46ZZ</time>
 <name><![CDATA[下野]]></name>
</wpt>

<wpt lat="33.40122604370117" lon="133.02487182617188">
 <time>2015-12-06T02:24:46ZZ</time>
 <name><![CDATA[保井川]]></name>
</wpt>

<wpt lat="33.39207077026367" lon="133.02517700195312">
 <time>2015-12-06T02:24:46ZZ</time>
 <name><![CDATA[新田]]></name>
</wpt>

<wpt lat="33.46380615234375" lon="133.04702758789062">
 <time>2015-12-06T02:24:46ZZ</time>
 <name><![CDATA[日曽の川集会所]]></name>
</wpt>

<wpt lat="33.459259033203125" lon="133.0465545654297">
 <time>2015-12-06T02:24:46ZZ</time>
 <name><![CDATA[日曽の川入口]]></name>
</wpt>

<wpt lat="33.458740234375" lon="133.0374755859375">
 <time>2015-12-06T02:24:46ZZ</time>
 <name><![CDATA[寺川]]></name>
</wpt>

<wpt lat="33.458885192871094" lon="133.02932739257812">
 <time>2015-12-06T02:24:46ZZ</time>
 <name><![CDATA[口目ヶ市]]></name>
</wpt>

<wpt lat="33.484405517578125" lon="133.1031036376953">
 <time>2015-12-06T02:24:46ZZ</time>
 <name><![CDATA[織合]]></name>
</wpt>

<wpt lat="33.47318649291992" lon="133.08786010742188">
 <time>2015-12-06T02:24:46ZZ</time>
 <name><![CDATA[黒滝口]]></name>
</wpt>

<wpt lat="33.46674346923828" lon="133.08580017089844">
 <time>2015-12-06T02:24:46ZZ</time>
 <name><![CDATA[下太郎田]]></name>
</wpt>

<wpt lat="33.46469497680664" lon="133.07974243164062">
 <time>2015-12-06T02:24:46ZZ</time>
 <name><![CDATA[上太郎田]]></name>
</wpt>

<wpt lat="33.46052551269531" lon="133.0740509033203">
 <time>2015-12-06T02:24:46ZZ</time>
 <name><![CDATA[トンネル東口]]></name>
</wpt>

<wpt lat="33.455265045166016" lon="133.0669708251953">
 <time>2015-12-06T02:24:46ZZ</time>
 <name><![CDATA[矢筈]]></name>
</wpt>

<wpt lat="33.45783615112305" lon="133.0572967529297">
 <time>2015-12-06T02:24:46ZZ</time>
 <name><![CDATA[開拓]]></name>
</wpt>

<wpt lat="33.352970123291016" lon="132.9764862060547">
 <time>2015-12-06T02:24:46ZZ</time>
 <name><![CDATA[大野地]]></name>
</wpt>

<wpt lat="33.357147216796875" lon="132.9855499267578">
 <time>2015-12-06T02:24:46ZZ</time>
 <name><![CDATA[中屋]]></name>
</wpt>

<wpt lat="33.36176300048828" lon="132.98402404785156">
 <time>2015-12-06T02:24:46ZZ</time>
 <name><![CDATA[竹屋敷]]></name>
</wpt>

<wpt lat="33.36368942260742" lon="132.9873504638672">
 <time>2015-12-06T02:24:46ZZ</time>
 <name><![CDATA[大ヅケ]]></name>
</wpt>

<wpt lat="33.367984771728516" lon="133.00877380371094">
 <time>2015-12-06T02:24:46ZZ</time>
 <name><![CDATA[観音谷]]></name>
</wpt>

<wpt lat="33.368858337402344" lon="133.0174560546875">
 <time>2015-12-06T02:24:46ZZ</time>
 <name><![CDATA[大古味]]></name>
</wpt>

<wpt lat="33.377716064453125" lon="133.0123291015625">
 <time>2015-12-06T02:24:46ZZ</time>
 <name><![CDATA[五六]]></name>
</wpt>

<wpt lat="33.38039779663086" lon="133.00865173339844">
 <time>2015-12-06T02:24:46ZZ</time>
 <name><![CDATA[番城]]></name>
</wpt>

<wpt lat="33.39230728149414" lon="133.0123748779297">
 <time>2015-12-06T02:24:46ZZ</time>
 <name><![CDATA[大古味分岐]]></name>
</wpt>

<wpt lat="33.39289855957031" lon="133.01516723632812">
 <time>2015-12-06T02:24:46ZZ</time>
 <name><![CDATA[上北川]]></name>
</wpt>

<wpt lat="32.92478942871094" lon="132.91299438476562">
 <time>2015-12-06T02:24:46ZZ</time>
 <name><![CDATA[成山]]></name>
</wpt>

<wpt lat="32.92862319946289" lon="132.89276123046875">
 <time>2015-12-06T02:24:46ZZ</time>
 <name><![CDATA[狼内]]></name>
</wpt>

<wpt lat="32.92535400390625" lon="132.87208557128906">
 <time>2015-12-06T02:24:46ZZ</time>
 <name><![CDATA[上長谷]]></name>
</wpt>

<wpt lat="32.90535354614258" lon="132.86036682128906">
 <time>2015-12-06T02:24:46ZZ</time>
 <name><![CDATA[宗賀]]></name>
</wpt>

<wpt lat="32.89575958251953" lon="132.86752319335938">
 <time>2015-12-06T02:24:46ZZ</time>
 <name><![CDATA[久繁]]></name>
</wpt>

<wpt lat="32.892574310302734" lon="132.85562133789062">
 <time>2015-12-06T02:24:46ZZ</time>
 <name><![CDATA[皆尾]]></name>
</wpt>

<wpt lat="32.906517028808594" lon="132.84780883789062">
 <time>2015-12-06T02:24:46ZZ</time>
 <name><![CDATA[役場]]></name>
</wpt>

<wpt lat="32.9176025390625" lon="132.84190368652344">
 <time>2015-12-06T02:24:46ZZ</time>
 <name><![CDATA[船ヶ峠]]></name>
</wpt>

<wpt lat="32.90995407104492" lon="132.84564208984375">
 <time>2015-12-06T02:24:46ZZ</time>
 <name><![CDATA[学校]]></name>
</wpt>