<?xml version="1.0" encoding="UTF-8"?>
<kml xmlns="http://www.opengis.net/kml/2.2">
<Document>
<name><![CDATA[バス停 : 高知]]></name>
<Folder>
<name>Placemarks</name>
<Placemark>
<name>新高知駅バスターミナル</name>
<description></description>
<Point>
<coordinates>133.54408264160156,33.56773376464844,0</coordinates>
</Point>
</Placemark>
<Placemark>
<name>はりまや橋バス停デンテツターミナル前</name>
<description></description>
<Point>
<coordinates>133.54330444335938,33.55952835083008,0</coordinates>
</Point>
</Placemark>
<Placemark>
<name>はりまや橋バス停はりまや観光バスターミナル</name>
<description></description>
<Point>
<coordinates>133.5465850830078,33.559288024902344,0</coordinates>
</Point>
</Placemark>
<Placemark>
<name>はりまや橋得月櫻前</name>
<description></description>
<Point>
<coordinates>133.5443572998047,33.559303283691406,0</coordinates>
</Point>
</Placemark>
<Placemark>
<name>大豊バス停</name>
<description></description>
<Point>
<coordinates>133.65994262695312,33.76968002319336,0</coordinates>
</Point>
</Placemark>
<Placemark>
<name>大豊</name>
<description></description>
<Point>
<coordinates>133.66053771972656,33.76975631713867,0</coordinates>
</Point>
</Placemark>
<Placemark>
<name>知寄町一丁目</name>
<description></description>
<Point>
<coordinates>133.55621337890625,33.55837631225586,0</coordinates>
</Point>
</Placemark>
<Placemark>
<name>はりまや橋</name>
<description></description>
<Point>
<coordinates>133.5431365966797,33.561767578125,0</coordinates>
</Point>
</Placemark>
<Placemark>
<name>高知駅</name>
<description></description>
<Point>
<coordinates>133.54408264160156,33.56773376464844,0</coordinates>
</Point>
</Placemark>
<Placemark>
<name>高知駅</name>
<description></description>
<Point>
<coordinates>133.5444793701172,33.56603240966797,0</coordinates>
</Point>
</Placemark>
<Placemark>
<name>一宮高知営業所</name>
<description></description>
<Point>
<coordinates>133.56610107421875,33.58160400390625,0</coordinates>
</Point>
</Placemark>
<Placemark>
<name>知寄町一丁目</name>
<description></description>
<Point>
<coordinates>133.5574493408203,33.55826950073242,0</coordinates>
</Point>
</Placemark>
<Placemark>
<name>はりまや橋</name>
<description></description>
<Point>
<coordinates>133.54310607910156,33.56149673461914,0</coordinates>
</Point>
</Placemark>
<Placemark>
<name>高知駅バスターミナル</name>
<description></description>
<Point>
<coordinates>133.5444793701172,33.56603240966797,0</coordinates>
</Point>
</Placemark>
<Placemark>
<name>はりまやばし</name>
<description></description>
<Point>
<coordinates>133.5447540283203,33.55944061279297,0</coordinates>
</Point>
</Placemark>
<Placemark>
<name>高知西南交通本社</name>
<description></description>
<Point>
<coordinates>132.94590759277344,32.98702621459961,0</coordinates>
</Point>
</Placemark>
<Placemark>
<name>岬</name>
<description></description>
<Point>
<coordinates>134.1797332763672,33.250125885009766,0</coordinates>
</Point>
</Placemark>
<Placemark>
<name>高岡</name>
<description></description>
<Point>
<coordinates>134.1811065673828,33.25745391845703,0</coordinates>
</Point>
</Placemark>
<Placemark>
<name>三津</name>
<description></description>
<Point>
<coordinates>134.18597412109375,33.29180145263672,0</coordinates>
</Point>
</Placemark>
<Placemark>
<name>佐喜浜</name>
<description></description>
<Point>
<coordinates>134.20614624023438,33.394412994384766,0</coordinates>
</Point>
</Placemark>
<Placemark>
<name>野根</name>
<description></description>
<Point>
<coordinates>134.26930236816406,33.50324630737305,0</coordinates>
</Point>
</Placemark>
<Placemark>
<name>生見</name>
<description></description>
<Point>
<coordinates>134.280029296875,33.52726745605469,0</coordinates>
</Point>
</Placemark>
<Placemark>
<name>一宮営業所</name>
<description></description>
<Point>
<coordinates>133.56626892089844,33.58205032348633,0</coordinates>
</Point>
</Placemark>
<Placemark>
<name>高知駅</name>
<description></description>
<Point>
<coordinates>133.5445556640625,33.56745910644531,0</coordinates>
</Point>
</Placemark>
<Placemark>
<name>生見（東洋町役場）</name>
<description></description>
<Point>
<coordinates>134.280029296875,33.52726745605469,0</coordinates>
</Point>
</Placemark>
<Placemark>
<name>水床トンネル口</name>
<description></description>
<Point>
<coordinates>134.3048095703125,33.55048370361328,0</coordinates>
</Point>
</Placemark>
<Placemark>
<name>甲浦造船所前</name>
<description></description>
<Point>
<coordinates>134.30282592773438,33.54915237426758,0</coordinates>
</Point>
</Placemark>
<Placemark>
<name>甲浦東</name>
<description></description>
<Point>
<coordinates>134.30120849609375,33.548377990722656,0</coordinates>
</Point>
</Placemark>
<Placemark>
<name>甲浦</name>
<description></description>
<Point>
<coordinates>134.2979278564453,33.54786682128906,0</coordinates>
</Point>
</Placemark>
<Placemark>
<name>甲浦西</name>
<description></description>
<Point>
<coordinates>134.29678344726562,33.54802322387695,0</coordinates>
</Point>
</Placemark>
<Placemark>
<name>甲浦学校前</name>
<description></description>
<Point>
<coordinates>134.29562377929688,33.54639434814453,0</coordinates>
</Point>
</Placemark>
<Placemark>
<name>甲浦口</name>
<description></description>
<Point>
<coordinates>134.2953643798828,33.543914794921875,0</coordinates>
</Point>
</Placemark>
<Placemark>
<name>甲浦駅前</name>
<description></description>
<Point>
<coordinates>134.28848266601562,33.54703903198242,0</coordinates>
</Point>
</Placemark>
<Placemark>
<name>高知インター南BT</name>
<description></description>
<Point>
<coordinates>133.56112670898438,33.576995849609375,0</coordinates>
</Point>
</Placemark>
<Placemark>
<name>須崎駅</name>
<description></description>
<Point>
<coordinates>133.2926483154297,33.39241027832031,0</coordinates>
</Point>
</Placemark>
<Placemark>
<name>いのインター口</name>
<description></description>
<Point>
<coordinates>133.46603393554688,33.559356689453125,0</coordinates>
</Point>
</Placemark>
<Placemark>
<name>高知大学北口</name>
<description></description>
<Point>
<coordinates>133.4904022216797,33.5526123046875,0</coordinates>
</Point>
</Placemark>
<Placemark>
<name>高知旭町三丁目</name>
<description></description>
<Point>
<coordinates>133.50552368164062,33.55555725097656,0</coordinates>
</Point>
</Placemark>
<Placemark>
<name>高知県庁前</name>
<description></description>
<Point>
<coordinates>133.5328826904297,33.55824279785156,0</coordinates>
</Point>
</Placemark>
<Placemark>
<name>小川</name>
<description></description>
<Point>
<coordinates>132.69798278808594,32.965782165527344,0</coordinates>
</Point>
</Placemark>
<Placemark>
<name>長畑</name>
<description></description>
<Point>
<coordinates>132.70730590820312,32.959312438964844,0</coordinates>
</Point>
</Placemark>
<Placemark>
<name>野地橋</name>
<description></description>
<Point>
<coordinates>132.71780395507812,32.950992584228516,0</coordinates>
</Point>
</Placemark>
<Placemark>
<name>宿毛郵便局前</name>
<description></description>
<Point>
<coordinates>132.72109985351562,32.93585968017578,0</coordinates>
</Point>
</Placemark>
<Placemark>
<name>文教センター</name>
<description></description>
<Point>
<coordinates>132.7308807373047,32.93844985961914,0</coordinates>
</Point>
</Placemark>
<Placemark>
<name>宿毛営業所</name>
<description></description>
<Point>
<coordinates>132.72836303710938,32.93783950805664,0</coordinates>
</Point>
</Placemark>
<Placemark>
<name>高知駅バスターミナル</name>
<description></description>
<Point>
<coordinates>133.54356384277344,33.56654739379883,0</coordinates>
</Point>
</Placemark>
<Placemark>
<name>北本町一丁目</name>
<description></description>
<Point>
<coordinates>133.53915405273438,33.56627655029297,0</coordinates>
</Point>
</Placemark>
<Placemark>
<name>愛宕一丁目</name>
<description></description>
<Point>
<coordinates>133.53680419921875,33.5661506652832,0</coordinates>
</Point>
</Placemark>
<Placemark>
<name>洞ヶ島公園</name>
<description></description>
<Point>
<coordinates>133.53367614746094,33.56569290161133,0</coordinates>
</Point>
</Placemark>
<Placemark>
<name>入明町分かれ</name>
<description></description>
<Point>
<coordinates>133.5312042236328,33.56501388549805,0</coordinates>
</Point>
</Placemark>
<Placemark>
<name>法務局前</name>
<description></description>
<Point>
<coordinates>133.5279083251953,33.56349563598633,0</coordinates>
</Point>
</Placemark>
<Placemark>
<name>城西公園西</name>
<description></description>
<Point>
<coordinates>133.52679443359375,33.56112289428711,0</coordinates>
</Point>
</Placemark>
<Placemark>
<name>升形商店街</name>
<description></description>
<Point>
<coordinates>133.52699279785156,33.55885314941406,0</coordinates>
</Point>
</Placemark>
<Placemark>
<name>裁判所前</name>
<description></description>
<Point>
<coordinates>133.52955627441406,33.558834075927734,0</coordinates>
</Point>
</Placemark>
<Placemark>
<name>県庁</name>
<description></description>
<Point>
<coordinates>133.53192138671875,33.55921173095703,0</coordinates>
</Point>
</Placemark>
<Placemark>
<name>高知城土佐二十四万石博会場前</name>
<description></description>
<Point>
<coordinates>133.53292846679688,33.55939483642578,0</coordinates>
</Point>
</Placemark>
<Placemark>
<name>ひろめ市場前</name>
<description></description>
<Point>
<coordinates>133.53514099121094,33.56086349487305,0</coordinates>
</Point>
</Placemark>
<Placemark>
<name>追手前高校前</name>
<description></description>
<Point>
<coordinates>133.53688049316406,33.56127166748047,0</coordinates>
</Point>
</Placemark>
<Placemark>
<name>追手筋一丁目</name>
<description></description>
<Point>
<coordinates>133.5384979248047,33.56163787841797,0</coordinates>
</Point>
</Placemark>
<Placemark>
<name>追手前公園前</name>
<description></description>
<Point>
<coordinates>133.5414276123047,33.56214904785156,0</coordinates>
</Point>
</Placemark>
<Placemark>
<name>高知橋</name>
<description></description>
<Point>
<coordinates>133.54351806640625,33.56439971923828,0</coordinates>
</Point>
</Placemark>
<Placemark>
<name>本町一丁目</name>
<description></description>
<Point>
<coordinates>133.90904235839844,33.50056457519531,0</coordinates>
</Point>
</Placemark>
<Placemark>
<name>港町</name>
<description></description>
<Point>
<coordinates>133.9112091064453,33.50010299682617,0</coordinates>
</Point>
</Placemark>
<Placemark>
<name>栄町</name>
<description></description>
<Point>
<coordinates>133.91787719726562,33.49797058105469,0</coordinates>
</Point>
</Placemark>
<Placemark>
<name>川北農協前</name>
<description></description>
<Point>
<coordinates>133.92515563964844,33.50177001953125,0</coordinates>
</Point>
</Placemark>
<Placemark>
<name>東の岡</name>
<description></description>
<Point>
<coordinates>133.93675231933594,33.50592041015625,0</coordinates>
</Point>
</Placemark>
<Placemark>
<name>古戸</name>
<description></description>
<Point>
<coordinates>133.9463653564453,33.508079528808594,0</coordinates>
</Point>
</Placemark>
<Placemark>
<name>奈比賀</name>
<description></description>
<Point>
<coordinates>133.95314025878906,33.5278205871582,0</coordinates>
</Point>
</Placemark>
<Placemark>
<name>こまどり</name>
<description></description>
<Point>
<coordinates>133.94284057617188,33.554012298583984,0</coordinates>
</Point>
</Placemark>
<Placemark>
<name>入河内</name>
<description></description>
<Point>
<coordinates>133.95872497558594,33.55638122558594,0</coordinates>
</Point>
</Placemark>
<Placemark>
<name>黒瀬</name>
<description></description>
<Point>
<coordinates>133.9705352783203,33.562591552734375,0</coordinates>
</Point>
</Placemark>
<Placemark>
<name>大井</name>
<description></description>
<Point>
<coordinates>133.97991943359375,33.580753326416016,0</coordinates>
</Point>
</Placemark>
<Placemark>
<name>古井小中学校</name>
<description></description>
<Point>
<coordinates>134.0062713623047,33.634033203125,0</coordinates>
</Point>
</Placemark>
<Placemark>
<name>古井</name>
<description></description>
<Point>
<coordinates>134.009521484375,33.642642974853516,0</coordinates>
</Point>
</Placemark>
<Placemark>
<name>別役</name>
<description></description>
<Point>
<coordinates>134.03018188476562,33.6894416809082,0</coordinates>
</Point>
</Placemark>
<Placemark>
<name>安芸駅</name>
<description></description>
<Point>
<coordinates>133.90692138671875,33.504302978515625,0</coordinates>
</Point>
</Placemark>
<Placemark>
<name>安芸郵便局前</name>
<description></description>
<Point>
<coordinates>133.90335083007812,33.5042610168457,0</coordinates>
</Point>
</Placemark>
<Placemark>
<name>安芸病院前</name>
<description></description>
<Point>
<coordinates>133.8980712890625,33.50502014160156,0</coordinates>
</Point>
</Placemark>
<Placemark>
<name>カリヨン広場</name>
<description></description>
<Point>
<coordinates>133.89102172851562,33.50143814086914,0</coordinates>
</Point>
</Placemark>
<Placemark>
<name>井ノ口通り</name>
<description></description>
<Point>
<coordinates>133.8982391357422,33.5013427734375,0</coordinates>
</Point>
</Placemark>
<Placemark>
<name>本町郵便局前</name>
<description></description>
<Point>
<coordinates>133.90249633789062,33.50049591064453,0</coordinates>
</Point>
</Placemark>
<Placemark>
<name>元気館通り</name>
<description></description>
<Point>
<coordinates>133.9050750732422,33.499935150146484,0</coordinates>
</Point>
</Placemark>
<Placemark>
<name>本町コミセン前</name>
<description></description>
<Point>
<coordinates>133.90756225585938,33.499427795410156,0</coordinates>
</Point>
</Placemark>
<Placemark>
<name>元町</name>
<description></description>
<Point>
<coordinates>133.90908813476562,33.50143051147461,0</coordinates>
</Point>
</Placemark>
<Placemark>
<name>川向</name>
<description></description>
<Point>
<coordinates>133.90919494628906,33.501708984375,0</coordinates>
</Point>
</Placemark>
<Placemark>
<name>玉造</name>
<description></description>
<Point>
<coordinates>133.91049194335938,33.50658416748047,0</coordinates>
</Point>
</Placemark>
<Placemark>
<name>春日</name>
<description></description>
<Point>
<coordinates>133.91127014160156,33.50977325439453,0</coordinates>
</Point>
</Placemark>
<Placemark>
<name>野良時計前</name>
<description></description>
<Point>
<coordinates>133.91224670410156,33.51581954956055,0</coordinates>
</Point>
</Placemark>
<Placemark>
<name>西木戸</name>
<description></description>
<Point>
<coordinates>133.91102600097656,33.51856994628906,0</coordinates>
</Point>
</Placemark>
<Placemark>
<name>僧津</name>
<description></description>
<Point>
<coordinates>133.9066162109375,33.52507781982422,0</coordinates>
</Point>
</Placemark>
<Placemark>
<name>井ノ口公民館前</name>
<description></description>
<Point>
<coordinates>133.89788818359375,33.53138732910156,0</coordinates>
</Point>
</Placemark>
<Placemark>
<name>井ノ口局前</name>
<description></description>
<Point>
<coordinates>133.89512634277344,33.54226303100586,0</coordinates>
</Point>
</Placemark>
<Placemark>
<name>山田通</name>
<description></description>
<Point>
<coordinates>133.89488220214844,33.54563522338867,0</coordinates>
</Point>
</Placemark>
<Placemark>
<name>栃ノ木</name>
<description></description>
<Point>
<coordinates>133.900146484375,33.55582046508789,0</coordinates>
</Point>
</Placemark>
<Placemark>
<name>東地</name>
<description></description>
<Point>
<coordinates>133.9040069580078,33.55794143676758,0</coordinates>
</Point>
</Placemark>
<Placemark>
<name>安芸の川口</name>
<description></description>
<Point>
<coordinates>133.92491149902344,33.5816535949707,0</coordinates>
</Point>
</Placemark>
<Placemark>
<name>寺内</name>
<description></description>
<Point>
<coordinates>133.9104766845703,33.60053253173828,0</coordinates>
</Point>
</Placemark>
<Placemark>
<name>谷口</name>
<description></description>
<Point>
<coordinates>133.91873168945312,33.616546630859375,0</coordinates>
</Point>
</Placemark>
<Placemark>
<name>畑山局前</name>
<description></description>
<Point>
<coordinates>133.9228057861328,33.62201690673828,0</coordinates>
</Point>
</Placemark>
<Placemark>
<name>畑山</name>
<description></description>
<Point>
<coordinates>133.92514038085938,33.6247673034668,0</coordinates>
</Point>
</Placemark>
<Placemark>
<name>元気館</name>
<description></description>
<Point>
<coordinates>133.90432739257812,33.498268127441406,0</coordinates>
</Point>
</Placemark>
<Placemark>
<name>清香園入口</name>
<description></description>
<Point>
<coordinates>133.92764282226562,33.50529861450195,0</coordinates>
</Point>
</Placemark>
<Placemark>
<name>清香園前</name>
<description></description>
<Point>
<coordinates>133.93272399902344,33.50992202758789,0</coordinates>
</Point>
</Placemark>
<Placemark>
<name>岡入口</name>
<description></description>
<Point>
<coordinates>133.93052673339844,33.495574951171875,0</coordinates>
</Point>
</Placemark>
<Placemark>
<name>宮田岡</name>
<description></description>
<Point>
<coordinates>133.93605041503906,33.50080871582031,0</coordinates>
</Point>
</Placemark>
<Placemark>
<name>清水住宅前</name>
<description></description>
<Point>
<coordinates>133.91879272460938,33.508934020996094,0</coordinates>
</Point>
</Placemark>
<Placemark>
<name>江川入口</name>
<description></description>
<Point>
<coordinates>133.919189453125,33.51610565185547,0</coordinates>
</Point>
</Placemark>
<Placemark>
<name>江川</name>
<description></description>
<Point>
<coordinates>133.91883850097656,33.52347183227539,0</coordinates>
</Point>
</Placemark>
<Placemark>
<name>堂ノ尾</name>
<description></description>
<Point>
<coordinates>133.91903686523438,33.527305603027344,0</coordinates>
</Point>
</Placemark>
<Placemark>
<name>すまいるあき前</name>
<description></description>
<Point>
<coordinates>133.90231323242188,33.50117111206055,0</coordinates>
</Point>
</Placemark>
<Placemark>
<name>内原野団地</name>
<description></description>
<Point>
<coordinates>133.9142608642578,33.528533935546875,0</coordinates>
</Point>
</Placemark>
<Placemark>
<name>内原野公園</name>
<description></description>
<Point>
<coordinates>133.91270446777344,33.53425216674805,0</coordinates>
</Point>
</Placemark>
<Placemark>
<name>陶芸館前</name>
<description></description>
<Point>
<coordinates>133.91197204589844,33.53046798706055,0</coordinates>
</Point>
</Placemark>
<Placemark>
<name>山田</name>
<description></description>
<Point>
<coordinates>133.89854431152344,33.5461311340332,0</coordinates>
</Point>
</Placemark>
<Placemark>
<name>一ノ宮</name>
<description></description>
<Point>
<coordinates>133.89874267578125,33.525428771972656,0</coordinates>
</Point>
</Placemark>
<Placemark>
<name>高台寺</name>
<description></description>
<Point>
<coordinates>133.89833068847656,33.51762771606445,0</coordinates>
</Point>
</Placemark>
<Placemark>
<name>黒鳥</name>
<description></description>
<Point>
<coordinates>133.89810180664062,33.51081085205078,0</coordinates>
</Point>
</Placemark>
<Placemark>
<name>柳田団地前</name>
<description></description>
<Point>
<coordinates>133.907470703125,33.508235931396484,0</coordinates>
</Point>
</Placemark>
<Placemark>
<name>八ノ谷</name>
<description></description>
<Point>
<coordinates>133.9420166015625,33.56611251831055,0</coordinates>
</Point>
</Placemark>
<Placemark>
<name>下尾川</name>
<description></description>
<Point>
<coordinates>133.89450073242188,33.57376480102539,0</coordinates>
</Point>
</Placemark>
<Placemark>
<name>上尾川</name>
<description></description>
<Point>
<coordinates>133.8777313232422,33.58990478515625,0</coordinates>
</Point>
</Placemark>
<Placemark>
<name>高岡営業所</name>
<description></description>
<Point>
<coordinates>133.40953063964844,33.497291564941406,0</coordinates>
</Point>
</Placemark>
<Placemark>
<name>鳴川通</name>
<description></description>
<Point>
<coordinates>133.41053771972656,33.49373245239258,0</coordinates>
</Point>
</Placemark>
<Placemark>
<name>蓮池公園前</name>
<description></description>
<Point>
<coordinates>133.4133758544922,33.49384307861328,0</coordinates>
</Point>
</Placemark>
<Placemark>
<name>高岡高校通</name>
<description></description>
<Point>
<coordinates>133.41709899902344,33.49556350708008,0</coordinates>
</Point>
</Placemark>
<Placemark>
<name>土佐市民公園前</name>
<description></description>
<Point>
<coordinates>133.4203338623047,33.495487213134766,0</coordinates>
</Point>
</Placemark>
<Placemark>
<name>本町通</name>
<description></description>
<Point>
<coordinates>133.42236328125,33.495513916015625,0</coordinates>
</Point>
</Placemark>
<Placemark>
<name>土佐市役所前</name>
<description></description>
<Point>
<coordinates>133.4254150390625,33.49574661254883,0</coordinates>
</Point>
</Placemark>
<Placemark>
<name>井上病院前</name>
<description></description>
<Point>
<coordinates>133.42706298828125,33.49594497680664,0</coordinates>
</Point>
</Placemark>
<Placemark>
<name>長谷寄通</name>
<description></description>
<Point>
<coordinates>133.42898559570312,33.496055603027344,0</coordinates>
</Point>
</Placemark>
<Placemark>
<name>変電所通</name>
<description></description>
<Point>
<coordinates>133.4313201904297,33.49616622924805,0</coordinates>
</Point>
</Placemark>
<Placemark>
<name>地頭名</name>
<description></description>
<Point>
<coordinates>133.43368530273438,33.496253967285156,0</coordinates>
</Point>
</Placemark>
<Placemark>
<name>西芝</name>
<description></description>
<Point>
<coordinates>133.43540954589844,33.496341705322266,0</coordinates>
</Point>
</Placemark>
<Placemark>
<name>東芝</name>
<description></description>
<Point>
<coordinates>133.43858337402344,33.495933532714844,0</coordinates>
</Point>
</Placemark>
<Placemark>
<name>南中島</name>
<description></description>
<Point>
<coordinates>133.4463653564453,33.49173355102539,0</coordinates>
</Point>
</Placemark>
<Placemark>
<name>高石</name>
<description></description>
<Point>
<coordinates>133.4474334716797,33.49026107788086,0</coordinates>
</Point>
</Placemark>
<Placemark>
<name>堀切</name>
<description></description>
<Point>
<coordinates>133.45108032226562,33.48667907714844,0</coordinates>
</Point>
</Placemark>
<Placemark>
<name>用石</name>
<description></description>
<Point>
<coordinates>133.45225524902344,33.48397445678711,0</coordinates>
</Point>
</Placemark>
<Placemark>
<name>用石第二</name>
<description></description>
<Point>
<coordinates>133.453857421875,33.48167419433594,0</coordinates>
</Point>
</Placemark>
<Placemark>
<name>万願寺</name>
<description></description>
<Point>
<coordinates>133.4557647705078,33.478179931640625,0</coordinates>
</Point>
</Placemark>
<Placemark>
<name>今渡峠</name>
<description></description>
<Point>
<coordinates>133.45994567871094,33.47390365600586,0</coordinates>
</Point>
</Placemark>
<Placemark>
<name>今渡</name>
<description></description>
<Point>
<coordinates>133.4616241455078,33.4705696105957,0</coordinates>
</Point>
</Placemark>
<Placemark>
<name>奥谷通</name>
<description></description>
<Point>
<coordinates>133.46142578125,33.466800689697266,0</coordinates>
</Point>
</Placemark>
<Placemark>
<name>本村</name>
<description></description>
<Point>
<coordinates>133.46202087402344,33.464046478271484,0</coordinates>
</Point>
</Placemark>
<Placemark>
<name>新居学校前</name>
<description></description>
<Point>
<coordinates>133.46424865722656,33.45977020263672,0</coordinates>
</Point>
</Placemark>
<Placemark>
<name>新居立石</name>
<description></description>
<Point>
<coordinates>133.46559143066406,33.455448150634766,0</coordinates>
</Point>
</Placemark>
<Placemark>
<name>池の浦</name>
<description></description>
<Point>
<coordinates>133.46290588378906,33.451663970947266,0</coordinates>
</Point>
</Placemark>
<Placemark>
<name>白菊園前</name>
<description></description>
<Point>
<coordinates>133.460205078125,33.44974899291992,0</coordinates>
</Point>
</Placemark>
<Placemark>
<name>萩岬</name>
<description></description>
<Point>
<coordinates>133.45742797851562,33.448516845703125,0</coordinates>
</Point>
</Placemark>
<Placemark>
<name>しおかぜ公園前</name>
<description></description>
<Point>
<coordinates>133.45233154296875,33.45014572143555,0</coordinates>
</Point>
</Placemark>
<Placemark>
<name>橋田</name>
<description></description>
<Point>
<coordinates>133.45126342773438,33.452728271484375,0</coordinates>
</Point>
</Placemark>
<Placemark>
<name>新崎</name>
<description></description>
<Point>
<coordinates>133.44900512695312,33.45273971557617,0</coordinates>
</Point>
</Placemark>
<Placemark>
<name>東町</name>
<description></description>
<Point>
<coordinates>133.4447479248047,33.451751708984375,0</coordinates>
</Point>
</Placemark>
<Placemark>
<name>市場前</name>
<description></description>
<Point>
<coordinates>133.44256591796875,33.450714111328125,0</coordinates>
</Point>
</Placemark>
<Placemark>
<name>東ノ丁</name>
<description></description>
<Point>
<coordinates>133.4407958984375,33.448970794677734,0</coordinates>
</Point>
</Placemark>
<Placemark>
<name>松岡</name>
<description></description>
<Point>
<coordinates>133.4386444091797,33.44611740112305,0</coordinates>
</Point>
</Placemark>
<Placemark>
<name>井尻</name>
<description></description>
<Point>
<coordinates>133.44375610351562,33.43917465209961,0</coordinates>
</Point>
</Placemark>
<Placemark>
<name>向萩の浜</name>
<description></description>
<Point>
<coordinates>133.44973754882812,33.43351745605469,0</coordinates>
</Point>
</Placemark>
<Placemark>
<name>竜（三陽荘）</name>
<description></description>
<Point>
<coordinates>133.45411682128906,33.431182861328125,0</coordinates>
</Point>
</Placemark>
<Placemark>
<name>スカイライン入口</name>
<description></description>
<Point>
<coordinates>133.43743896484375,33.4420166015625,0</coordinates>
</Point>
</Placemark>
<Placemark>
<name>福浜</name>
<description></description>
<Point>
<coordinates>133.43649291992188,33.43959426879883,0</coordinates>
</Point>
</Placemark>
<Placemark>
<name>海洋高校前</name>
<description></description>
<Point>
<coordinates>133.43507385253906,33.438594818115234,0</coordinates>
</Point>
</Placemark>
<Placemark>
<name>大川橋</name>
<description></description>
<Point>
<coordinates>133.43353271484375,33.43858337402344,0</coordinates>
</Point>
</Placemark>
<Placemark>
<name>宇佐</name>
<description></description>
<Point>
<coordinates>133.43173217773438,33.43743133544922,0</coordinates>
</Point>
</Placemark>
<Placemark>
<name>灘</name>
<description></description>
<Point>
<coordinates>133.43409729003906,33.438533782958984,0</coordinates>
</Point>
</Placemark>
<Placemark>
<name>中川橋前</name>
<description></description>
<Point>
<coordinates>133.43417358398438,33.440372467041016,0</coordinates>
</Point>
</Placemark>
<Placemark>
<name>信用組合前</name>
<description></description>
<Point>
<coordinates>133.44195556640625,33.45144271850586,0</coordinates>
</Point>
</Placemark>
<Placemark>
<name>西中郷</name>
<description></description>
<Point>
<coordinates>133.4421844482422,33.453086853027344,0</coordinates>
</Point>
</Placemark>
<Placemark>
<name>宇佐出荷場前</name>
<description></description>
<Point>
<coordinates>133.44398498535156,33.455421447753906,0</coordinates>
</Point>
</Placemark>
<Placemark>
<name>米山</name>
<description></description>
<Point>
<coordinates>133.44027709960938,33.475669860839844,0</coordinates>
</Point>
</Placemark>
<Placemark>
<name>塚地集会所前</name>
<description></description>
<Point>
<coordinates>133.44102478027344,33.47922897338867,0</coordinates>
</Point>
</Placemark>
<Placemark>
<name>ウトロ谷</name>
<description></description>
<Point>
<coordinates>133.4398651123047,33.481143951416016,0</coordinates>
</Point>
</Placemark>
<Placemark>
<name>JA高石直販所前</name>
<description></description>
<Point>
<coordinates>133.43896484375,33.48429489135742,0</coordinates>
</Point>
</Placemark>
<Placemark>
<name>野尻</name>
<description></description>
<Point>
<coordinates>133.43873596191406,33.48933410644531,0</coordinates>
</Point>
</Placemark>
<Placemark>
<name>サニーマート東口</name>
<description></description>
<Point>
<coordinates>133.43960571289062,33.49337387084961,0</coordinates>
</Point>
</Placemark>
<Placemark>
<name>文化会館前</name>
<description></description>
<Point>
<coordinates>133.29356384277344,33.390525817871094,0</coordinates>
</Point>
</Placemark>
<Placemark>
<name>四国電力前</name>
<description></description>
<Point>
<coordinates>133.2906494140625,33.39082336425781,0</coordinates>
</Point>
</Placemark>
<Placemark>
<name>新高陵病院前</name>
<description></description>
<Point>
<coordinates>133.28416442871094,33.39140701293945,0</coordinates>
</Point>
</Placemark>
<Placemark>
<name>市役所前</name>
<description></description>
<Point>
<coordinates>133.2834014892578,33.399723052978516,0</coordinates>
</Point>
</Placemark>
<Placemark>
<name>大間</name>
<description></description>
<Point>
<coordinates>133.28732299804688,33.40700149536133,0</coordinates>
</Point>
</Placemark>
<Placemark>
<name>ピア前</name>
<description></description>
<Point>
<coordinates>133.291259765625,33.41180419921875,0</coordinates>
</Point>
</Placemark>
<Placemark>
<name>串ノ浦</name>
<description></description>
<Point>
<coordinates>133.3048095703125,33.390968322753906,0</coordinates>
</Point>
</Placemark>
<Placemark>
<name>エム・セテック第二工場前</name>
<description></description>
<Point>
<coordinates>133.3037872314453,33.3833122253418,0</coordinates>
</Point>
</Placemark>
<Placemark>
<name>西勢井</name>
<description></description>
<Point>
<coordinates>133.3048858642578,33.381160736083984,0</coordinates>
</Point>
</Placemark>
<Placemark>
<name>勢井</name>
<description></description>
<Point>
<coordinates>133.306396484375,33.382076263427734,0</coordinates>
</Point>
</Placemark>
<Placemark>
<name>野見郵便局前</name>
<description></description>
<Point>
<coordinates>133.3140106201172,33.37987518310547,0</coordinates>
</Point>
</Placemark>
<Placemark>
<name>野見</name>
<description></description>
<Point>
<coordinates>133.31427001953125,33.377986907958984,0</coordinates>
</Point>
</Placemark>
<Placemark>
<name>小学校前</name>
<description></description>
<Point>
<coordinates>133.31448364257812,33.380897521972656,0</coordinates>
</Point>
</Placemark>
<Placemark>
<name>大谷漁協</name>
<description></description>
<Point>
<coordinates>133.31842041015625,33.38335037231445,0</coordinates>
</Point>
</Placemark>
<Placemark>
<name>大谷</name>
<description></description>
<Point>
<coordinates>133.32077026367188,33.38320541381836,0</coordinates>
</Point>
</Placemark>
<Placemark>
<name>くすのき園</name>
<description></description>
<Point>
<coordinates>133.32508850097656,33.37702560424805,0</coordinates>
</Point>
</Placemark>
<Placemark>
<name>白浜</name>
<description></description>
<Point>
<coordinates>133.3172149658203,33.36192321777344,0</coordinates>
</Point>
</Placemark>
<Placemark>
<name>蜂ケ尻</name>
<description></description>
<Point>
<coordinates>133.31723022460938,33.35799026489258,0</coordinates>
</Point>
</Placemark>
<Placemark>
<name>中ノ島</name>
<description></description>
<Point>
<coordinates>133.31005859375,33.35769271850586,0</coordinates>
</Point>
</Placemark>
<Placemark>
<name>住吉</name>
<description></description>
<Point>
<coordinates>133.7703399658203,33.517478942871094,0</coordinates>
</Point>
</Placemark>
<Placemark>
<name>手結山</name>
<description></description>
<Point>
<coordinates>133.76220703125,33.52359390258789,0</coordinates>
</Point>
</Placemark>
<Placemark>
<name>餅屋前</name>
<description></description>
<Point>
<coordinates>133.75941467285156,33.52796173095703,0</coordinates>
</Point>
</Placemark>
<Placemark>
<name>埋立</name>
<description></description>
<Point>
<coordinates>133.75662231445312,33.52945327758789,0</coordinates>
</Point>
</Placemark>
<Placemark>
<name>手結</name>
<description></description>
<Point>
<coordinates>133.7575225830078,33.53193664550781,0</coordinates>
</Point>
</Placemark>
<Placemark>
<name>夜須駅</name>
<description></description>
<Point>
<coordinates>133.75437927246094,33.53409194946289,0</coordinates>
</Point>
</Placemark>
<Placemark>
<name>夜須横町</name>
<description></description>
<Point>
<coordinates>133.75482177734375,33.536338806152344,0</coordinates>
</Point>
</Placemark>
<Placemark>
<name>夜須支所前</name>
<description></description>
<Point>
<coordinates>133.75631713867188,33.53806686401367,0</coordinates>
</Point>
</Placemark>
<Placemark>
<name>保育園前</name>
<description></description>
<Point>
<coordinates>133.7597198486328,33.54191207885742,0</coordinates>
</Point>
</Placemark>
<Placemark>
<name>学校前</name>
<description></description>
<Point>
<coordinates>133.7611541748047,33.54318618774414,0</coordinates>
</Point>
</Placemark>
<Placemark>
<name>十ノ木通</name>
<description></description>
<Point>
<coordinates>133.76901245117188,33.548316955566406,0</coordinates>
</Point>
</Placemark>
<Placemark>
<name>備後</name>
<description></description>
<Point>
<coordinates>133.7740020751953,33.5513916015625,0</coordinates>
</Point>
</Placemark>
<Placemark>
<name>上夜須</name>
<description></description>
<Point>
<coordinates>133.7779998779297,33.55636215209961,0</coordinates>
</Point>
</Placemark>
<Placemark>
<name>添地</name>
<description></description>
<Point>
<coordinates>133.78184509277344,33.560977935791016,0</coordinates>
</Point>
</Placemark>
<Placemark>
<name>夜須川</name>
<description></description>
<Point>
<coordinates>133.79061889648438,33.56538391113281,0</coordinates>
</Point>
</Placemark>
<Placemark>
<name>細川</name>
<description></description>
<Point>
<coordinates>133.7946014404297,33.5806999206543,0</coordinates>
</Point>
</Placemark>
<Placemark>
<name>天王</name>
<description></description>
<Point>
<coordinates>133.80308532714844,33.569358825683594,0</coordinates>
</Point>
</Placemark>
<Placemark>
<name>中の宮</name>
<description></description>
<Point>
<coordinates>133.80892944335938,33.57898712158203,0</coordinates>
</Point>
</Placemark>
<Placemark>
<name>国光</name>
<description></description>
<Point>
<coordinates>133.81617736816406,33.58331298828125,0</coordinates>
</Point>
</Placemark>
<Placemark>
<name>峠</name>
<description></description>
<Point>
<coordinates>133.82826232910156,33.58821105957031,0</coordinates>
</Point>
</Placemark>
<Placemark>
<name>羽尾</name>
<description></description>
<Point>
<coordinates>133.83351135253906,33.591880798339844,0</coordinates>
</Point>
</Placemark>
<Placemark>
<name>のいち駅</name>
<description></description>
<Point>
<coordinates>133.6979522705078,33.56233596801758,0</coordinates>
</Point>
</Placemark>
<Placemark>
<name>香南市役所前</name>
<description></description>
<Point>
<coordinates>133.70106506347656,33.5643310546875,0</coordinates>
</Point>
</Placemark>
<Placemark>
<name>白岩新橋</name>
<description></description>
<Point>
<coordinates>133.71104431152344,33.587467193603516,0</coordinates>
</Point>
</Placemark>
<Placemark>
<name>つきみ野入口</name>
<description></description>
<Point>
<coordinates>133.7126007080078,33.58921813964844,0</coordinates>
</Point>
</Placemark>
<Placemark>
<name>国吉商店前</name>
<description></description>
<Point>
<coordinates>133.71495056152344,33.59039306640625,0</coordinates>
</Point>
</Placemark>
<Placemark>
<name>山ノ神谷</name>
<description></description>
<Point>
<coordinates>133.72401428222656,33.59646987915039,0</coordinates>
</Point>
</Placemark>
<Placemark>
<name>下分公民館前</name>
<description></description>
<Point>
<coordinates>133.7075958251953,33.58939743041992,0</coordinates>
</Point>
</Placemark>
<Placemark>
<name>西佐古公民館東</name>
<description></description>
<Point>
<coordinates>133.70272827148438,33.590633392333984,0</coordinates>
</Point>
</Placemark>
<Placemark>
<name>父養寺北</name>
<description></description>
<Point>
<coordinates>133.69769287109375,33.585289001464844,0</coordinates>
</Point>
</Placemark>
<Placemark>
<name>兄弟橋北</name>
<description></description>
<Point>
<coordinates>133.69699096679688,33.57327651977539,0</coordinates>
</Point>
</Placemark>
<Placemark>
<name>野市保育所西</name>
<description></description>
<Point>
<coordinates>133.69619750976562,33.56509780883789,0</coordinates>
</Point>
</Placemark>
<Placemark>
<name>香我美駅</name>
<description></description>
<Point>
<coordinates>133.73777770996094,33.53932571411133,0</coordinates>
</Point>
</Placemark>
<Placemark>
<name>岸本</name>
<description></description>
<Point>
<coordinates>133.73187255859375,33.539981842041016,0</coordinates>
</Point>
</Placemark>
<Placemark>
<name>江見町</name>
<description></description>
<Point>
<coordinates>133.7275390625,33.539878845214844,0</coordinates>
</Point>
</Placemark>
<Placemark>
<name>赤岡南町</name>
<description></description>
<Point>
<coordinates>133.7222137451172,33.541748046875,0</coordinates>
</Point>
</Placemark>
<Placemark>
<name>千鳥橋</name>
<description></description>
<Point>
<coordinates>133.70877075195312,33.54168701171875,0</coordinates>
</Point>
</Placemark>
<Placemark>
<name>沢田酒店前</name>
<description></description>
<Point>
<coordinates>133.70587158203125,33.5418586730957,0</coordinates>
</Point>
</Placemark>
<Placemark>
<name>福井タバコ店前</name>
<description></description>
<Point>
<coordinates>133.7030029296875,33.54179763793945,0</coordinates>
</Point>
</Placemark>
<Placemark>
<name>吉川支所前</name>
<description></description>
<Point>
<coordinates>133.70008850097656,33.54151916503906,0</coordinates>
</Point>
</Placemark>
<Placemark>
<name>宇賀</name>
<description></description>
<Point>
<coordinates>133.6953125,33.55674743652344,0</coordinates>
</Point>
</Placemark>
<Placemark>
<name>自動車学校前</name>
<description></description>
<Point>
<coordinates>133.69993591308594,33.55792236328125,0</coordinates>
</Point>
</Placemark>
<Placemark>
<name>明神国道南</name>
<description></description>
<Point>
<coordinates>133.73135375976562,33.538795471191406,0</coordinates>
</Point>
</Placemark>
<Placemark>
<name>明神</name>
<description></description>
<Point>
<coordinates>133.73129272460938,33.54183578491211,0</coordinates>
</Point>
</Placemark>
<Placemark>
<name>岸本屯所</name>
<description></description>
<Point>
<coordinates>133.73587036132812,33.54158020019531,0</coordinates>
</Point>
</Placemark>
<Placemark>
<name>堀川公園</name>
<description></description>
<Point>
<coordinates>133.73800659179688,33.540565490722656,0</coordinates>
</Point>
</Placemark>
<Placemark>
<name>月見山上り口</name>
<description></description>
<Point>
<coordinates>133.7427978515625,33.539947509765625,0</coordinates>
</Point>
</Placemark>
<Placemark>
<name>変電所</name>
<description></description>
<Point>
<coordinates>133.74752807617188,33.55046463012695,0</coordinates>
</Point>
</Placemark>
<Placemark>
<name>徳王子公民館</name>
<description></description>
<Point>
<coordinates>133.74179077148438,33.554046630859375,0</coordinates>
</Point>
</Placemark>
<Placemark>
<name>新店</name>
<description></description>
<Point>
<coordinates>133.73422241210938,33.55502700805664,0</coordinates>
</Point>
</Placemark>
<Placemark>
<name>市民館東口</name>
<description></description>
<Point>
<coordinates>133.73890686035156,33.56169509887695,0</coordinates>
</Point>
</Placemark>
<Placemark>
<name>市民館西口</name>
<description></description>
<Point>
<coordinates>133.7349853515625,33.561248779296875,0</coordinates>
</Point>
</Placemark>
<Placemark>
<name>久保田通</name>
<description></description>
<Point>
<coordinates>133.7368927001953,33.56718444824219,0</coordinates>
</Point>
</Placemark>
<Placemark>
<name>Aコープ前</name>
<description></description>
<Point>
<coordinates>133.74130249023438,33.56672286987305,0</coordinates>
</Point>
</Placemark>
<Placemark>
<name>香我美支所前</name>
<description></description>
<Point>
<coordinates>133.74188232421875,33.57033920288086,0</coordinates>
</Point>
</Placemark>
<Placemark>
<name>富家通</name>
<description></description>
<Point>
<coordinates>133.73983764648438,33.57722473144531,0</coordinates>
</Point>
</Placemark>
<Placemark>
<name>市場前</name>
<description></description>
<Point>
<coordinates>133.74261474609375,33.57939910888672,0</coordinates>
</Point>
</Placemark>
<Placemark>
<name>前田入口</name>
<description></description>
<Point>
<coordinates>133.7366943359375,33.57516098022461,0</coordinates>
</Point>
</Placemark>
<Placemark>
<name>山南通</name>
<description></description>
<Point>
<coordinates>133.72698974609375,33.56806945800781,0</coordinates>
</Point>
</Placemark>
<Placemark>
<name>みどり野スーパー</name>
<description></description>
<Point>
<coordinates>133.71800231933594,33.56511688232422,0</coordinates>
</Point>
</Placemark>
<Placemark>
<name>みどり野団地通</name>
<description></description>
<Point>
<coordinates>133.71409606933594,33.56182098388672,0</coordinates>
</Point>
</Placemark>
<Placemark>
<name>野地東</name>
<description></description>
<Point>
<coordinates>133.7172088623047,33.561283111572266,0</coordinates>
</Point>
</Placemark>
<Placemark>
<name>新宮通</name>
<description></description>
<Point>
<coordinates>133.70953369140625,33.56179428100586,0</coordinates>
</Point>
</Placemark>
<Placemark>
<name>石家</name>
<description></description>
<Point>
<coordinates>133.70333862304688,33.56178665161133,0</coordinates>
</Point>
</Placemark>
<Placemark>
<name>高畔</name>
<description></description>
<Point>
<coordinates>133.7838592529297,33.608028411865234,0</coordinates>
</Point>
</Placemark>
<Placemark>
<name>樋の谷橋</name>
<description></description>
<Point>
<coordinates>133.7776336669922,33.602474212646484,0</coordinates>
</Point>
</Placemark>
<Placemark>
<name>中西川</name>
<description></description>
<Point>
<coordinates>133.77256774902344,33.59943389892578,0</coordinates>
</Point>
</Placemark>
<Placemark>
<name>岩鍋</name>
<description></description>
<Point>
<coordinates>133.76510620117188,33.59294509887695,0</coordinates>
</Point>
</Placemark>
<Placemark>
<name>小畠</name>
<description></description>
<Point>
<coordinates>133.75526428222656,33.585670471191406,0</coordinates>
</Point>
</Placemark>
<Placemark>
<name>吉次通</name>
<description></description>
<Point>
<coordinates>133.74778747558594,33.5820198059082,0</coordinates>
</Point>
</Placemark>
<Placemark>
<name>香我美小学校前</name>
<description></description>
<Point>
<coordinates>133.7418212890625,33.57258987426758,0</coordinates>
</Point>
</Placemark>
<Placemark>
<name>野市東町</name>
<description></description>
<Point>
<coordinates>133.7007293701172,33.56175994873047,0</coordinates>
</Point>
</Placemark>
<Placemark>
<name>奈良峠</name>
<description></description>
<Point>
<coordinates>133.8322296142578,33.62496566772461,0</coordinates>
</Point>
</Placemark>
<Placemark>
<name>奈良橋</name>
<description></description>
<Point>
<coordinates>133.8230438232422,33.614688873291016,0</coordinates>
</Point>
</Placemark>
<Placemark>
<name>中土居</name>
<description></description>
<Point>
<coordinates>133.8177032470703,33.60733413696289,0</coordinates>
</Point>
</Placemark>
<Placemark>
<name>別役</name>
<description></description>
<Point>
<coordinates>133.8148651123047,33.60713577270508,0</coordinates>
</Point>
</Placemark>
<Placemark>
<name>正延</name>
<description></description>
<Point>
<coordinates>133.80442810058594,33.596900939941406,0</coordinates>
</Point>
</Placemark>
<Placemark>
<name>温泉前</name>
<description></description>
<Point>
<coordinates>133.79591369628906,33.59062194824219,0</coordinates>
</Point>
</Placemark>
<Placemark>
<name>中山川公会堂前</name>
<description></description>
<Point>
<coordinates>133.77903747558594,33.581111907958984,0</coordinates>
</Point>
</Placemark>
<Placemark>
<name>下山川</name>
<description></description>
<Point>
<coordinates>133.7720184326172,33.58565139770508,0</coordinates>
</Point>
</Placemark>
<Placemark>
<name>大岩</name>
<description></description>
<Point>
<coordinates>133.76231384277344,33.57528305053711,0</coordinates>
</Point>
</Placemark>
<Placemark>
<name>上河内</name>
<description></description>
<Point>
<coordinates>133.75106811523438,33.57149124145508,0</coordinates>
</Point>
</Placemark>
<Placemark>
<name>中学校前</name>
<description></description>
<Point>
<coordinates>133.7333984375,33.567115783691406,0</coordinates>
</Point>
</Placemark>
<Placemark>
<name>下河内</name>
<description></description>
<Point>
<coordinates>133.7467498779297,33.56647872924805,0</coordinates>
</Point>
</Placemark>
<Placemark>
<name>たちばな団地</name>
<description></description>
<Point>
<coordinates>133.756103515625,33.568023681640625,0</coordinates>
</Point>
</Placemark>
<Placemark>
<name>稗地</name>
<description></description>
<Point>
<coordinates>133.75901794433594,33.563873291015625,0</coordinates>
</Point>
</Placemark>
<Placemark>
<name>堀ノ内</name>
<description></description>
<Point>
<coordinates>133.7663116455078,33.567481994628906,0</coordinates>
</Point>
</Placemark>
<Placemark>
<name>岡</name>
<description></description>
<Point>
<coordinates>133.75253295898438,33.56524658203125,0</coordinates>
</Point>
</Placemark>
<Placemark>
<name>そとば通</name>
<description></description>
<Point>
<coordinates>133.77085876464844,33.59783935546875,0</coordinates>
</Point>
</Placemark>
<Placemark>
<name>行宗橋</name>
<description></description>
<Point>
<coordinates>133.77276611328125,33.5928955078125,0</coordinates>
</Point>
</Placemark>
<Placemark>
<name>大栃</name>
<description></description>
<Point>
<coordinates>133.87423706054688,33.697532653808594,0</coordinates>
</Point>
</Placemark>
<Placemark>
<name>プラザ前</name>
<description></description>
<Point>
<coordinates>133.87469482421875,33.696598052978516,0</coordinates>
</Point>
</Placemark>
<Placemark>
<name>明石橋|</name>
<description></description>
<Point>
<coordinates>133.87840270996094,33.693538665771484,0</coordinates>
</Point>
</Placemark>
<Placemark>
<name>山崎I</name>
<description></description>
<Point>
<coordinates>133.87962341308594,33.693328857421875,0</coordinates>
</Point>
</Placemark>
<Placemark>
<name>東土居</name>
<description></description>
<Point>
<coordinates>133.8837432861328,33.69549560546875,0</coordinates>
</Point>
</Placemark>
<Placemark>
<name>塩</name>
<description></description>
<Point>
<coordinates>133.88427734375,33.6999397277832,0</coordinates>
</Point>
</Placemark>
<Placemark>
<name>下日の地</name>
<description></description>
<Point>
<coordinates>133.89056396484375,33.70138168334961,0</coordinates>
</Point>
</Placemark>
<Placemark>
<name>日の地</name>
<description></description>
<Point>
<coordinates>133.8920440673828,33.7017707824707,0</coordinates>
</Point>
</Placemark>
<Placemark>
<name>上日の地</name>
<description></description>
<Point>
<coordinates>133.89462280273438,33.700931549072266,0</coordinates>
</Point>
</Placemark>
<Placemark>
<name>佐岡口</name>
<description></description>
<Point>
<coordinates>133.8991241455078,33.70216369628906,0</coordinates>
</Point>
</Placemark>
<Placemark>
<name>押谷</name>
<description></description>
<Point>
<coordinates>133.90325927734375,33.70888137817383,0</coordinates>
</Point>
</Placemark>
<Placemark>
<name>檜ケ谷</name>
<description></description>
<Point>
<coordinates>133.90573120117188,33.7118034362793,0</coordinates>
</Point>
</Placemark>
<Placemark>
<name>土佐小浜</name>
<description></description>
<Point>
<coordinates>133.91677856445312,33.71308898925781,0</coordinates>
</Point>
</Placemark>
<Placemark>
<name>谷口横</name>
<description></description>
<Point>
<coordinates>133.91880798339844,33.7160530090332,0</coordinates>
</Point>
</Placemark>
<Placemark>
<name>根木屋</name>
<description></description>
<Point>
<coordinates>133.92257690429688,33.71564865112305,0</coordinates>
</Point>
</Placemark>
<Placemark>
<name>須賀井</name>
<description></description>
<Point>
<coordinates>133.9276123046875,33.71603775024414,0</coordinates>
</Point>
</Placemark>
<Placemark>
<name>野久保</name>
<description></description>
<Point>
<coordinates>133.93020629882812,33.72006607055664,0</coordinates>
</Point>
</Placemark>
<Placemark>
<name>岡の内</name>
<description></description>
<Point>
<coordinates>133.93560791015625,33.720245361328125,0</coordinates>
</Point>
</Placemark>
<Placemark>
<name>土佐川口</name>
<description></description>
<Point>
<coordinates>133.9490203857422,33.72419738769531,0</coordinates>
</Point>
</Placemark>
<Placemark>
<name>中内口</name>
<description></description>
<Point>
<coordinates>133.9541015625,33.72823715209961,0</coordinates>
</Point>
</Placemark>
<Placemark>
<name>百々尾</name>
<description></description>
<Point>
<coordinates>133.959228515625,33.73158264160156,0</coordinates>
</Point>
</Placemark>
<Placemark>
<name>津々呂</name>
<description></description>
<Point>
<coordinates>133.9669189453125,33.7354850769043,0</coordinates>
</Point>
</Placemark>
<Placemark>
<name>小松神社前</name>
<description></description>
<Point>
<coordinates>133.970703125,33.73609924316406,0</coordinates>
</Point>
</Placemark>
<Placemark>
<name>別役</name>
<description></description>
<Point>
<coordinates>133.976318359375,33.733455657958984,0</coordinates>
</Point>
</Placemark>
<Placemark>
<name>下土居ロ</name>
<description></description>
<Point>
<coordinates>133.9803009033203,33.73474884033203,0</coordinates>
</Point>
</Placemark>
<Placemark>
<name>沖ノ谷</name>
<description></description>
<Point>
<coordinates>133.98526000976562,33.737754821777344,0</coordinates>
</Point>
</Placemark>
<Placemark>
<name>木床</name>
<description></description>
<Point>
<coordinates>133.99212646484375,33.74031448364258,0</coordinates>
</Point>
</Placemark>
<Placemark>
<name>宮の瀬</name>
<description></description>
<Point>
<coordinates>134.00062561035156,33.744171142578125,0</coordinates>
</Point>
</Placemark>
<Placemark>
<name>成山口</name>
<description></description>
<Point>
<coordinates>134.0074462890625,33.744773864746094,0</coordinates>
</Point>
</Placemark>
<Placemark>
<name>樫山</name>
<description></description>
<Point>
<coordinates>134.01255798339844,33.74673080444336,0</coordinates>
</Point>
</Placemark>
<Placemark>
<name>舟ヶ谷</name>
<description></description>
<Point>
<coordinates>134.01882934570312,33.75064468383789,0</coordinates>
</Point>
</Placemark>
<Placemark>
<name>土佐落合</name>
<description></description>
<Point>
<coordinates>134.02838134765625,33.75758743286133,0</coordinates>
</Point>
</Placemark>
<Placemark>
<name>ぺふ峡温泉前</name>
<description></description>
<Point>
<coordinates>134.0301055908203,33.762237548828125,0</coordinates>
</Point>
</Placemark>
<Placemark>
<name>野地</name>
<description></description>
<Point>
<coordinates>134.0325469970703,33.761810302734375,0</coordinates>
</Point>
</Placemark>
<Placemark>
<name>朴谷□</name>
<description></description>
<Point>
<coordinates>134.03492736816406,33.7623291015625,0</coordinates>
</Point>
</Placemark>
<Placemark>
<name>別府</name>
<description></description>
<Point>
<coordinates>134.03451538085938,33.76490783691406,0</coordinates>
</Point>
</Placemark>
<Placemark>
<name>大栃神社前</name>
<description></description>
<Point>
<coordinates>133.8778839111328,33.69784927368164,0</coordinates>
</Point>
</Placemark>
<Placemark>
<name>斬屋敷</name>
<description></description>
<Point>
<coordinates>133.8793182373047,33.70098114013672,0</coordinates>
</Point>
</Placemark>
<Placemark>
<name>北村</name>
<description></description>
<Point>
<coordinates>133.87985229492188,33.70358657836914,0</coordinates>
</Point>
</Placemark>
<Placemark>
<name>間々</name>
<description></description>
<Point>
<coordinates>133.88441467285156,33.711761474609375,0</coordinates>
</Point>
</Placemark>
<Placemark>
<name>土佐立花</name>
<description></description>
<Point>
<coordinates>133.8921356201172,33.71980667114258,0</coordinates>
</Point>
</Placemark>
<Placemark>
<name>安丸</name>
<description></description>
<Point>
<coordinates>133.89329528808594,33.728118896484375,0</coordinates>
</Point>
</Placemark>
<Placemark>
<name>安丸郵便局前</name>
<description></description>
<Point>
<coordinates>133.8936767578125,33.72908401489258,0</coordinates>
</Point>
</Placemark>
<Placemark>
<name>大屋敷</name>
<description></description>
<Point>
<coordinates>133.89955139160156,33.73408889770508,0</coordinates>
</Point>
</Placemark>
<Placemark>
<name>笹口</name>
<description></description>
<Point>
<coordinates>133.90354919433594,33.73815155029297,0</coordinates>
</Point>
</Placemark>
<Placemark>
<name>五王堂</name>
<description></description>
<Point>
<coordinates>133.90432739257812,33.740570068359375,0</coordinates>
</Point>
</Placemark>
<Placemark>
<name>上番</name>
<description></description>
<Point>
<coordinates>133.90672302246094,33.743125915527344,0</coordinates>
</Point>
</Placemark>
<Placemark>
<name>大西口</name>
<description></description>
<Point>
<coordinates>133.91458129882812,33.748924255371094,0</coordinates>
</Point>
</Placemark>
<Placemark>
<name>温泉前</name>
<description></description>
<Point>
<coordinates>133.91732788085938,33.749332427978516,0</coordinates>
</Point>
</Placemark>
<Placemark>
<name>南池橋</name>
<description></description>
<Point>
<coordinates>133.9202117919922,33.75346374511719,0</coordinates>
</Point>
</Placemark>
<Placemark>
<name>冬谷橋</name>
<description></description>
<Point>
<coordinates>133.9256134033203,33.75568771362305,0</coordinates>
</Point>
</Placemark>
<Placemark>
<name>高井</name>
<description></description>
<Point>
<coordinates>133.92837524414062,33.757057189941406,0</coordinates>
</Point>
</Placemark>
<Placemark>
<name>袂石</name>
<description></description>
<Point>
<coordinates>133.93203735351562,33.76143264770508,0</coordinates>
</Point>
</Placemark>
<Placemark>
<name>堂の岡</name>
<description></description>
<Point>
<coordinates>133.9365997314453,33.764286041259766,0</coordinates>
</Point>
</Placemark>
<Placemark>
<name>安野尾口</name>
<description></description>
<Point>
<coordinates>133.93734741210938,33.76571273803711,0</coordinates>
</Point>
</Placemark>
<Placemark>
<name>沼井</name>
<description></description>
<Point>
<coordinates>133.94871520996094,33.76752471923828,0</coordinates>
</Point>
</Placemark>
<Placemark>
<name>中内</name>
<description></description>
<Point>
<coordinates>133.95477294921875,33.771026611328125,0</coordinates>
</Point>
</Placemark>
<Placemark>
<name>和久保</name>
<description></description>
<Point>
<coordinates>133.95828247070312,33.77608871459961,0</coordinates>
</Point>
</Placemark>
<Placemark>
<name>影</name>
<description></description>
<Point>
<coordinates>133.96075439453125,33.777896881103516,0</coordinates>
</Point>
</Placemark>
<Placemark>
<name>物部支所</name>
<description></description>
<Point>
<coordinates>133.87850952148438,33.69831085205078,0</coordinates>
</Point>
</Placemark>
<Placemark>
<name>東大比</name>
<description></description>
<Point>
<coordinates>133.87074279785156,33.69306182861328,0</coordinates>
</Point>
</Placemark>
<Placemark>
<name>西大比</name>
<description></description>
<Point>
<coordinates>133.86798095703125,33.69106674194336,0</coordinates>
</Point>
</Placemark>
<Placemark>
<name>東高尾</name>
<description></description>
<Point>
<coordinates>133.86630249023438,33.69013214111328,0</coordinates>
</Point>
</Placemark>
<Placemark>
<name>土佐高尾</name>
<description></description>
<Point>
<coordinates>133.8639373779297,33.68769073486328,0</coordinates>
</Point>
</Placemark>
<Placemark>
<name>沢居岩橋</name>
<description></description>
<Point>
<coordinates>133.86648559570312,33.68489074707031,0</coordinates>
</Point>
</Placemark>
<Placemark>
<name>東頓定</name>
<description></description>
<Point>
<coordinates>133.8729705810547,33.680877685546875,0</coordinates>
</Point>
</Placemark>
<Placemark>
<name>大平橋</name>
<description></description>
<Point>
<coordinates>133.87030029296875,33.6776123046875,0</coordinates>
</Point>
</Placemark>
<Placemark>
<name>宇井</name>
<description></description>
<Point>
<coordinates>133.87327575683594,33.677101135253906,0</coordinates>
</Point>
</Placemark>
<Placemark>
<name>林口</name>
<description></description>
<Point>
<coordinates>133.87689208984375,33.67554473876953,0</coordinates>
</Point>
</Placemark>
<Placemark>
<name>明改口</name>
<description></description>
<Point>
<coordinates>133.87648010253906,33.674320220947266,0</coordinates>
</Point>
</Placemark>
<Placemark>
<name>明改</name>
<description></description>
<Point>
<coordinates>133.87921142578125,33.671958923339844,0</coordinates>
</Point>
</Placemark>
<Placemark>
<name>仙頭の平</name>
<description></description>
<Point>
<coordinates>133.88864135742188,33.669403076171875,0</coordinates>
</Point>
</Placemark>
<Placemark>
<name>宮の入口</name>
<description></description>
<Point>
<coordinates>133.89288330078125,33.66868591308594,0</coordinates>
</Point>
</Placemark>
<Placemark>
<name>宮の後</name>
<description></description>
<Point>
<coordinates>133.8950958251953,33.66896438598633,0</coordinates>
</Point>
</Placemark>
<Placemark>
<name>栃谷</name>
<description></description>
<Point>
<coordinates>133.89913940429688,33.671329498291016,0</coordinates>
</Point>
</Placemark>
<Placemark>
<name>明改小前</name>
<description></description>
<Point>
<coordinates>133.8778533935547,33.670230865478516,0</coordinates>
</Point>
</Placemark>
<Placemark>
<name>巣山口</name>
<description></description>
<Point>
<coordinates>133.88356018066406,33.66709899902344,0</coordinates>
</Point>
</Placemark>
<Placemark>
<name>大古畑</name>
<description></description>
<Point>
<coordinates>133.88401794433594,33.664268493652344,0</coordinates>
</Point>
</Placemark>
<Placemark>
<name>栃本</name>
<description></description>
<Point>
<coordinates>133.87864685058594,33.662506103515625,0</coordinates>
</Point>
</Placemark>
<Placemark>
<name>保健福祉センター</name>
<description></description>
<Point>
<coordinates>133.7840576171875,33.648963928222656,0</coordinates>
</Point>
</Placemark>
<Placemark>
<name>美良布</name>
<description></description>
<Point>
<coordinates>133.7788848876953,33.64783477783203,0</coordinates>
</Point>
</Placemark>
<Placemark>
<name>泉町</name>
<description></description>
<Point>
<coordinates>133.7795867919922,33.649837493896484,0</coordinates>
</Point>
</Placemark>
<Placemark>
<name>小学校前</name>
<description></description>
<Point>
<coordinates>133.77798461914062,33.651432037353516,0</coordinates>
</Point>
</Placemark>
<Placemark>
<name>河口</name>
<description></description>
<Point>
<coordinates>133.77984619140625,33.655601501464844,0</coordinates>
</Point>
</Placemark>
<Placemark>
<name>日ノ御子</name>
<description></description>
<Point>
<coordinates>133.78321838378906,33.656028747558594,0</coordinates>
</Point>
</Placemark>
<Placemark>
<name>日ノ御子公会堂前</name>
<description></description>
<Point>
<coordinates>133.7816925048828,33.657501220703125,0</coordinates>
</Point>
</Placemark>
<Placemark>
<name>横谷口</name>
<description></description>
<Point>
<coordinates>133.78668212890625,33.66524124145508,0</coordinates>
</Point>
</Placemark>
<Placemark>
<name>横谷宮ノ前</name>
<description></description>
<Point>
<coordinates>133.78944396972656,33.666358947753906,0</coordinates>
</Point>
</Placemark>
<Placemark>
<name>中谷公会堂前</name>
<description></description>
<Point>
<coordinates>133.78988647460938,33.669700622558594,0</coordinates>
</Point>
</Placemark>
<Placemark>
<name>松村谷</name>
<description></description>
<Point>
<coordinates>133.79197692871094,33.67299270629883,0</coordinates>
</Point>
</Placemark>
<Placemark>
<name>谷相小学校前</name>
<description></description>
<Point>
<coordinates>133.79562377929688,33.67341232299805,0</coordinates>
</Point>
</Placemark>
<Placemark>
<name>三十代</name>
<description></description>
<Point>
<coordinates>133.79966735839844,33.673423767089844,0</coordinates>
</Point>
</Placemark>
<Placemark>
<name>ハーブ園前</name>
<description></description>
<Point>
<coordinates>133.8016357421875,33.67622756958008,0</coordinates>
</Point>
</Placemark>
<Placemark>
<name>谷相上ノダ</name>
<description></description>
<Point>
<coordinates>133.79888916015625,33.67768096923828,0</coordinates>
</Point>
</Placemark>
<Placemark>
<name>白川</name>
<description></description>
<Point>
<coordinates>133.74932861328125,33.643192291259766,0</coordinates>
</Point>
</Placemark>
<Placemark>
<name>香麗橋</name>
<description></description>
<Point>
<coordinates>133.7545928955078,33.64411163330078,0</coordinates>
</Point>
</Placemark>
<Placemark>
<name>市川</name>
<description></description>
<Point>
<coordinates>133.7577667236328,33.64566421508789,0</coordinates>
</Point>
</Placemark>
<Placemark>
<name>五百蔵</name>
<description></description>
<Point>
<coordinates>133.76168823242188,33.648311614990234,0</coordinates>
</Point>
</Placemark>
<Placemark>
<name>暁霞</name>
<description></description>
<Point>
<coordinates>133.76446533203125,33.650352478027344,0</coordinates>
</Point>
</Placemark>
<Placemark>
<name>有瀬</name>
<description></description>
<Point>
<coordinates>133.77099609375,33.65319061279297,0</coordinates>
</Point>
</Placemark>
<Placemark>
<name>大堀谷</name>
<description></description>
<Point>
<coordinates>133.7758331298828,33.64720153808594,0</coordinates>
</Point>
</Placemark>
<Placemark>
<name>釈迦堂前</name>
<description></description>
<Point>
<coordinates>133.77105712890625,33.64616394042969,0</coordinates>
</Point>
</Placemark>
<Placemark>
<name>太郎丸</name>
<description></description>
<Point>
<coordinates>133.7648162841797,33.64404296875,0</coordinates>
</Point>
</Placemark>
<Placemark>
<name>岩改口</name>
<description></description>
<Point>
<coordinates>133.7580108642578,33.6433219909668,0</coordinates>
</Point>
</Placemark>
<Placemark>
<name>萩野</name>
<description></description>
<Point>
<coordinates>133.7576141357422,33.634578704833984,0</coordinates>
</Point>
</Placemark>
<Placemark>
<name>北岩改</name>
<description></description>
<Point>
<coordinates>133.76400756835938,33.62759780883789,0</coordinates>
</Point>
</Placemark>
<Placemark>
<name>平</name>
<description></description>
<Point>
<coordinates>133.76101684570312,33.626304626464844,0</coordinates>
</Point>
</Placemark>
<Placemark>
<name>岩改</name>
<description></description>
<Point>
<coordinates>133.76429748535156,33.6211051940918,0</coordinates>
</Point>
</Placemark>
<Placemark>
<name>韮生野</name>
<description></description>
<Point>
<coordinates>133.7871551513672,33.650482177734375,0</coordinates>
</Point>
</Placemark>
<Placemark>
<name>小川</name>
<description></description>
<Point>
<coordinates>133.79368591308594,33.65384292602539,0</coordinates>
</Point>
</Placemark>
<Placemark>
<name>影ノ谷口</name>
<description></description>
<Point>
<coordinates>133.8031463623047,33.647056579589844,0</coordinates>
</Point>
</Placemark>
<Placemark>
<name>下久保川</name>
<description></description>
<Point>
<coordinates>133.8101806640625,33.642860412597656,0</coordinates>
</Point>
</Placemark>
<Placemark>
<name>久保川橋</name>
<description></description>
<Point>
<coordinates>133.80873107910156,33.63707733154297,0</coordinates>
</Point>
</Placemark>
<Placemark>
<name>胡麻尻</name>
<description></description>
<Point>
<coordinates>133.8070831298828,33.63221740722656,0</coordinates>
</Point>
</Placemark>
<Placemark>
<name>佐敷</name>
<description></description>
<Point>
<coordinates>133.80258178710938,33.625518798828125,0</coordinates>
</Point>
</Placemark>
<Placemark>
<name>栗ノ木</name>
<description></description>
<Point>
<coordinates>133.79945373535156,33.624114990234375,0</coordinates>
</Point>
</Placemark>
<Placemark>
<name>千萱</name>
<description></description>
<Point>
<coordinates>133.7981414794922,33.61939239501953,0</coordinates>
</Point>
</Placemark>
<Placemark>
<name>蕨野</name>
<description></description>
<Point>
<coordinates>133.84506225585938,33.6840934753418,0</coordinates>
</Point>
</Placemark>
<Placemark>
<name>永瀬</name>
<description></description>
<Point>
<coordinates>133.85765075683594,33.70109176635742,0</coordinates>
</Point>
</Placemark>
<Placemark>
<name>引立</name>
<description></description>
<Point>
<coordinates>133.8565216064453,33.70794677734375,0</coordinates>
</Point>
</Placemark>
<Placemark>
<name>猪野々</name>
<description></description>
<Point>
<coordinates>133.85496520996094,33.706138610839844,0</coordinates>
</Point>
</Placemark>
<Placemark>
<name>初田下</name>
<description></description>
<Point>
<coordinates>133.85365295410156,33.69681167602539,0</coordinates>
</Point>
</Placemark>
<Placemark>
<name>清爪</name>
<description></description>
<Point>
<coordinates>133.8462677001953,33.690467834472656,0</coordinates>
</Point>
</Placemark>
<Placemark>
<name>大谷口</name>
<description></description>
<Point>
<coordinates>133.8437957763672,33.68986511230469,0</coordinates>
</Point>
</Placemark>
<Placemark>
<name>日浦込</name>
<description></description>
<Point>
<coordinates>133.8355255126953,33.68014144897461,0</coordinates>
</Point>
</Placemark>
<Placemark>
<name>柚ノ木谷</name>
<description></description>
<Point>
<coordinates>133.8297119140625,33.67673110961914,0</coordinates>
</Point>
</Placemark>
<Placemark>
<name>梅久保</name>
<description></description>
<Point>
<coordinates>133.8284454345703,33.67262649536133,0</coordinates>
</Point>
</Placemark>
<Placemark>
<name>在所橋</name>
<description></description>
<Point>
<coordinates>133.82435607910156,33.670413970947266,0</coordinates>
</Point>
</Placemark>
<Placemark>
<name>永野</name>
<description></description>
<Point>
<coordinates>133.81724548339844,33.66572952270508,0</coordinates>
</Point>
</Placemark>
<Placemark>
<name>西永野</name>
<description></description>
<Point>
<coordinates>133.8123779296875,33.663639068603516,0</coordinates>
</Point>
</Placemark>
<Placemark>
<name>朴ノ木橋</name>
<description></description>
<Point>
<coordinates>133.80491638183594,33.6611328125,0</coordinates>
</Point>
</Placemark>
<Placemark>
<name>朴ノ木</name>
<description></description>
<Point>
<coordinates>133.80189514160156,33.65938186645508,0</coordinates>
</Point>
</Placemark>
<Placemark>
<name>下朴ノ木</name>
<description></description>
<Point>
<coordinates>133.79554748535156,33.65736389160156,0</coordinates>
</Point>
</Placemark>
<Placemark>
<name>白石</name>
<description></description>
<Point>
<coordinates>133.84120178222656,33.67995071411133,0</coordinates>
</Point>
</Placemark>
<Placemark>
<name>清爪口</name>
<description></description>
<Point>
<coordinates>133.83932495117188,33.67844009399414,0</coordinates>
</Point>
</Placemark>
<Placemark>
<name>永瀬発電所前</name>
<description></description>
<Point>
<coordinates>133.83474731445312,33.6751823425293,0</coordinates>
</Point>
</Placemark>
<Placemark>
<name>府内</name>
<description></description>
<Point>
<coordinates>133.83328247070312,33.67364501953125,0</coordinates>
</Point>
</Placemark>
<Placemark>
<name>在所</name>
<description></description>
<Point>
<coordinates>133.82662963867188,33.66889190673828,0</coordinates>
</Point>
</Placemark>
<Placemark>
<name>小吉野</name>
<description></description>
<Point>
<coordinates>133.8157501220703,33.660125732421875,0</coordinates>
</Point>
</Placemark>
<Placemark>
<name>吉野発電所前</name>
<description></description>
<Point>
<coordinates>133.81240844726562,33.65911865234375,0</coordinates>
</Point>
</Placemark>
<Placemark>
<name>吉野</name>
<description></description>
<Point>
<coordinates>133.80950927734375,33.65825653076172,0</coordinates>
</Point>
</Placemark>
<Placemark>
<name>青少年の家</name>
<description></description>
<Point>
<coordinates>133.80616760253906,33.65726852416992,0</coordinates>
</Point>
</Placemark>
<Placemark>
<name>朴ノ木口</name>
<description></description>
<Point>
<coordinates>133.8013458251953,33.65576934814453,0</coordinates>
</Point>
</Placemark>
<Placemark>
<name>竹屋敷</name>
<description></description>
<Point>
<coordinates>134.17715454101562,33.57568359375,0</coordinates>
</Point>
</Placemark>
<Placemark>
<name>尾河</name>
<description></description>
<Point>
<coordinates>134.1815948486328,33.54685974121094,0</coordinates>
</Point>
</Placemark>
<Placemark>
<name>菅ノ上</name>
<description></description>
<Point>
<coordinates>134.18023681640625,33.5296630859375,0</coordinates>
</Point>
</Placemark>
<Placemark>
<name>安倉</name>
<description></description>
<Point>
<coordinates>134.16683959960938,33.51127243041992,0</coordinates>
</Point>
</Placemark>
<Placemark>
<name>弘瀬</name>
<description></description>
<Point>
<coordinates>134.14675903320312,33.505859375,0</coordinates>
</Point>
</Placemark>
<Placemark>
<name>落合</name>
<description></description>
<Point>
<coordinates>134.13809204101562,33.51390075683594,0</coordinates>
</Point>
</Placemark>
<Placemark>
<name>奈半利駅</name>
<description></description>
<Point>
<coordinates>134.01766967773438,33.42544174194336,0</coordinates>
</Point>
</Placemark>
<Placemark>
<name>田野ふれあいセンター前</name>
<description></description>
<Point>
<coordinates>134.00747680664062,33.42827606201172,0</coordinates>
</Point>
</Placemark>
<Placemark>
<name>島</name>
<description></description>
<Point>
<coordinates>134.11805725097656,33.541015625,0</coordinates>
</Point>
</Placemark>
<Placemark>
<name>平鍋橋</name>
<description></description>
<Point>
<coordinates>134.12847900390625,33.5136604309082,0</coordinates>
</Point>
</Placemark>
<Placemark>
<name>平鍋郵便局前</name>
<description></description>
<Point>
<coordinates>134.1206817626953,33.512882232666016,0</coordinates>
</Point>
</Placemark>
<Placemark>
<name>城門ヶ段</name>
<description></description>
<Point>
<coordinates>134.11676025390625,33.50469970703125,0</coordinates>
</Point>
</Placemark>
<Placemark>
<name>長沢</name>
<description></description>
<Point>
<coordinates>134.10838317871094,33.50326156616211,0</coordinates>
</Point>
</Placemark>
<Placemark>
<name>小島</name>
<description></description>
<Point>
<coordinates>134.0998992919922,33.49766540527344,0</coordinates>
</Point>
</Placemark>
<Placemark>
<name>瀬詰</name>
<description></description>
<Point>
<coordinates>134.08798217773438,33.49081802368164,0</coordinates>
</Point>
</Placemark>
<Placemark>
<name>和田橋</name>
<description></description>
<Point>
<coordinates>134.0824737548828,33.4890251159668,0</coordinates>
</Point>
</Placemark>
<Placemark>
<name>青木</name>
<description></description>
<Point>
<coordinates>134.0789031982422,33.47991943359375,0</coordinates>
</Point>
</Placemark>
<Placemark>
<name>崎山</name>
<description></description>
<Point>
<coordinates>134.05850219726562,33.4704704284668,0</coordinates>
</Point>
</Placemark>
<Placemark>
<name>柏木</name>
<description></description>
<Point>
<coordinates>134.05677795410156,33.45676040649414,0</coordinates>
</Point>
</Placemark>
<Placemark>
<name>長山橋西詰</name>
<description></description>
<Point>
<coordinates>134.05015563964844,33.46229553222656,0</coordinates>
</Point>
</Placemark>
<Placemark>
<name>西谷口</name>
<description></description>
<Point>
<coordinates>134.04550170898438,33.46229553222656,0</coordinates>
</Point>
</Placemark>
<Placemark>
<name>加茂（久府付）</name>
<description></description>
<Point>
<coordinates>134.03758239746094,33.45328903198242,0</coordinates>
</Point>
</Placemark>
<Placemark>
<name>野友</name>
<description></description>
<Point>
<coordinates>134.04193115234375,33.44825744628906,0</coordinates>
</Point>
</Placemark>
<Placemark>
<name>モネの庭</name>
<description></description>
<Point>
<coordinates>134.0321502685547,33.440330505371094,0</coordinates>
</Point>
</Placemark>
<Placemark>
<name>車瀬出店</name>
<description></description>
<Point>
<coordinates>134.02821350097656,33.43726348876953,0</coordinates>
</Point>
</Placemark>
<Placemark>
<name>奈半利立町</name>
<description></description>
<Point>
<coordinates>134.02183532714844,33.42483139038086,0</coordinates>
</Point>
</Placemark>
<Placemark>
<name>久木分岐</name>
<description></description>
<Point>
<coordinates>134.1077117919922,33.57803726196289,0</coordinates>
</Point>
</Placemark>
<Placemark>
<name>久木</name>
<description></description>
<Point>
<coordinates>134.10618591308594,33.57678985595703,0</coordinates>
</Point>
</Placemark>
<Placemark>
<name>大谷口</name>
<description></description>
<Point>
<coordinates>134.11695861816406,33.572994232177734,0</coordinates>
</Point>
</Placemark>
<Placemark>
<name>憎津</name>
<description></description>
<Point>
<coordinates>134.1131134033203,33.567562103271484,0</coordinates>
</Point>
</Placemark>
<Placemark>
<name>久江の上</name>
<description></description>
<Point>
<coordinates>134.11471557617188,33.54648208618164,0</coordinates>
</Point>
</Placemark>
<Placemark>
<name>月谷口</name>
<description></description>
<Point>
<coordinates>134.1239013671875,33.53972244262695,0</coordinates>
</Point>
</Placemark>
<Placemark>
<name>堀ヶ生</name>
<description></description>
<Point>
<coordinates>134.1332550048828,33.528907775878906,0</coordinates>
</Point>
</Placemark>
<Placemark>
<name>二タ又</name>
<description></description>
<Point>
<coordinates>134.1348114013672,33.52039337158203,0</coordinates>
</Point>
</Placemark>
<Placemark>
<name>宗ノ上</name>
<description></description>
<Point>
<coordinates>134.05934143066406,33.4929313659668,0</coordinates>
</Point>
</Placemark>
<Placemark>
<name>木積</name>
<description></description>
<Point>
<coordinates>134.0487823486328,33.47885513305664,0</coordinates>
</Point>
</Placemark>
<Placemark>
<name>長山落合</name>
<description></description>
<Point>
<coordinates>134.03863525390625,33.475807189941406,0</coordinates>
</Point>
</Placemark>
<Placemark>
<name>コンゴーボー</name>
<description></description>
<Point>
<coordinates>134.039794921875,33.47272491455078,0</coordinates>
</Point>
</Placemark>
<Placemark>
<name>野川川内神社前</name>
<description></description>
<Point>
<coordinates>134.08250427246094,33.45285415649414,0</coordinates>
</Point>
</Placemark>
<Placemark>
<name>五人組</name>
<description></description>
<Point>
<coordinates>134.0793914794922,33.45243835449219,0</coordinates>
</Point>
</Placemark>
<Placemark>
<name>羽毛</name>
<description></description>
<Point>
<coordinates>134.07284545898438,33.446746826171875,0</coordinates>
</Point>
</Placemark>
<Placemark>
<name>野川公民館前</name>
<description></description>
<Point>
<coordinates>134.0631561279297,33.44397735595703,0</coordinates>
</Point>
</Placemark>
<Placemark>
<name>菖蒲</name>
<description></description>
<Point>
<coordinates>134.0506134033203,33.45016098022461,0</coordinates>
</Point>
</Placemark>
<Placemark>
<name>ヤハズ谷</name>
<description></description>
<Point>
<coordinates>134.1802978515625,33.516578674316406,0</coordinates>
</Point>
</Placemark>
<Placemark>
<name>菅ノ上小学校</name>
<description></description>
<Point>
<coordinates>134.17401123046875,33.515289306640625,0</coordinates>
</Point>
</Placemark>
<Placemark>
<name>安倉橋</name>
<description></description>
<Point>
<coordinates>134.16683959960938,33.51127243041992,0</coordinates>
</Point>
</Placemark>
<Placemark>
<name>安倉造林</name>
<description></description>
<Point>
<coordinates>134.16644287109375,33.505001068115234,0</coordinates>
</Point>
</Placemark>
<Placemark>
<name>蛇谷口</name>
<description></description>
<Point>
<coordinates>134.15606689453125,33.50242614746094,0</coordinates>
</Point>
</Placemark>
<Placemark>
<name>ごめん・なはり線和食駅</name>
<description></description>
<Point>
<coordinates>133.809326171875,33.51829147338867,0</coordinates>
</Point>
</Placemark>
<Placemark>
<name>郵便局前</name>
<description></description>
<Point>
<coordinates>133.8102569580078,33.51926040649414,0</coordinates>
</Point>
</Placemark>
<Placemark>
<name>JA土佐あき（わじき出張所）</name>
<description></description>
<Point>
<coordinates>133.81021118164062,33.52360916137695,0</coordinates>
</Point>
</Placemark>
<Placemark>
<name>中学校通</name>
<description></description>
<Point>
<coordinates>133.81036376953125,33.52488708496094,0</coordinates>
</Point>
</Placemark>
<Placemark>
<name>小学校通</name>
<description></description>
<Point>
<coordinates>133.8105926513672,33.526832580566406,0</coordinates>
</Point>
</Placemark>
<Placemark>
<name>馬ノ上ふれあいセンター前</name>
<description></description>
<Point>
<coordinates>133.8111114501953,33.532039642333984,0</coordinates>
</Point>
</Placemark>
<Placemark>
<name>ののじり</name>
<description></description>
<Point>
<coordinates>133.8151397705078,33.540802001953125,0</coordinates>
</Point>
</Placemark>
<Placemark>
<name>角石</name>
<description></description>
<Point>
<coordinates>133.8208465576172,33.55217742919922,0</coordinates>
</Point>
</Placemark>
<Placemark>
<name>堆肥センター前</name>
<description></description>
<Point>
<coordinates>133.82125854492188,33.553646087646484,0</coordinates>
</Point>
</Placemark>
<Placemark>
<name>馬床</name>
<description></description>
<Point>
<coordinates>133.82460021972656,33.55605697631836,0</coordinates>
</Point>
</Placemark>
<Placemark>
<name>神社前</name>
<description></description>
<Point>
<coordinates>133.83026123046875,33.562965393066406,0</coordinates>
</Point>
</Placemark>
<Placemark>
<name>チガヤ</name>
<description></description>
<Point>
<coordinates>133.8337860107422,33.563838958740234,0</coordinates>
</Point>
</Placemark>
<Placemark>
<name>久重三叉路</name>
<description></description>
<Point>
<coordinates>133.83485412597656,33.56846237182617,0</coordinates>
</Point>
</Placemark>
<Placemark>
<name>国光</name>
<description></description>
<Point>
<coordinates>133.83123779296875,33.57640075683594,0</coordinates>
</Point>
</Placemark>
<Placemark>
<name>中村橋</name>
<description></description>
<Point>
<coordinates>133.8109588623047,33.54200744628906,0</coordinates>
</Point>
</Placemark>
<Placemark>
<name>山の家</name>
<description></description>
<Point>
<coordinates>133.83953857421875,33.568111419677734,0</coordinates>
</Point>
</Placemark>
<Placemark>
<name>道家</name>
<description></description>
<Point>
<coordinates>133.82382202148438,33.572505950927734,0</coordinates>
</Point>
</Placemark>
<Placemark>
<name>すこやかセンター伊野</name>
<description></description>
<Point>
<coordinates>133.4324493408203,33.54642105102539,0</coordinates>
</Point>
</Placemark>
<Placemark>
<name>伊野小学校前</name>
<description></description>
<Point>
<coordinates>133.4255828857422,33.55072784423828,0</coordinates>
</Point>
</Placemark>
<Placemark>
<name>消防署前</name>
<description></description>
<Point>
<coordinates>133.4238739013672,33.55045700073242,0</coordinates>
</Point>
</Placemark>
<Placemark>
<name>大国さま前</name>
<description></description>
<Point>
<coordinates>133.4207763671875,33.549739837646484,0</coordinates>
</Point>
</Placemark>
<Placemark>
<name>公園町</name>
<description></description>
<Point>
<coordinates>133.42250061035156,33.54770278930664,0</coordinates>
</Point>
</Placemark>
<Placemark>
<name>伊野天神町</name>
<description></description>
<Point>
<coordinates>133.42552185058594,33.54669952392578,0</coordinates>
</Point>
</Placemark>
<Placemark>
<name>伊野駅前</name>
<description></description>
<Point>
<coordinates>133.4295196533203,33.54784393310547,0</coordinates>
</Point>
</Placemark>
<Placemark>
<name>伊野駅</name>
<description></description>
<Point>
<coordinates>133.4300537109375,33.54758071899414,0</coordinates>
</Point>
</Placemark>
<Placemark>
<name>仁淀病院前</name>
<description></description>
<Point>
<coordinates>133.43426513671875,33.54697799682617,0</coordinates>
</Point>
</Placemark>
<Placemark>
<name>伊野南墓地公園前</name>
<description></description>
<Point>
<coordinates>133.44300842285156,33.541202545166016,0</coordinates>
</Point>
</Placemark>
<Placemark>
<name>流田</name>
<description></description>
<Point>
<coordinates>133.44308471679688,33.53862762451172,0</coordinates>
</Point>
</Placemark>
<Placemark>
<name>柿又</name>
<description></description>
<Point>
<coordinates>133.44589233398438,33.53920364379883,0</coordinates>
</Point>
</Placemark>
<Placemark>
<name>池ノ内</name>
<description></description>
<Point>
<coordinates>133.447509765625,33.53799819946289,0</coordinates>
</Point>
</Placemark>
<Placemark>
<name>池ノ内分岐</name>
<description></description>
<Point>
<coordinates>133.4501190185547,33.53506088256836,0</coordinates>
</Point>
</Placemark>
<Placemark>
<name>天王ニュータウン東口</name>
<description></description>
<Point>
<coordinates>133.44992065429688,33.532135009765625,0</coordinates>
</Point>
</Placemark>
<Placemark>
<name>天王南8丁目</name>
<description></description>
<Point>
<coordinates>133.4508056640625,33.53059005737305,0</coordinates>
</Point>
</Placemark>
<Placemark>
<name>天王ニュータウン南</name>
<description></description>
<Point>
<coordinates>133.45115661621094,33.528526306152344,0</coordinates>
</Point>
</Placemark>
<Placemark>
<name>天王南3丁目</name>
<description></description>
<Point>
<coordinates>133.4487762451172,33.52886199951172,0</coordinates>
</Point>
</Placemark>
<Placemark>
<name>天王ニュータウン</name>
<description></description>
<Point>
<coordinates>133.4478302001953,33.53074645996094,0</coordinates>
</Point>
</Placemark>
<Placemark>
<name>天王ニュータウン西口</name>
<description></description>
<Point>
<coordinates>133.4435577392578,33.52875518798828,0</coordinates>
</Point>
</Placemark>
<Placemark>
<name>梅の木第二</name>
<description></description>
<Point>
<coordinates>133.4398956298828,33.52748107910156,0</coordinates>
</Point>
</Placemark>
<Placemark>
<name>大坪橋</name>
<description></description>
<Point>
<coordinates>133.43768310546875,33.52456283569336,0</coordinates>
</Point>
</Placemark>
<Placemark>
<name>大納</name>
<description></description>
<Point>
<coordinates>133.4357147216797,33.521697998046875,0</coordinates>
</Point>
</Placemark>
<Placemark>
<name>局前</name>
<description></description>
<Point>
<coordinates>133.4350128173828,33.52037811279297,0</coordinates>
</Point>
</Placemark>
<Placemark>
<name>八田</name>
<description></description>
<Point>
<coordinates>133.4332275390625,33.52059555053711,0</coordinates>
</Point>
</Placemark>
<Placemark>
<name>大元</name>
<description></description>
<Point>
<coordinates>133.42674255371094,33.5251579284668,0</coordinates>
</Point>
</Placemark>
<Placemark>
<name>南の谷</name>
<description></description>
<Point>
<coordinates>133.4274139404297,33.52932357788086,0</coordinates>
</Point>
</Placemark>
<Placemark>
<name>中の谷</name>
<description></description>
<Point>
<coordinates>133.4273681640625,33.53196334838867,0</coordinates>
</Point>
</Placemark>
<Placemark>
<name>小八十</name>
<description></description>
<Point>
<coordinates>133.42730712890625,33.53426742553711,0</coordinates>
</Point>
</Placemark>
<Placemark>
<name>大八十</name>
<description></description>
<Point>
<coordinates>133.42649841308594,33.536590576171875,0</coordinates>
</Point>
</Placemark>
<Placemark>
<name>天神</name>
<description></description>
<Point>
<coordinates>133.42501831054688,33.53828811645508,0</coordinates>
</Point>
</Placemark>
<Placemark>
<name>小鎌田</name>
<description></description>
<Point>
<coordinates>133.42198181152344,33.53990936279297,0</coordinates>
</Point>
</Placemark>
<Placemark>
<name>川内小学校前</name>
<description></description>
<Point>
<coordinates>133.41836547851562,33.542137145996094,0</coordinates>
</Point>
</Placemark>
<Placemark>
<name>尾山</name>
<description></description>
<Point>
<coordinates>133.4167938232422,33.54328155517578,0</coordinates>
</Point>
</Placemark>
<Placemark>
<name>波川分岐</name>
<description></description>
<Point>
<coordinates>133.41357421875,33.54772186279297,0</coordinates>
</Point>
</Placemark>
<Placemark>
<name>保養センター通</name>
<description></description>
<Point>
<coordinates>133.4147491455078,33.54841232299805,0</coordinates>
</Point>
</Placemark>
<Placemark>
<name>仁淀川橋東詰</name>
<description></description>
<Point>
<coordinates>133.4193115234375,33.55078887939453,0</coordinates>
</Point>
</Placemark>
<Placemark>
<name>大崎診療所</name>
<description></description>
<Point>
<coordinates>133.16990661621094,33.571964263916016,0</coordinates>
</Point>
</Placemark>
<Placemark>
<name>大崎駅</name>
<description></description>
<Point>
<coordinates>133.16827392578125,33.574703216552734,0</coordinates>
</Point>
</Placemark>
<Placemark>
<name>田村</name>
<description></description>
<Point>
<coordinates>133.16070556640625,33.59136199951172,0</coordinates>
</Point>
</Placemark>
<Placemark>
<name>支所前</name>
<description></description>
<Point>
<coordinates>133.17010498046875,33.608036041259766,0</coordinates>
</Point>
</Placemark>
<Placemark>
<name>酒井医院前</name>
<description></description>
<Point>
<coordinates>133.17193603515625,33.608638763427734,0</coordinates>
</Point>
</Placemark>
<Placemark>
<name>堀切</name>
<description></description>
<Point>
<coordinates>133.17320251464844,33.60916519165039,0</coordinates>
</Point>
</Placemark>
<Placemark>
<name>明戸岩橋</name>
<description></description>
<Point>
<coordinates>133.163818359375,33.631595611572266,0</coordinates>
</Point>
</Placemark>
<Placemark>
<name>大西</name>
<description></description>
<Point>
<coordinates>133.16188049316406,33.636112213134766,0</coordinates>
</Point>
</Placemark>
<Placemark>
<name>永代橋</name>
<description></description>
<Point>
<coordinates>133.14646911621094,33.640525817871094,0</coordinates>
</Point>
</Placemark>
<Placemark>
<name>用居郵便局前</name>
<description></description>
<Point>
<coordinates>133.12625122070312,33.640602111816406,0</coordinates>
</Point>
</Placemark>
<Placemark>
<name>ヲヲカゲ</name>
<description></description>
<Point>
<coordinates>133.0819549560547,33.63414001464844,0</coordinates>
</Point>
</Placemark>
<Placemark>
<name>瓜生野集落終点</name>
<description></description>
<Point>
<coordinates>133.08938598632812,33.64189910888672,0</coordinates>
</Point>
</Placemark>
<Placemark>
<name>桧谷集落終点</name>
<description></description>
<Point>
<coordinates>133.0966339111328,33.64401626586914,0</coordinates>
</Point>
</Placemark>
<Placemark>
<name>出丸終点</name>
<description></description>
<Point>
<coordinates>133.11679077148438,33.64054870605469,0</coordinates>
</Point>
</Placemark>
<Placemark>
<name>舟形川向橋</name>
<description></description>
<Point>
<coordinates>133.11048889160156,33.64431381225586,0</coordinates>
</Point>
</Placemark>
<Placemark>
<name>北谷終点</name>
<description></description>
<Point>
<coordinates>133.1275177001953,33.64628601074219,0</coordinates>
</Point>
</Placemark>
<Placemark>
<name>大野集会所</name>
<description></description>
<Point>
<coordinates>133.14404296875,33.64725875854492,0</coordinates>
</Point>
</Placemark>
<Placemark>
<name>椿山交流センター</name>
<description></description>
<Point>
<coordinates>133.1439208984375,33.67528533935547,0</coordinates>
</Point>
</Placemark>
<Placemark>
<name>池川大渡防火水槽</name>
<description></description>
<Point>
<coordinates>133.17030334472656,33.62603759765625,0</coordinates>
</Point>
</Placemark>
<Placemark>
<name>明戸岩集落終点</name>
<description></description>
<Point>
<coordinates>133.16867065429688,33.631011962890625,0</coordinates>
</Point>
</Placemark>
<Placemark>
<name>岩柄集会所</name>
<description></description>
<Point>
<coordinates>133.15985107421875,33.64816665649414,0</coordinates>
</Point>
</Placemark>
<Placemark>
<name>安部病院前</name>
<description></description>
<Point>
<coordinates>133.1740264892578,33.612552642822266,0</coordinates>
</Point>
</Placemark>
<Placemark>
<name>狩山口</name>
<description></description>
<Point>
<coordinates>133.18331909179688,33.61127853393555,0</coordinates>
</Point>
</Placemark>
<Placemark>
<name>成川余能橋</name>
<description></description>
<Point>
<coordinates>133.1940460205078,33.640464782714844,0</coordinates>
</Point>
</Placemark>
<Placemark>
<name>安居土居集落終点</name>
<description></description>
<Point>
<coordinates>133.20655822753906,33.634490966796875,0</coordinates>
</Point>
</Placemark>
<Placemark>
<name>成川</name>
<description></description>
<Point>
<coordinates>133.19456481933594,33.640499114990234,0</coordinates>
</Point>
</Placemark>
<Placemark>
<name>宮ノ下</name>
<description></description>
<Point>
<coordinates>133.1962890625,33.6453742980957,0</coordinates>
</Point>
</Placemark>
<Placemark>
<name>宮ヶ平</name>
<description></description>
<Point>
<coordinates>133.19577026367188,33.64935302734375,0</coordinates>
</Point>
</Placemark>
<Placemark>
<name>大屋集会所</name>
<description></description>
<Point>
<coordinates>133.19503784179688,33.6549072265625,0</coordinates>
</Point>
</Placemark>
<Placemark>
<name>樫山集会所</name>
<description></description>
<Point>
<coordinates>133.1827850341797,33.67354202270508,0</coordinates>
</Point>
</Placemark>
<Placemark>
<name>坪井川客天神社</name>
<description></description>
<Point>
<coordinates>133.20692443847656,33.64606857299805,0</coordinates>
</Point>
</Placemark>
<Placemark>
<name>入江谷　上</name>
<description></description>
<Point>
<coordinates>133.19468688964844,33.63322830200195,0</coordinates>
</Point>
</Placemark>
<Placemark>
<name>余能集会所</name>
<description></description>
<Point>
<coordinates>133.18545532226562,33.6312370300293,0</coordinates>
</Point>
</Placemark>
<Placemark>
<name>見ノ越</name>
<description></description>
<Point>
<coordinates>133.18565368652344,33.6103630065918,0</coordinates>
</Point>
</Placemark>
<Placemark>
<name>狩山集会所</name>
<description></description>
<Point>
<coordinates>133.19943237304688,33.614356994628906,0</coordinates>
</Point>
</Placemark>
<Placemark>
<name>大平本村</name>
<description></description>
<Point>
<coordinates>133.20338439941406,33.61858367919922,0</coordinates>
</Point>
</Placemark>
<Placemark>
<name>大平集会所</name>
<description></description>
<Point>
<coordinates>133.20835876464844,33.61960220336914,0</coordinates>
</Point>
</Placemark>
<Placemark>
<name>楮原集会所</name>
<description></description>
<Point>
<coordinates>133.2111053466797,33.61442565917969,0</coordinates>
</Point>
</Placemark>
<Placemark>
<name>カラグリ終点</name>
<description></description>
<Point>
<coordinates>133.21205139160156,33.61005783081055,0</coordinates>
</Point>
</Placemark>
<Placemark>
<name>長屋</name>
<description></description>
<Point>
<coordinates>133.16213989257812,33.59706115722656,0</coordinates>
</Point>
</Placemark>
<Placemark>
<name>北浦</name>
<description></description>
<Point>
<coordinates>133.1723175048828,33.60773468017578,0</coordinates>
</Point>
</Placemark>
<Placemark>
<name>西谷</name>
<description></description>
<Point>
<coordinates>133.15829467773438,33.60295486450195,0</coordinates>
</Point>
</Placemark>
<Placemark>
<name>自然学園</name>
<description></description>
<Point>
<coordinates>133.1561279296875,33.60945129394531,0</coordinates>
</Point>
</Placemark>
<Placemark>
<name>相ノ谷</name>
<description></description>
<Point>
<coordinates>133.15171813964844,33.60383605957031,0</coordinates>
</Point>
</Placemark>
<Placemark>
<name>石床橋</name>
<description></description>
<Point>
<coordinates>133.13865661621094,33.60136032104492,0</coordinates>
</Point>
</Placemark>
<Placemark>
<name>名野川</name>
<description></description>
<Point>
<coordinates>133.13214111328125,33.55785369873047,0</coordinates>
</Point>
</Placemark>
<Placemark>
<name>遅越</name>
<description></description>
<Point>
<coordinates>133.1431427001953,33.565250396728516,0</coordinates>
</Point>
</Placemark>
<Placemark>
<name>名野川大平</name>
<description></description>
<Point>
<coordinates>133.14151000976562,33.5610466003418,0</coordinates>
</Point>
</Placemark>
<Placemark>
<name>中</name>
<description></description>
<Point>
<coordinates>133.10939025878906,33.57243347167969,0</coordinates>
</Point>
</Placemark>
<Placemark>
<name>宗津</name>
<description></description>
<Point>
<coordinates>133.14292907714844,33.592063903808594,0</coordinates>
</Point>
</Placemark>
<Placemark>
<name>橘谷</name>
<description></description>
<Point>
<coordinates>133.15679931640625,33.57413864135742,0</coordinates>
</Point>
</Placemark>
<Placemark>
<name>潰溜</name>
<description></description>
<Point>
<coordinates>133.1166534423828,33.546356201171875,0</coordinates>
</Point>
</Placemark>
<Placemark>
<name>森山</name>
<description></description>
<Point>
<coordinates>133.10488891601562,33.54449462890625,0</coordinates>
</Point>
</Placemark>
<Placemark>
<name>大尾・上</name>
<description></description>
<Point>
<coordinates>133.0967559814453,33.546173095703125,0</coordinates>
</Point>
</Placemark>
<Placemark>
<name>鷲ノ巣</name>
<description></description>
<Point>
<coordinates>133.08241271972656,33.537696838378906,0</coordinates>
</Point>
</Placemark>
<Placemark>
<name>橘・上</name>
<description></description>
<Point>
<coordinates>133.0709228515625,33.548404693603516,0</coordinates>
</Point>
</Placemark>
<Placemark>
<name>峠ノ越</name>
<description></description>
<Point>
<coordinates>133.1236114501953,33.5482063293457,0</coordinates>
</Point>
</Placemark>
<Placemark>
<name>桜</name>
<description></description>
<Point>
<coordinates>133.1690216064453,33.591121673583984,0</coordinates>
</Point>
</Placemark>
<Placemark>
<name>鹿森</name>
<description></description>
<Point>
<coordinates>133.17373657226562,33.59626007080078,0</coordinates>
</Point>
</Placemark>
<Placemark>
<name>中村</name>
<description></description>
<Point>
<coordinates>133.18016052246094,33.58504104614258,0</coordinates>
</Point>
</Placemark>
<Placemark>
<name>蕨谷</name>
<description></description>
<Point>
<coordinates>133.18551635742188,33.57734298706055,0</coordinates>
</Point>
</Placemark>
<Placemark>
<name>西浦</name>
<description></description>
<Point>
<coordinates>133.18873596191406,33.575218200683594,0</coordinates>
</Point>
</Placemark>
<Placemark>
<name>寺村</name>
<description></description>
<Point>
<coordinates>133.1953887939453,33.57347869873047,0</coordinates>
</Point>
</Placemark>
<Placemark>
<name>寺村・上</name>
<description></description>
<Point>
<coordinates>133.1946563720703,33.57883834838867,0</coordinates>
</Point>
</Placemark>
<Placemark>
<name>岩戸</name>
<description></description>
<Point>
<coordinates>133.19815063476562,33.58376693725586,0</coordinates>
</Point>
</Placemark>
<Placemark>
<name>峯岩戸</name>
<description></description>
<Point>
<coordinates>133.2021484375,33.59202194213867,0</coordinates>
</Point>
</Placemark>
<Placemark>
<name>大板</name>
<description></description>
<Point>
<coordinates>133.2017364501953,33.57482147216797,0</coordinates>
</Point>
</Placemark>
<Placemark>
<name>加枝</name>
<description></description>
<Point>
<coordinates>133.1830596923828,33.5695915222168,0</coordinates>
</Point>
</Placemark>
<Placemark>
<name>久喜</name>
<description></description>
<Point>
<coordinates>133.16317749023438,33.56374740600586,0</coordinates>
</Point>
</Placemark>
<Placemark>
<name>上久喜</name>
<description></description>
<Point>
<coordinates>133.1552734375,33.552547454833984,0</coordinates>
</Point>
</Placemark>
<Placemark>
<name>柚ノ木谷</name>
<description></description>
<Point>
<coordinates>133.1464385986328,33.547969818115234,0</coordinates>
</Point>
</Placemark>
<Placemark>
<name>西村医院前</name>
<description></description>
<Point>
<coordinates>133.1293182373047,33.53513717651367,0</coordinates>
</Point>
</Placemark>
<Placemark>
<name>西谷口</name>
<description></description>
<Point>
<coordinates>133.12014770507812,33.5363883972168,0</coordinates>
</Point>
</Placemark>
<Placemark>
<name>大渡ダム</name>
<description></description>
<Point>
<coordinates>133.11724853515625,33.545963287353516,0</coordinates>
</Point>
</Placemark>
<Placemark>
<name>別枝大橋</name>
<description></description>
<Point>
<coordinates>133.06964111328125,33.53964614868164,0</coordinates>
</Point>
</Placemark>
<Placemark>
<name>岩屋</name>
<description></description>
<Point>
<coordinates>133.05921936035156,33.53642654418945,0</coordinates>
</Point>
</Placemark>
<Placemark>
<name>本村</name>
<description></description>
<Point>
<coordinates>133.05563354492188,33.53190994262695,0</coordinates>
</Point>
</Placemark>
<Placemark>
<name>霧之窪</name>
<description></description>
<Point>
<coordinates>133.05032348632812,33.527278900146484,0</coordinates>
</Point>
</Placemark>
<Placemark>
<name>芋生野集会所</name>
<description></description>
<Point>
<coordinates>133.0528106689453,33.5136604309082,0</coordinates>
</Point>
</Placemark>
<Placemark>
<name>都</name>
<description></description>
<Point>
<coordinates>133.0488739013672,33.500858306884766,0</coordinates>
</Point>
</Placemark>
<Placemark>
<name>別枝中村</name>
<description></description>
<Point>
<coordinates>133.04481506347656,33.506866455078125,0</coordinates>
</Point>
</Placemark>
<Placemark>
<name>沢渡農協前</name>
<description></description>
<Point>
<coordinates>133.07354736328125,33.538795471191406,0</coordinates>
</Point>
</Placemark>
<Placemark>
<name>大見槍集会所</name>
<description></description>
<Point>
<coordinates>133.0869598388672,33.53411102294922,0</coordinates>
</Point>
</Placemark>
<Placemark>
<name>道芝集会所</name>
<description></description>
<Point>
<coordinates>133.0779571533203,33.53230285644531,0</coordinates>
</Point>
</Placemark>
<Placemark>
<name>太田</name>
<description></description>
<Point>
<coordinates>133.07130432128906,33.527679443359375,0</coordinates>
</Point>
</Placemark>
<Placemark>
<name>中野</name>
<description></description>
<Point>
<coordinates>133.11151123046875,33.529544830322266,0</coordinates>
</Point>
</Placemark>
<Placemark>
<name>峰</name>
<description></description>
<Point>
<coordinates>133.11061096191406,33.528377532958984,0</coordinates>
</Point>
</Placemark>
<Placemark>
<name>桂</name>
<description></description>
<Point>
<coordinates>133.0986328125,33.53160095214844,0</coordinates>
</Point>
</Placemark>
<Placemark>
<name>高瀬本村</name>
<description></description>
<Point>
<coordinates>133.1006622314453,33.54213333129883,0</coordinates>
</Point>
</Placemark>
<Placemark>
<name>川渡</name>
<description></description>
<Point>
<coordinates>133.12969970703125,33.527584075927734,0</coordinates>
</Point>
</Placemark>
<Placemark>
<name>上川渡大師堂</name>
<description></description>
<Point>
<coordinates>133.1211700439453,33.524192810058594,0</coordinates>
</Point>
</Placemark>
<Placemark>
<name>戸立集会所</name>
<description></description>
<Point>
<coordinates>133.11817932128906,33.520503997802734,0</coordinates>
</Point>
</Placemark>
<Placemark>
<name>高杭</name>
<description></description>
<Point>
<coordinates>133.1355743408203,33.52572250366211,0</coordinates>
</Point>
</Placemark>
<Placemark>
<name>宮首</name>
<description></description>
<Point>
<coordinates>133.13609313964844,33.51464080810547,0</coordinates>
</Point>
</Placemark>
<Placemark>
<name>木半夏</name>
<description></description>
<Point>
<coordinates>133.14599609375,33.510555267333984,0</coordinates>
</Point>
</Placemark>
<Placemark>
<name>農協支所前</name>
<description></description>
<Point>
<coordinates>133.134521484375,33.50065612792969,0</coordinates>
</Point>
</Placemark>
<Placemark>
<name>東古城山</name>
<description></description>
<Point>
<coordinates>133.1360626220703,33.50062561035156,0</coordinates>
</Point>
</Placemark>
<Placemark>
<name>竹谷</name>
<description></description>
<Point>
<coordinates>133.1373291015625,33.50291061401367,0</coordinates>
</Point>
</Placemark>
<Placemark>
<name>寺野</name>
<description></description>
<Point>
<coordinates>133.13304138183594,33.49863815307617,0</coordinates>
</Point>
</Placemark>
<Placemark>
<name>下実間</name>
<description></description>
<Point>
<coordinates>133.1344451904297,33.521549224853516,0</coordinates>
</Point>
</Placemark>
<Placemark>
<name>上実間</name>
<description></description>
<Point>
<coordinates>133.1328582763672,33.515132904052734,0</coordinates>
</Point>
</Placemark>
<Placemark>
<name>中ノ瀬</name>
<description></description>
<Point>
<coordinates>133.13461303710938,33.509979248046875,0</coordinates>
</Point>
</Placemark>
<Placemark>
<name>上中瀬集会所</name>
<description></description>
<Point>
<coordinates>133.13328552246094,33.51102828979492,0</coordinates>
</Point>
</Placemark>
<Placemark>
<name>古田</name>
<description></description>
<Point>
<coordinates>133.1248321533203,33.51003646850586,0</coordinates>
</Point>
</Placemark>
<Placemark>
<name>長者</name>
<description></description>
<Point>
<coordinates>133.1314239501953,33.501502990722656,0</coordinates>
</Point>
</Placemark>
<Placemark>
<name>石井野口</name>
<description></description>
<Point>
<coordinates>133.12327575683594,33.49515914916992,0</coordinates>
</Point>
</Placemark>
<Placemark>
<name>石井野集落</name>
<description></description>
<Point>
<coordinates>133.11888122558594,33.49351501464844,0</coordinates>
</Point>
</Placemark>
<Placemark>
<name>形部</name>
<description></description>
<Point>
<coordinates>133.11428833007812,33.48794174194336,0</coordinates>
</Point>
</Placemark>
<Placemark>
<name>泉</name>
<description></description>
<Point>
<coordinates>133.10205078125,33.50100326538086,0</coordinates>
</Point>
</Placemark>
<Placemark>
<name>織合橋</name>
<description></description>
<Point>
<coordinates>133.1025390625,33.485294342041016,0</coordinates>
</Point>
</Placemark>
<Placemark>
<name>大植</name>
<description></description>
<Point>
<coordinates>133.0952606201172,33.481510162353516,0</coordinates>
</Point>
</Placemark>
<Placemark>
<name>瓜生野</name>
<description></description>
<Point>
<coordinates>133.08773803710938,33.6368522644043,0</coordinates>
</Point>
</Placemark>
<Placemark>
<name>折尾</name>
<description></description>
<Point>
<coordinates>133.09388732910156,33.63842010498047,0</coordinates>
</Point>
</Placemark>
<Placemark>
<name>桧谷</name>
<description></description>
<Point>
<coordinates>133.09791564941406,33.638099670410156,0</coordinates>
</Point>
</Placemark>
<Placemark>
<name>奥下田</name>
<description></description>
<Point>
<coordinates>133.10903930664062,33.63644027709961,0</coordinates>
</Point>
</Placemark>
<Placemark>
<name>舟形</name>
<description></description>
<Point>
<coordinates>133.1189727783203,33.63909149169922,0</coordinates>
</Point>
</Placemark>
<Placemark>
<name>出丸</name>
<description></description>
<Point>
<coordinates>133.11895751953125,33.64010238647461,0</coordinates>
</Point>
</Placemark>
<Placemark>
<name>宮向</name>
<description></description>
<Point>
<coordinates>133.12271118164062,33.64117431640625,0</coordinates>
</Point>
</Placemark>
<Placemark>
<name>用居</name>
<description></description>
<Point>
<coordinates>133.12625122070312,33.640602111816406,0</coordinates>
</Point>
</Placemark>
<Placemark>
<name>猪ノ谷</name>
<description></description>
<Point>
<coordinates>133.13047790527344,33.64005661010742,0</coordinates>
</Point>
</Placemark>
<Placemark>
<name>永代</name>
<description></description>
<Point>
<coordinates>133.14646911621094,33.640525817871094,0</coordinates>
</Point>
</Placemark>