<?xml version="1.0" encoding="UTF-8" ?>
<gpx xmlns="http://www.topografix.com/GPX/1/1" version="1.1" creator="osmtracker-android" xmlns:xsi="http://www.w3.org/2001/XMLSchema-instance" xsi:schemaLocation="http://www.topografix.com/GPX/1/1 http://www.topografix.com/GPX/1/1/gpx.xsd ">
<metadata>
<name><![CDATA[バス停 : 埼玉]]></name>
<desc><![CDATA[国土数値情報に基づく]]></desc>
</metadata>
<wpt lat="35.9884147644043" lon="138.97291564941406">
 <time>2015-12-06T02:24:46ZZ</time>
 <name><![CDATA[六葉]]></name>
</wpt>

<wpt lat="35.95186996459961" lon="138.9296875">
 <time>2015-12-06T02:24:46ZZ</time>
 <name><![CDATA[大滝老人福祉センター]]></name>
</wpt>

<wpt lat="35.796024322509766" lon="139.36228942871094">
 <time>2015-12-06T02:24:46ZZ</time>
 <name><![CDATA[JA二本木支店前]]></name>
</wpt>

<wpt lat="35.81203079223633" lon="139.33062744140625">
 <time>2015-12-06T02:24:46ZZ</time>
 <name><![CDATA[金子駅入口]]></name>
</wpt>

<wpt lat="35.78118896484375" lon="139.43087768554688">
 <time>2015-12-06T02:24:46ZZ</time>
 <name><![CDATA[図書館前]]></name>
</wpt>

<wpt lat="35.78997802734375" lon="139.4096221923828">
 <time>2015-12-06T02:24:46ZZ</time>
 <name><![CDATA[大日堂]]></name>
</wpt>

<wpt lat="35.79035186767578" lon="139.41873168945312">
 <time>2015-12-06T02:24:46ZZ</time>
 <name><![CDATA[北野総合運動場前]]></name>
</wpt>

<wpt lat="35.79370880126953" lon="139.418701171875">
 <time>2015-12-06T02:24:46ZZ</time>
 <name><![CDATA[平沢記念病院]]></name>
</wpt>

<wpt lat="35.79082489013672" lon="139.40097045898438">
 <time>2015-12-06T02:24:46ZZ</time>
 <name><![CDATA[JA三ヶ島支店]]></name>
</wpt>

<wpt lat="35.79365921020508" lon="139.40419006347656">
 <time>2015-12-06T02:24:46ZZ</time>
 <name><![CDATA[三ヶ島小学校]]></name>
</wpt>

<wpt lat="35.80398941040039" lon="139.40110778808594">
 <time>2015-12-06T02:24:46ZZ</time>
 <name><![CDATA[林小学校]]></name>
</wpt>

<wpt lat="35.80621337890625" lon="139.40452575683594">
 <time>2015-12-06T02:24:46ZZ</time>
 <name><![CDATA[十三区集会所前]]></name>
</wpt>

<wpt lat="35.8056755065918" lon="139.41397094726562">
 <time>2015-12-06T02:24:46ZZ</time>
 <name><![CDATA[若狭]]></name>
</wpt>

<wpt lat="35.7973747253418" lon="139.4207763671875">
 <time>2015-12-06T02:24:46ZZ</time>
 <name><![CDATA[所沢ロイヤル病院前]]></name>
</wpt>

<wpt lat="35.7833137512207" lon="139.49949645996094">
 <time>2015-12-06T02:24:46ZZ</time>
 <name><![CDATA[殖産住宅入口]]></name>
</wpt>

<wpt lat="35.7852897644043" lon="139.50482177734375">
 <time>2015-12-06T02:24:46ZZ</time>
 <name><![CDATA[下安松下通り]]></name>
</wpt>

<wpt lat="35.78901672363281" lon="139.50741577148438">
 <time>2015-12-06T02:24:46ZZ</time>
 <name><![CDATA[和田西]]></name>
</wpt>

<wpt lat="35.79041290283203" lon="139.51075744628906">
 <time>2015-12-06T02:24:46ZZ</time>
 <name><![CDATA[和田南会館]]></name>
</wpt>

<wpt lat="35.79107666015625" lon="139.51400756835938">
 <time>2015-12-06T02:24:46ZZ</time>
 <name><![CDATA[和田東]]></name>
</wpt>

<wpt lat="35.78612518310547" lon="139.50759887695312">
 <time>2015-12-06T02:24:46ZZ</time>
 <name><![CDATA[下河原]]></name>
</wpt>

<wpt lat="35.79409408569336" lon="139.50457763671875">
 <time>2015-12-06T02:24:46ZZ</time>
 <name><![CDATA[東所沢保育園]]></name>
</wpt>

<wpt lat="35.78095245361328" lon="139.42774963378906">
 <time>2015-12-06T02:24:46ZZ</time>
 <name><![CDATA[椿峰小学校入口]]></name>
</wpt>

<wpt lat="35.76944351196289" lon="139.41844177246094">
 <time>2015-12-06T02:24:46ZZ</time>
 <name><![CDATA[西武球場前]]></name>
</wpt>

<wpt lat="35.789939880371094" lon="139.40557861328125">
 <time>2015-12-06T02:24:46ZZ</time>
 <name><![CDATA[芸術総合高校]]></name>
</wpt>

<wpt lat="35.78962326049805" lon="139.41629028320312">
 <time>2015-12-06T02:24:46ZZ</time>
 <name><![CDATA[狭山湖口]]></name>
</wpt>

<wpt lat="35.78085708618164" lon="139.43431091308594">
 <time>2015-12-06T02:24:46ZZ</time>
 <name><![CDATA[椿峰中央]]></name>
</wpt>

<wpt lat="35.782936096191406" lon="139.43556213378906">
 <time>2015-12-06T02:24:46ZZ</time>
 <name><![CDATA[中央公園]]></name>
</wpt>

<wpt lat="35.79024887084961" lon="139.43959045410156">
 <time>2015-12-06T02:24:46ZZ</time>
 <name><![CDATA[小手指南]]></name>
</wpt>

<wpt lat="35.7912483215332" lon="139.4437713623047">
 <time>2015-12-06T02:24:46ZZ</time>
 <name><![CDATA[大六天]]></name>
</wpt>

<wpt lat="35.792076110839844" lon="139.44808959960938">
 <time>2015-12-06T02:24:46ZZ</time>
 <name><![CDATA[上新井]]></name>
</wpt>

<wpt lat="35.790931701660156" lon="139.45262145996094">
 <time>2015-12-06T02:24:46ZZ</time>
 <name><![CDATA[六所神社入口]]></name>
</wpt>

<wpt lat="35.79130554199219" lon="139.46096801757812">
 <time>2015-12-06T02:24:46ZZ</time>
 <name><![CDATA[金山町二丁目]]></name>
</wpt>

<wpt lat="35.79158020019531" lon="139.46270751953125">
 <time>2015-12-06T02:24:46ZZ</time>
 <name><![CDATA[金山町五丁目]]></name>
</wpt>

<wpt lat="35.780765533447266" lon="139.4721221923828">
 <time>2015-12-06T02:24:46ZZ</time>
 <name><![CDATA[吾妻]]></name>
</wpt>

<wpt lat="35.78194046020508" lon="139.47763061523438">
 <time>2015-12-06T02:24:46ZZ</time>
 <name><![CDATA[北秋津]]></name>
</wpt>

<wpt lat="35.78742599487305" lon="139.47998046875">
 <time>2015-12-06T02:24:46ZZ</time>
 <name><![CDATA[茨原前]]></name>
</wpt>

<wpt lat="35.78919982910156" lon="139.47076416015625">
 <time>2015-12-06T02:24:46ZZ</time>
 <name><![CDATA[日吉町]]></name>
</wpt>

<wpt lat="35.79084777832031" lon="139.46986389160156">
 <time>2015-12-06T02:24:46ZZ</time>
 <name><![CDATA[東町]]></name>
</wpt>

<wpt lat="35.79182052612305" lon="139.4750518798828">
 <time>2015-12-06T02:24:46ZZ</time>
 <name><![CDATA[旭町]]></name>
</wpt>

<wpt lat="35.79185485839844" lon="139.4784393310547">
 <time>2015-12-06T02:24:46ZZ</time>
 <name><![CDATA[市民医療センター]]></name>
</wpt>

<wpt lat="35.7903938293457" lon="139.48326110839844">
 <time>2015-12-06T02:24:46ZZ</time>
 <name><![CDATA[市営住宅前]]></name>
</wpt>

<wpt lat="35.79435348510742" lon="139.47828674316406">
 <time>2015-12-06T02:24:46ZZ</time>
 <name><![CDATA[東新井町]]></name>
</wpt>

<wpt lat="35.786712646484375" lon="139.47274780273438">
 <time>2015-12-06T02:24:46ZZ</time>
 <name><![CDATA[所沢駅西口]]></name>
</wpt>

<wpt lat="35.79086685180664" lon="139.4571990966797">
 <time>2015-12-06T02:24:46ZZ</time>
 <name><![CDATA[西所沢駅入口]]></name>
</wpt>

<wpt lat="35.79148864746094" lon="139.46571350097656">
 <time>2015-12-06T02:24:46ZZ</time>
 <name><![CDATA[銀座二丁目]]></name>
</wpt>

<wpt lat="35.79127502441406" lon="139.4680633544922">
 <time>2015-12-06T02:24:46ZZ</time>
 <name><![CDATA[銀座三丁目]]></name>
</wpt>

<wpt lat="35.791603088378906" lon="139.4645538330078">
 <time>2015-12-06T02:24:46ZZ</time>
 <name><![CDATA[中央公民館]]></name>
</wpt>

<wpt lat="35.784019470214844" lon="139.47784423828125">
 <time>2015-12-06T02:24:46ZZ</time>
 <name><![CDATA[北秋津小学校入口]]></name>
</wpt>

<wpt lat="35.790130615234375" lon="139.4861602783203">
 <time>2015-12-06T02:24:46ZZ</time>
 <name><![CDATA[西武秋津団地]]></name>
</wpt>

<wpt lat="35.791786193847656" lon="139.48097229003906">
 <time>2015-12-06T02:24:46ZZ</time>
 <name><![CDATA[保健センター]]></name>
</wpt>

<wpt lat="35.783843994140625" lon="139.47216796875">
 <time>2015-12-06T02:24:46ZZ</time>
 <name><![CDATA[東住吉]]></name>
</wpt>

<wpt lat="35.77824020385742" lon="139.4719696044922">
 <time>2015-12-06T02:24:46ZZ</time>
 <name><![CDATA[久米境]]></name>
</wpt>

<wpt lat="35.77848434448242" lon="139.46934509277344">
 <time>2015-12-06T02:24:46ZZ</time>
 <name><![CDATA[勢揃橋北]]></name>
</wpt>

<wpt lat="35.77906036376953" lon="139.46609497070312">
 <time>2015-12-06T02:24:46ZZ</time>
 <name><![CDATA[JA吾妻支店前]]></name>
</wpt>

<wpt lat="35.78162384033203" lon="139.46078491210938">
 <time>2015-12-06T02:24:46ZZ</time>
 <name><![CDATA[じゅうにん坂]]></name>
</wpt>

<wpt lat="35.78053665161133" lon="139.45870971679688">
 <time>2015-12-06T02:24:46ZZ</time>
 <name><![CDATA[北久米]]></name>
</wpt>

<wpt lat="35.77901840209961" lon="139.45526123046875">
 <time>2015-12-06T02:24:46ZZ</time>
 <name><![CDATA[吾妻公民館]]></name>
</wpt>

<wpt lat="35.780086517333984" lon="139.4407958984375">
 <time>2015-12-06T02:24:46ZZ</time>
 <name><![CDATA[下山口駅入口]]></name>
</wpt>

<wpt lat="35.77836990356445" lon="139.43551635742188">
 <time>2015-12-06T02:24:46ZZ</time>
 <name><![CDATA[山口城跡]]></name>
</wpt>

<wpt lat="35.787471771240234" lon="139.4894561767578">
 <time>2015-12-06T02:24:46ZZ</time>
 <name><![CDATA[篠山公園]]></name>
</wpt>

<wpt lat="35.785030364990234" lon="139.49021911621094">
 <time>2015-12-06T02:24:46ZZ</time>
 <name><![CDATA[稲荷町]]></name>
</wpt>

<wpt lat="35.78220748901367" lon="139.49411010742188">
 <time>2015-12-06T02:24:46ZZ</time>
 <name><![CDATA[松戸橋]]></name>
</wpt>

<wpt lat="35.7830924987793" lon="139.49142456054688">
 <time>2015-12-06T02:24:46ZZ</time>
 <name><![CDATA[七曲り]]></name>
</wpt>

<wpt lat="35.78430938720703" lon="139.43955993652344">
 <time>2015-12-06T02:24:46ZZ</time>
 <name><![CDATA[山口公民館]]></name>
</wpt>

<wpt lat="35.7697868347168" lon="139.43829345703125">
 <time>2015-12-06T02:24:46ZZ</time>
 <name><![CDATA[遊園地西駅]]></name>
</wpt>

<wpt lat="35.77670669555664" lon="139.4352569580078">
 <time>2015-12-06T02:24:46ZZ</time>
 <name><![CDATA[山口民俗資料館]]></name>
</wpt>

<wpt lat="35.7802619934082" lon="139.46380615234375">
 <time>2015-12-06T02:24:46ZZ</time>
 <name><![CDATA[南陵中学校下]]></name>
</wpt>

<wpt lat="35.77047348022461" lon="139.45111083984375">
 <time>2015-12-06T02:24:46ZZ</time>
 <name><![CDATA[競輪場入口]]></name>
</wpt>

<wpt lat="35.78791809082031" lon="139.43951416015625">
 <time>2015-12-06T02:24:46ZZ</time>
 <name><![CDATA[桜田]]></name>
</wpt>

<wpt lat="35.77590560913086" lon="139.45265197753906">
 <time>2015-12-06T02:24:46ZZ</time>
 <name><![CDATA[光蔵寺]]></name>
</wpt>

<wpt lat="35.78691482543945" lon="139.47445678710938">
 <time>2015-12-06T02:24:46ZZ</time>
 <name><![CDATA[所沢駅東口]]></name>
</wpt>

<wpt lat="35.79597854614258" lon="139.40635681152344">
 <time>2015-12-06T02:24:46ZZ</time>
 <name><![CDATA[三ヶ島中学校]]></name>
</wpt>

<wpt lat="35.80726623535156" lon="139.4154052734375">
 <time>2015-12-06T02:24:46ZZ</time>
 <name><![CDATA[和ヶ原入口]]></name>
</wpt>

<wpt lat="35.80177307128906" lon="139.42047119140625">
 <time>2015-12-06T02:24:46ZZ</time>
 <name><![CDATA[所沢グリーンヒル]]></name>
</wpt>

<wpt lat="35.80268859863281" lon="139.42420959472656">
 <time>2015-12-06T02:24:46ZZ</time>
 <name><![CDATA[西埼玉中央病院]]></name>
</wpt>

<wpt lat="35.798030853271484" lon="139.42388916015625">
 <time>2015-12-06T02:24:46ZZ</time>
 <name><![CDATA[誓詞橋]]></name>
</wpt>

<wpt lat="35.79601287841797" lon="139.4324188232422">
 <time>2015-12-06T02:24:46ZZ</time>
 <name><![CDATA[小手指会館]]></name>
</wpt>

<wpt lat="35.80988693237305" lon="139.4164581298828">
 <time>2015-12-06T02:24:46ZZ</time>
 <name><![CDATA[狭山ヶ丘駅]]></name>
</wpt>

<wpt lat="35.79706954956055" lon="139.42784118652344">
 <time>2015-12-06T02:24:46ZZ</time>
 <name><![CDATA[こてさし荘]]></name>
</wpt>

<wpt lat="35.79618835449219" lon="139.39772033691406">
 <time>2015-12-06T02:24:46ZZ</time>
 <name><![CDATA[三ヶ島保育園]]></name>
</wpt>

<wpt lat="35.80101776123047" lon="139.39622497558594">
 <time>2015-12-06T02:24:46ZZ</time>
 <name><![CDATA[林]]></name>
</wpt>

<wpt lat="35.798316955566406" lon="139.40390014648438">
 <time>2015-12-06T02:24:46ZZ</time>
 <name><![CDATA[三ヶ島公民館]]></name>
</wpt>

<wpt lat="35.81031036376953" lon="139.41099548339844">
 <time>2015-12-06T02:24:46ZZ</time>
 <name><![CDATA[狭山ヶ丘二丁目]]></name>
</wpt>

<wpt lat="35.80875778198242" lon="139.40805053710938">
 <time>2015-12-06T02:24:46ZZ</time>
 <name><![CDATA[和ヶ原二丁目]]></name>
</wpt>

<wpt lat="35.7964973449707" lon="139.43548583984375">
 <time>2015-12-06T02:24:46ZZ</time>
 <name><![CDATA[小手指町四]]></name>
</wpt>

<wpt lat="35.80068588256836" lon="139.47096252441406">
 <time>2015-12-06T02:24:46ZZ</time>
 <name><![CDATA[パークタウン所沢警察署前]]></name>
</wpt>

<wpt lat="35.800010681152344" lon="139.46823120117188">
 <time>2015-12-06T02:24:46ZZ</time>
 <name><![CDATA[所沢市役所]]></name>
</wpt>

<wpt lat="35.802330017089844" lon="139.48007202148438">
 <time>2015-12-06T02:24:46ZZ</time>
 <name><![CDATA[秩父学園入口]]></name>
</wpt>

<wpt lat="35.80052947998047" lon="139.4373779296875">
 <time>2015-12-06T02:24:46ZZ</time>
 <name><![CDATA[小手指駅南口]]></name>
</wpt>

<wpt lat="35.7985954284668" lon="139.466064453125">
 <time>2015-12-06T02:24:46ZZ</time>
 <name><![CDATA[航空公園駅]]></name>
</wpt>

<wpt lat="35.79541778564453" lon="139.4746551513672">
 <time>2015-12-06T02:24:46ZZ</time>
 <name><![CDATA[航空公園南]]></name>
</wpt>

<wpt lat="35.80138397216797" lon="139.47496032714844">
 <time>2015-12-06T02:24:46ZZ</time>
 <name><![CDATA[文化センターミューズ航空公園南]]></name>
</wpt>

<wpt lat="35.79598617553711" lon="139.47071838378906">
 <time>2015-12-06T02:24:46ZZ</time>
 <name><![CDATA[公園通り]]></name>
</wpt>

<wpt lat="35.809654235839844" lon="139.37939453125">
 <time>2015-12-06T02:24:46ZZ</time>
 <name><![CDATA[三井アウトレットパーク]]></name>
</wpt>

<wpt lat="35.799129486083984" lon="139.4806365966797">
 <time>2015-12-06T02:24:46ZZ</time>
 <name><![CDATA[こぶし町西]]></name>
</wpt>

<wpt lat="35.80011749267578" lon="139.48394775390625">
 <time>2015-12-06T02:24:46ZZ</time>
 <name><![CDATA[こぶし町中央]]></name>
</wpt>

<wpt lat="35.8000602722168" lon="139.48809814453125">
 <time>2015-12-06T02:24:46ZZ</time>
 <name><![CDATA[こぶし町東]]></name>
</wpt>

<wpt lat="35.791629791259766" lon="139.4010467529297">
 <time>2015-12-06T02:24:46ZZ</time>
 <name><![CDATA[JA三ヶ島支店北]]></name>
</wpt>

<wpt lat="35.7900505065918" lon="139.39752197265625">
 <time>2015-12-06T02:24:46ZZ</time>
 <name><![CDATA[三ヶ島五丁目]]></name>
</wpt>

<wpt lat="35.77887725830078" lon="139.4520721435547">
 <time>2015-12-06T02:24:46ZZ</time>
 <name><![CDATA[荒幡]]></name>
</wpt>

<wpt lat="35.79931640625" lon="139.49095153808594">
 <time>2015-12-06T02:24:46ZZ</time>
 <name><![CDATA[松井保育園]]></name>
</wpt>

<wpt lat="35.79719924926758" lon="139.4927520751953">
 <time>2015-12-06T02:24:46ZZ</time>
 <name><![CDATA[あけぼの橋北]]></name>
</wpt>

<wpt lat="35.802528381347656" lon="139.4144744873047">
 <time>2015-12-06T02:24:46ZZ</time>
 <name><![CDATA[若狭四丁目]]></name>
</wpt>

<wpt lat="35.78287887573242" lon="139.55435180664062">
 <time>2015-12-06T02:24:46ZZ</time>
 <name><![CDATA[新座営業所]]></name>
</wpt>

<wpt lat="35.7841911315918" lon="139.55543518066406">
 <time>2015-12-06T02:24:46ZZ</time>
 <name><![CDATA[新座総合体育館入口]]></name>
</wpt>

<wpt lat="35.77370071411133" lon="139.6164093017578">
 <time>2015-12-06T02:24:46ZZ</time>
 <name><![CDATA[団地西口]]></name>
</wpt>

<wpt lat="35.77256774902344" lon="139.613037109375">
 <time>2015-12-06T02:24:46ZZ</time>
 <name><![CDATA[南大和]]></name>
</wpt>

<wpt lat="35.775691986083984" lon="139.60824584960938">
 <time>2015-12-06T02:24:46ZZ</time>
 <name><![CDATA[税務大学正門]]></name>
</wpt>

<wpt lat="35.775028228759766" lon="139.61328125">
 <time>2015-12-06T02:24:46ZZ</time>
 <name><![CDATA[南公民館]]></name>
</wpt>

<wpt lat="35.77528762817383" lon="139.61500549316406">
 <time>2015-12-06T02:24:46ZZ</time>
 <name><![CDATA[諏訪原]]></name>
</wpt>

<wpt lat="35.776371002197266" lon="139.61598205566406">
 <time>2015-12-06T02:24:46ZZ</time>
 <name><![CDATA[諏訪原住宅]]></name>
</wpt>

<wpt lat="35.778465270996094" lon="139.60643005371094">
 <time>2015-12-06T02:24:46ZZ</time>
 <name><![CDATA[西大和団地]]></name>
</wpt>

<wpt lat="35.77979278564453" lon="139.60794067382812">
 <time>2015-12-06T02:24:46ZZ</time>
 <name><![CDATA[団地センター前]]></name>
</wpt>

<wpt lat="35.78656768798828" lon="139.6097869873047">
 <time>2015-12-06T02:24:46ZZ</time>
 <name><![CDATA[和光郵便局]]></name>
</wpt>

<wpt lat="35.79202651977539" lon="139.6166534423828">
 <time>2015-12-06T02:24:46ZZ</time>
 <name><![CDATA[漆台]]></name>
</wpt>

<wpt lat="35.77842330932617" lon="139.62107849121094">
 <time>2015-12-06T02:24:46ZZ</time>
 <name><![CDATA[新道坂上]]></name>
</wpt>

<wpt lat="35.77702713012695" lon="139.61776733398438">
 <time>2015-12-06T02:24:46ZZ</time>
 <name><![CDATA[埼玉病院]]></name>
</wpt>

<wpt lat="35.776145935058594" lon="139.5856475830078">
 <time>2015-12-06T02:24:46ZZ</time>
 <name><![CDATA[都民農園セコニック]]></name>
</wpt>

<wpt lat="35.78160858154297" lon="139.60877990722656">
 <time>2015-12-06T02:24:46ZZ</time>
 <name><![CDATA[和光第二中学校]]></name>
</wpt>

<wpt lat="35.77749252319336" lon="139.58641052246094">
 <time>2015-12-06T02:24:46ZZ</time>
 <name><![CDATA[新座総合技術高校]]></name>
</wpt>

<wpt lat="35.776798248291016" lon="139.57757568359375">
 <time>2015-12-06T02:24:46ZZ</time>
 <name><![CDATA[新座栄]]></name>
</wpt>

<wpt lat="35.79371643066406" lon="139.61961364746094">
 <time>2015-12-06T02:24:46ZZ</time>
 <name><![CDATA[新倉小学校前]]></name>
</wpt>

<wpt lat="35.78870391845703" lon="139.61282348632812">
 <time>2015-12-06T02:24:46ZZ</time>
 <name><![CDATA[和光市駅北口]]></name>
</wpt>

<wpt lat="35.78832244873047" lon="139.6125946044922">
 <time>2015-12-06T02:24:46ZZ</time>
 <name><![CDATA[和光市駅南口]]></name>
</wpt>

<wpt lat="35.77276611328125" lon="139.6028289794922">
 <time>2015-12-06T02:24:46ZZ</time>
 <name><![CDATA[司法研修所]]></name>
</wpt>

<wpt lat="35.777626037597656" lon="139.6179656982422">
 <time>2015-12-06T02:24:46ZZ</time>
 <name><![CDATA[埼玉病院入口]]></name>
</wpt>

<wpt lat="35.77730178833008" lon="139.6064910888672">
 <time>2015-12-06T02:24:46ZZ</time>
 <name><![CDATA[和光市総合体育館]]></name>
</wpt>

<wpt lat="35.78443908691406" lon="139.6092987060547">
 <time>2015-12-06T02:24:46ZZ</time>
 <name><![CDATA[中央公民館入口]]></name>
</wpt>

<wpt lat="35.795013427734375" lon="139.51406860351562">
 <time>2015-12-06T02:24:46ZZ</time>
 <name><![CDATA[東所沢駅]]></name>
</wpt>

<wpt lat="35.803401947021484" lon="139.55706787109375">
 <time>2015-12-06T02:24:46ZZ</time>
 <name><![CDATA[新座駅南口]]></name>
</wpt>

<wpt lat="35.795677185058594" lon="139.50909423828125">
 <time>2015-12-06T02:24:46ZZ</time>
 <name><![CDATA[東所沢中央]]></name>
</wpt>

<wpt lat="35.81827926635742" lon="139.5604705810547">
 <time>2015-12-06T02:24:46ZZ</time>
 <name><![CDATA[富士見ヶ丘]]></name>
</wpt>

<wpt lat="35.814910888671875" lon="139.58729553222656">
 <time>2015-12-06T02:24:46ZZ</time>
 <name><![CDATA[北朝霞駅]]></name>
</wpt>

<wpt lat="35.79676818847656" lon="139.59945678710938">
 <time>2015-12-06T02:24:46ZZ</time>
 <name><![CDATA[朝霞駅南口]]></name>
</wpt>

<wpt lat="35.81684112548828" lon="139.59878540039062">
 <time>2015-12-06T02:24:46ZZ</time>
 <name><![CDATA[わくわくどーむ]]></name>
</wpt>

<wpt lat="35.769283294677734" lon="139.6213836669922">
 <time>2015-12-06T02:24:46ZZ</time>
 <name><![CDATA[白子向山]]></name>
</wpt>

<wpt lat="35.797061920166016" lon="139.50094604492188">
 <time>2015-12-06T02:24:46ZZ</time>
 <name><![CDATA[亀鶴園南]]></name>
</wpt>

<wpt lat="35.78489303588867" lon="139.6274871826172">
 <time>2015-12-06T02:24:46ZZ</time>
 <name><![CDATA[市場]]></name>
</wpt>

<wpt lat="35.787723541259766" lon="139.62620544433594">
 <time>2015-12-06T02:24:46ZZ</time>
 <name><![CDATA[宮本]]></name>
</wpt>

<wpt lat="35.791446685791016" lon="139.63079833984375">
 <time>2015-12-06T02:24:46ZZ</time>
 <name><![CDATA[東本村]]></name>
</wpt>

<wpt lat="35.794349670410156" lon="139.62701416015625">
 <time>2015-12-06T02:24:46ZZ</time>
 <name><![CDATA[金泉寺前]]></name>
</wpt>

<wpt lat="35.79363250732422" lon="139.63084411621094">
 <time>2015-12-06T02:24:46ZZ</time>
 <name><![CDATA[長島]]></name>
</wpt>

<wpt lat="35.772430419921875" lon="139.62478637695312">
 <time>2015-12-06T02:24:46ZZ</time>
 <name><![CDATA[牛房]]></name>
</wpt>

<wpt lat="35.7879753112793" lon="139.6295623779297">
 <time>2015-12-06T02:24:46ZZ</time>
 <name><![CDATA[第四保育園入口]]></name>
</wpt>

<wpt lat="35.792823791503906" lon="139.6337432861328">
 <time>2015-12-06T02:24:46ZZ</time>
 <name><![CDATA[楢の下]]></name>
</wpt>

<wpt lat="35.791221618652344" lon="139.6351776123047">
 <time>2015-12-06T02:24:46ZZ</time>
 <name><![CDATA[吹上]]></name>
</wpt>

<wpt lat="35.786407470703125" lon="139.62835693359375">
 <time>2015-12-06T02:24:46ZZ</time>
 <name><![CDATA[南市場]]></name>
</wpt>

<wpt lat="35.789005279541016" lon="139.6305694580078">
 <time>2015-12-06T02:24:46ZZ</time>
 <name><![CDATA[稲荷神社下]]></name>
</wpt>

<wpt lat="35.79079055786133" lon="139.6343231201172">
 <time>2015-12-06T02:24:46ZZ</time>
 <name><![CDATA[吹上観音下]]></name>
</wpt>

<wpt lat="35.7901725769043" lon="139.74423217773438">
 <time>2015-12-06T02:24:46ZZ</time>
 <name><![CDATA[領家工場街]]></name>
</wpt>

<wpt lat="35.78886032104492" lon="139.74586486816406">
 <time>2015-12-06T02:24:46ZZ</time>
 <name><![CDATA[榎木橋]]></name>
</wpt>

<wpt lat="35.793121337890625" lon="139.7330322265625">
 <time>2015-12-06T02:24:46ZZ</time>
 <name><![CDATA[門樋下]]></name>
</wpt>

<wpt lat="35.792083740234375" lon="139.74002075195312">
 <time>2015-12-06T02:24:46ZZ</time>
 <name><![CDATA[領家]]></name>
</wpt>

<wpt lat="35.7917366027832" lon="139.73594665527344">
 <time>2015-12-06T02:24:46ZZ</time>
 <name><![CDATA[仙元橋]]></name>
</wpt>

<wpt lat="35.792755126953125" lon="139.732177734375">
 <time>2015-12-06T02:24:46ZZ</time>
 <name><![CDATA[門樋下]]></name>
</wpt>

<wpt lat="35.7912712097168" lon="139.74227905273438">
 <time>2015-12-06T02:24:46ZZ</time>
 <name><![CDATA[梛木の橋]]></name>
</wpt>

<wpt lat="35.79267120361328" lon="139.74468994140625">
 <time>2015-12-06T02:24:46ZZ</time>
 <name><![CDATA[領家四]]></name>
</wpt>

<wpt lat="35.79297637939453" lon="139.74290466308594">
 <time>2015-12-06T02:24:46ZZ</time>
 <name><![CDATA[領家二]]></name>
</wpt>

<wpt lat="35.79297637939453" lon="139.74005126953125">
 <time>2015-12-06T02:24:46ZZ</time>
 <name><![CDATA[領家第九公園入口]]></name>
</wpt>

<wpt lat="35.79558181762695" lon="139.62493896484375">
 <time>2015-12-06T02:24:46ZZ</time>
 <name><![CDATA[新倉坂下]]></name>
</wpt>

<wpt lat="35.82957077026367" lon="139.6466522216797">
 <time>2015-12-06T02:24:46ZZ</time>
 <name><![CDATA[美女木小学校]]></name>
</wpt>

<wpt lat="35.8172721862793" lon="139.6771697998047">
 <time>2015-12-06T02:24:46ZZ</time>
 <name><![CDATA[戸田市役所]]></name>
</wpt>

<wpt lat="35.799861907958984" lon="139.7222900390625">
 <time>2015-12-06T02:24:46ZZ</time>
 <name><![CDATA[中央道路]]></name>
</wpt>

<wpt lat="35.79804229736328" lon="139.7251434326172">
 <time>2015-12-06T02:24:46ZZ</time>
 <name><![CDATA[川口郵便局]]></name>
</wpt>

<wpt lat="35.795101165771484" lon="139.72662353515625">
 <time>2015-12-06T02:24:46ZZ</time>
 <name><![CDATA[荒川大橋]]></name>
</wpt>

<wpt lat="35.794803619384766" lon="139.73056030273438">
 <time>2015-12-06T02:24:46ZZ</time>
 <name><![CDATA[元郷二]]></name>
</wpt>

<wpt lat="35.828006744384766" lon="139.68751525878906">
 <time>2015-12-06T02:24:46ZZ</time>
 <name><![CDATA[駅前郵便局]]></name>
</wpt>

<wpt lat="35.98973846435547" lon="138.82711791992188">
 <time>2015-12-06T02:24:46ZZ</time>
 <name><![CDATA[相原橋]]></name>
</wpt>

<wpt lat="35.98591995239258" lon="138.83506774902344">
 <time>2015-12-06T02:24:46ZZ</time>
 <name><![CDATA[中双里]]></name>
</wpt>

<wpt lat="36.00031280517578" lon="138.97097778320312">
 <time>2015-12-06T02:24:46ZZ</time>
 <name><![CDATA[小森]]></name>
</wpt>

<wpt lat="35.995975494384766" lon="138.973876953125">
 <time>2015-12-06T02:24:46ZZ</time>
 <name><![CDATA[間庭]]></name>
</wpt>

<wpt lat="35.99287796020508" lon="138.97299194335938">
 <time>2015-12-06T02:24:46ZZ</time>
 <name><![CDATA[野沢]]></name>
</wpt>

<wpt lat="35.99006652832031" lon="138.9727325439453">
 <time>2015-12-06T02:24:46ZZ</time>
 <name><![CDATA[白沢]]></name>
</wpt>

<wpt lat="35.98503494262695" lon="138.97328186035156">
 <time>2015-12-06T02:24:46ZZ</time>
 <name><![CDATA[上野沢]]></name>
</wpt>

<wpt lat="35.97854232788086" lon="138.97572326660156">
 <time>2015-12-06T02:24:46ZZ</time>
 <name><![CDATA[大指]]></name>
</wpt>

<wpt lat="35.97713851928711" lon="138.97174072265625">
 <time>2015-12-06T02:24:46ZZ</time>
 <name><![CDATA[古池]]></name>
</wpt>

<wpt lat="35.97352981567383" lon="138.9713897705078">
 <time>2015-12-06T02:24:46ZZ</time>
 <name><![CDATA[柿平]]></name>
</wpt>

<wpt lat="35.966331481933594" lon="138.978515625">
 <time>2015-12-06T02:24:46ZZ</time>
 <name><![CDATA[西小前]]></name>
</wpt>

<wpt lat="36.00065231323242" lon="138.81842041015625">
 <time>2015-12-06T02:24:46ZZ</time>
 <name><![CDATA[出合]]></name>
</wpt>

<wpt lat="35.99898147583008" lon="138.80441284179688">
 <time>2015-12-06T02:24:46ZZ</time>
 <name><![CDATA[西平]]></name>
</wpt>

<wpt lat="36.0005989074707" lon="138.80787658691406">
 <time>2015-12-06T02:24:46ZZ</time>
 <name><![CDATA[農林センター]]></name>
</wpt>

<wpt lat="35.995216369628906" lon="138.8011016845703">
 <time>2015-12-06T02:24:46ZZ</time>
 <name><![CDATA[中津川]]></name>
</wpt>

<wpt lat="35.99991226196289" lon="138.8704833984375">
 <time>2015-12-06T02:24:46ZZ</time>
 <name><![CDATA[白井差口]]></name>
</wpt>

<wpt lat="35.97296142578125" lon="138.84146118164062">
 <time>2015-12-06T02:24:46ZZ</time>
 <name><![CDATA[大滑]]></name>
</wpt>

<wpt lat="36.25848388671875" lon="139.1888885498047">
 <time>2015-12-06T02:24:46ZZ</time>
 <name><![CDATA[坂東橋南詰]]></name>
</wpt>

<wpt lat="36.255306243896484" lon="139.18653869628906">
 <time>2015-12-06T02:24:46ZZ</time>
 <name><![CDATA[沼和田]]></name>
</wpt>

<wpt lat="36.27153778076172" lon="139.13314819335938">
 <time>2015-12-06T02:24:46ZZ</time>
 <name><![CDATA[西金公会堂]]></name>
</wpt>

<wpt lat="36.2661018371582" lon="139.12728881835938">
 <time>2015-12-06T02:24:46ZZ</time>
 <name><![CDATA[勝場公会堂]]></name>
</wpt>

<wpt lat="36.265804290771484" lon="139.13343811035156">
 <time>2015-12-06T02:24:46ZZ</time>
 <name><![CDATA[賀美公民館]]></name>
</wpt>

<wpt lat="36.26040267944336" lon="139.12355041503906">
 <time>2015-12-06T02:24:46ZZ</time>
 <name><![CDATA[原公会堂]]></name>
</wpt>

<wpt lat="36.261234283447266" lon="139.12924194335938">
 <time>2015-12-06T02:24:46ZZ</time>
 <name><![CDATA[天神・真下]]></name>
</wpt>

<wpt lat="36.2591438293457" lon="139.14393615722656">
 <time>2015-12-06T02:24:46ZZ</time>
 <name><![CDATA[金下東集会所]]></name>
</wpt>

<wpt lat="36.2536506652832" lon="139.14608764648438">
 <time>2015-12-06T02:24:46ZZ</time>
 <name><![CDATA[西原町]]></name>
</wpt>

<wpt lat="36.25395965576172" lon="139.13870239257812">
 <time>2015-12-06T02:24:46ZZ</time>
 <name><![CDATA[堀込]]></name>
</wpt>

<wpt lat="36.264129638671875" lon="139.13693237304688">
 <time>2015-12-06T02:24:46ZZ</time>
 <name><![CDATA[金上公会堂東]]></name>
</wpt>

<wpt lat="36.263309478759766" lon="139.14114379882812">
 <time>2015-12-06T02:24:46ZZ</time>
 <name><![CDATA[金下公会堂]]></name>
</wpt>

<wpt lat="36.269996643066406" lon="139.14027404785156">
 <time>2015-12-06T02:24:46ZZ</time>
 <name><![CDATA[薫]]></name>
</wpt>

<wpt lat="36.26727294921875" lon="139.13967895507812">
 <time>2015-12-06T02:24:46ZZ</time>
 <name><![CDATA[内出集落センター]]></name>
</wpt>

<wpt lat="36.26789855957031" lon="139.1480712890625">
 <time>2015-12-06T02:24:46ZZ</time>
 <name><![CDATA[中忍保]]></name>
</wpt>

<wpt lat="36.268611907958984" lon="139.15380859375">
 <time>2015-12-06T02:24:46ZZ</time>
 <name><![CDATA[池上神社]]></name>
</wpt>

<wpt lat="36.261390686035156" lon="139.15403747558594">
 <time>2015-12-06T02:24:46ZZ</time>
 <name><![CDATA[神保原児童館]]></name>
</wpt>

<wpt lat="36.25844955444336" lon="139.1483917236328">
 <time>2015-12-06T02:24:46ZZ</time>
 <name><![CDATA[一丁目]]></name>
</wpt>

<wpt lat="36.25666427612305" lon="139.15286254882812">
 <time>2015-12-06T02:24:46ZZ</time>
 <name><![CDATA[三丁目]]></name>
</wpt>

<wpt lat="36.255699157714844" lon="139.14923095703125">
 <time>2015-12-06T02:24:46ZZ</time>
 <name><![CDATA[旧ジャスコ南]]></name>
</wpt>

<wpt lat="36.254188537597656" lon="139.1494598388672">
 <time>2015-12-06T02:24:46ZZ</time>
 <name><![CDATA[神保原駅北広場]]></name>
</wpt>

<wpt lat="36.2537727355957" lon="139.15391540527344">
 <time>2015-12-06T02:24:46ZZ</time>
 <name><![CDATA[四・五丁目]]></name>
</wpt>

<wpt lat="36.262550354003906" lon="139.1712646484375">
 <time>2015-12-06T02:24:46ZZ</time>
 <name><![CDATA[新井]]></name>
</wpt>

<wpt lat="36.26632308959961" lon="139.17063903808594">
 <time>2015-12-06T02:24:46ZZ</time>
 <name><![CDATA[三友]]></name>
</wpt>

<wpt lat="36.268760681152344" lon="139.16281127929688">
 <time>2015-12-06T02:24:46ZZ</time>
 <name><![CDATA[八町河原]]></name>
</wpt>

<wpt lat="36.25893020629883" lon="139.16835021972656">
 <time>2015-12-06T02:24:46ZZ</time>
 <name><![CDATA[杉山]]></name>
</wpt>

<wpt lat="36.2578239440918" lon="139.17478942871094">
 <time>2015-12-06T02:24:46ZZ</time>
 <name><![CDATA[都島]]></name>
</wpt>

<wpt lat="36.25678634643555" lon="139.1779022216797">
 <time>2015-12-06T02:24:46ZZ</time>
 <name><![CDATA[沼和田]]></name>
</wpt>

<wpt lat="36.25761032104492" lon="139.1854248046875">
 <time>2015-12-06T02:24:46ZZ</time>
 <name><![CDATA[山王堂]]></name>
</wpt>

<wpt lat="36.25664520263672" lon="139.18942260742188">
 <time>2015-12-06T02:24:46ZZ</time>
 <name><![CDATA[つきみ荘]]></name>
</wpt>

<wpt lat="35.944583892822266" lon="138.8629913330078">
 <time>2015-12-06T02:24:46ZZ</time>
 <name><![CDATA[栃本関所跡]]></name>
</wpt>

<wpt lat="35.94336700439453" lon="138.85716247558594">
 <time>2015-12-06T02:24:46ZZ</time>
 <name><![CDATA[栃本]]></name>
</wpt>

<wpt lat="35.943992614746094" lon="138.86666870117188">
 <time>2015-12-06T02:24:46ZZ</time>
 <name><![CDATA[林平]]></name>
</wpt>

<wpt lat="35.93801498413086" lon="138.84945678710938">
 <time>2015-12-06T02:24:46ZZ</time>
 <name><![CDATA[川又]]></name>
</wpt>

<wpt lat="35.960182189941406" lon="138.97695922851562">
 <time>2015-12-06T02:24:46ZZ</time>
 <name><![CDATA[三峰口駅]]></name>
</wpt>

<wpt lat="35.9612922668457" lon="138.97406005859375">
 <time>2015-12-06T02:24:46ZZ</time>
 <name><![CDATA[白川橋]]></name>
</wpt>

<wpt lat="35.95326232910156" lon="138.96376037597656">
 <time>2015-12-06T02:24:46ZZ</time>
 <name><![CDATA[強石]]></name>
</wpt>

<wpt lat="35.948280334472656" lon="138.9667510986328">
 <time>2015-12-06T02:24:46ZZ</time>
 <name><![CDATA[光岩]]></name>
</wpt>

<wpt lat="35.94485855102539" lon="138.96766662597656">
 <time>2015-12-06T02:24:46ZZ</time>
 <name><![CDATA[大陽寺入口]]></name>
</wpt>

<wpt lat="35.93860626220703" lon="138.96372985839844">
 <time>2015-12-06T02:24:46ZZ</time>
 <name><![CDATA[大洞発電所入口]]></name>
</wpt>

<wpt lat="35.93986892700195" lon="138.9579315185547">
 <time>2015-12-06T02:24:46ZZ</time>
 <name><![CDATA[大達原]]></name>
</wpt>

<wpt lat="35.94026565551758" lon="138.95521545410156">
 <time>2015-12-06T02:24:46ZZ</time>
 <name><![CDATA[下大輪]]></name>
</wpt>

<wpt lat="35.937278747558594" lon="138.95057678222656">
 <time>2015-12-06T02:24:46ZZ</time>
 <name><![CDATA[大輪]]></name>
</wpt>

<wpt lat="35.94203186035156" lon="138.94482421875">
 <time>2015-12-06T02:24:46ZZ</time>
 <name><![CDATA[岡本]]></name>
</wpt>

<wpt lat="35.94776153564453" lon="138.93963623046875">
 <time>2015-12-06T02:24:46ZZ</time>
 <name><![CDATA[神岡団地]]></name>
</wpt>

<wpt lat="35.9522590637207" lon="138.93955993652344">
 <time>2015-12-06T02:24:46ZZ</time>
 <name><![CDATA[落合]]></name>
</wpt>

<wpt lat="35.953121185302734" lon="138.93650817871094">
 <time>2015-12-06T02:24:46ZZ</time>
 <name><![CDATA[大滝郵便局]]></name>
</wpt>

<wpt lat="35.94683074951172" lon="138.93197631835938">
 <time>2015-12-06T02:24:46ZZ</time>
 <name><![CDATA[三十場]]></name>
</wpt>

<wpt lat="35.94866180419922" lon="138.91615295410156">
 <time>2015-12-06T02:24:46ZZ</time>
 <name><![CDATA[小西]]></name>
</wpt>

<wpt lat="35.948463439941406" lon="138.91177368164062">
 <time>2015-12-06T02:24:46ZZ</time>
 <name><![CDATA[大久保]]></name>
</wpt>

<wpt lat="35.94368362426758" lon="138.9103546142578">
 <time>2015-12-06T02:24:46ZZ</time>
 <name><![CDATA[秩父湖]]></name>
</wpt>

<wpt lat="35.943050384521484" lon="138.8980255126953">
 <time>2015-12-06T02:24:46ZZ</time>
 <name><![CDATA[麻生]]></name>
</wpt>

<wpt lat="35.94390106201172" lon="138.89662170410156">
 <time>2015-12-06T02:24:46ZZ</time>
 <name><![CDATA[寺井]]></name>
</wpt>

<wpt lat="35.944664001464844" lon="138.88821411132812">
 <time>2015-12-06T02:24:46ZZ</time>
 <name><![CDATA[上中尾]]></name>
</wpt>

<wpt lat="35.957252502441406" lon="138.90823364257812">
 <time>2015-12-06T02:24:46ZZ</time>
 <name><![CDATA[小双里]]></name>
</wpt>

<wpt lat="35.95382308959961" lon="138.9166259765625">
 <time>2015-12-06T02:24:46ZZ</time>
 <name><![CDATA[鶉平]]></name>
</wpt>

<wpt lat="35.995155334472656" lon="138.9642791748047">
 <time>2015-12-06T02:24:46ZZ</time>
 <name><![CDATA[黒橋]]></name>
</wpt>

<wpt lat="35.9909553527832" lon="138.95884704589844">
 <time>2015-12-06T02:24:46ZZ</time>
 <name><![CDATA[大堤]]></name>
</wpt>

<wpt lat="35.98875427246094" lon="138.95558166503906">
 <time>2015-12-06T02:24:46ZZ</time>
 <name><![CDATA[堂上]]></name>
</wpt>

<wpt lat="35.98652267456055" lon="138.94906616210938">
 <time>2015-12-06T02:24:46ZZ</time>
 <name><![CDATA[東橋]]></name>
</wpt>

<wpt lat="35.98411178588867" lon="138.94525146484375">
 <time>2015-12-06T02:24:46ZZ</time>
 <name><![CDATA[大谷橋]]></name>
</wpt>

<wpt lat="35.98265075683594" lon="138.91314697265625">
 <time>2015-12-06T02:24:46ZZ</time>
 <name><![CDATA[鳶岩]]></name>
</wpt>

<wpt lat="35.98667907714844" lon="138.89854431152344">
 <time>2015-12-06T02:24:46ZZ</time>
 <name><![CDATA[煤川上]]></name>
</wpt>

<wpt lat="35.992488861083984" lon="138.88670349121094">
 <time>2015-12-06T02:24:46ZZ</time>
 <name><![CDATA[滝前]]></name>
</wpt>

<wpt lat="35.99385452270508" lon="138.88265991210938">
 <time>2015-12-06T02:24:46ZZ</time>
 <name><![CDATA[丸神ノ滝入口]]></name>
</wpt>

<wpt lat="35.99705505371094" lon="138.8773956298828">
 <time>2015-12-06T02:24:46ZZ</time>
 <name><![CDATA[中尾]]></name>
</wpt>

<wpt lat="35.98592758178711" lon="138.90281677246094">
 <time>2015-12-06T02:24:46ZZ</time>
 <name><![CDATA[煤川]]></name>
</wpt>

<wpt lat="35.942626953125" lon="138.9019012451172">
 <time>2015-12-06T02:24:46ZZ</time>
 <name><![CDATA[二瀬]]></name>
</wpt>

<wpt lat="35.95104217529297" lon="138.93211364746094">
 <time>2015-12-06T02:24:46ZZ</time>
 <name><![CDATA[宮平]]></name>
</wpt>

<wpt lat="35.952362060546875" lon="138.93458557128906">
 <time>2015-12-06T02:24:46ZZ</time>
 <name><![CDATA[大滝総合支所]]></name>
</wpt>

<wpt lat="35.98509216308594" lon="138.93113708496094">
 <time>2015-12-06T02:24:46ZZ</time>
 <name><![CDATA[川塩]]></name>
</wpt>

<wpt lat="35.95043182373047" lon="138.93881225585938">
 <time>2015-12-06T02:24:46ZZ</time>
 <name><![CDATA[大滝温泉遊湯館]]></name>
</wpt>

<wpt lat="35.99827194213867" lon="138.96875">
 <time>2015-12-06T02:24:46ZZ</time>
 <name><![CDATA[原沢]]></name>
</wpt>

<wpt lat="35.97519302368164" lon="138.97293090820312">
 <time>2015-12-06T02:24:46ZZ</time>
 <name><![CDATA[荒川園入口]]></name>
</wpt>

<wpt lat="35.94392013549805" lon="138.88165283203125">
 <time>2015-12-06T02:24:46ZZ</time>
 <name><![CDATA[光の村養護学校]]></name>
</wpt>

<wpt lat="35.964088439941406" lon="138.97755432128906">
 <time>2015-12-06T02:24:46ZZ</time>
 <name><![CDATA[贄川]]></name>
</wpt>

<wpt lat="35.95859146118164" lon="138.9669189453125">
 <time>2015-12-06T02:24:46ZZ</time>
 <name><![CDATA[荒川局前]]></name>
</wpt>

<wpt lat="35.95263671875" lon="138.9267120361328">
 <time>2015-12-06T02:24:46ZZ</time>
 <name><![CDATA[櫟平]]></name>
</wpt>

<wpt lat="35.96220397949219" lon="138.97557067871094">
 <time>2015-12-06T02:24:46ZZ</time>
 <name><![CDATA[白川橋]]></name>
</wpt>

<wpt lat="35.79482650756836" lon="139.35935974121094">
 <time>2015-12-06T02:24:46ZZ</time>
 <name><![CDATA[元狭山]]></name>
</wpt>

<wpt lat="35.793888092041016" lon="139.35482788085938">
 <time>2015-12-06T02:24:46ZZ</time>
 <name><![CDATA[二本木地蔵前]]></name>
</wpt>

<wpt lat="35.79082489013672" lon="139.3709716796875">
 <time>2015-12-06T02:24:46ZZ</time>
 <name><![CDATA[太子堂入口]]></name>
</wpt>

<wpt lat="35.81034851074219" lon="139.31817626953125">
 <time>2015-12-06T02:24:46ZZ</time>
 <name><![CDATA[金子橋]]></name>
</wpt>

<wpt lat="35.8126106262207" lon="139.3217315673828">
 <time>2015-12-06T02:24:46ZZ</time>
 <name><![CDATA[桂川神社前]]></name>
</wpt>

<wpt lat="35.81351089477539" lon="139.32437133789062">
 <time>2015-12-06T02:24:46ZZ</time>
 <name><![CDATA[南峯公会堂]]></name>
</wpt>

<wpt lat="35.815738677978516" lon="139.3302459716797">
 <time>2015-12-06T02:24:46ZZ</time>
 <name><![CDATA[寺竹]]></name>
</wpt>

<wpt lat="35.83586120605469" lon="139.31173706054688">
 <time>2015-12-06T02:24:46ZZ</time>
 <name><![CDATA[岩渕]]></name>
</wpt>

<wpt lat="35.83392333984375" lon="139.32261657714844">
 <time>2015-12-06T02:24:46ZZ</time>
 <name><![CDATA[落合]]></name>
</wpt>

<wpt lat="35.83646774291992" lon="139.32611083984375">
 <time>2015-12-06T02:24:46ZZ</time>
 <name><![CDATA[飯能南高校]]></name>
</wpt>

<wpt lat="35.833927154541016" lon="139.3290557861328">
 <time>2015-12-06T02:24:46ZZ</time>
 <name><![CDATA[阿須]]></name>
</wpt>

<wpt lat="35.8011474609375" lon="139.36837768554688">
 <time>2015-12-06T02:24:46ZZ</time>
 <name><![CDATA[入間市博物館]]></name>
</wpt>

<wpt lat="35.81698989868164" lon="139.34019470214844">
 <time>2015-12-06T02:24:46ZZ</time>
 <name><![CDATA[上谷ヶ貫]]></name>
</wpt>

<wpt lat="35.818443298339844" lon="139.34584045410156">
 <time>2015-12-06T02:24:46ZZ</time>
 <name><![CDATA[谷ヶ貫寺]]></name>
</wpt>

<wpt lat="35.8206672668457" lon="139.3505401611328">
 <time>2015-12-06T02:24:46ZZ</time>
 <name><![CDATA[中神]]></name>
</wpt>

<wpt lat="35.822391510009766" lon="139.36038208007812">
 <time>2015-12-06T02:24:46ZZ</time>
 <name><![CDATA[新久西]]></name>
</wpt>

<wpt lat="35.823692321777344" lon="139.36390686035156">
 <time>2015-12-06T02:24:46ZZ</time>
 <name><![CDATA[ペアーレ入間入口]]></name>
</wpt>

<wpt lat="35.82470703125" lon="139.36672973632812">
 <time>2015-12-06T02:24:46ZZ</time>
 <name><![CDATA[桂橋]]></name>
</wpt>

<wpt lat="35.832183837890625" lon="139.34133911132812">
 <time>2015-12-06T02:24:46ZZ</time>
 <name><![CDATA[運動公園]]></name>
</wpt>

<wpt lat="35.835792541503906" lon="139.3496551513672">
 <time>2015-12-06T02:24:46ZZ</time>
 <name><![CDATA[円照寺入口]]></name>
</wpt>

<wpt lat="35.81454086303711" lon="139.32652282714844">
 <time>2015-12-06T02:24:46ZZ</time>
 <name><![CDATA[南峯]]></name>
</wpt>

<wpt lat="35.82163619995117" lon="139.3563232421875">
 <time>2015-12-06T02:24:46ZZ</time>
 <name><![CDATA[根岸]]></name>
</wpt>

<wpt lat="35.811195373535156" lon="139.3290557861328">
 <time>2015-12-06T02:24:46ZZ</time>
 <name><![CDATA[金子駅]]></name>
</wpt>

<wpt lat="35.81650924682617" lon="139.3355712890625">
 <time>2015-12-06T02:24:46ZZ</time>
 <name><![CDATA[西三ツ木]]></name>
</wpt>

<wpt lat="35.79998016357422" lon="139.37020874023438">
 <time>2015-12-06T02:24:46ZZ</time>
 <name><![CDATA[北中野]]></name>
</wpt>

<wpt lat="35.798667907714844" lon="139.36741638183594">
 <time>2015-12-06T02:24:46ZZ</time>
 <name><![CDATA[二本木]]></name>
</wpt>

<wpt lat="35.795860290527344" lon="139.3686065673828">
 <time>2015-12-06T02:24:46ZZ</time>
 <name><![CDATA[北中野]]></name>
</wpt>

<wpt lat="35.802974700927734" lon="139.3708953857422">
 <time>2015-12-06T02:24:46ZZ</time>
 <name><![CDATA[工業団地南]]></name>
</wpt>

<wpt lat="35.802574157714844" lon="139.36598205566406">
 <time>2015-12-06T02:24:46ZZ</time>
 <name><![CDATA[入間市博物館]]></name>
</wpt>

<wpt lat="35.79890441894531" lon="139.35971069335938">
 <time>2015-12-06T02:24:46ZZ</time>
 <name><![CDATA[二本木保育所]]></name>
</wpt>

<wpt lat="35.795860290527344" lon="139.360595703125">
 <time>2015-12-06T02:24:46ZZ</time>
 <name><![CDATA[二本木憩いの家]]></name>
</wpt>

<wpt lat="35.81725311279297" lon="139.37057495117188">
 <time>2015-12-06T02:24:46ZZ</time>
 <name><![CDATA[給食センター]]></name>
</wpt>

<wpt lat="35.821956634521484" lon="139.36834716796875">
 <time>2015-12-06T02:24:46ZZ</time>
 <name><![CDATA[東金子地区体育館入口]]></name>
</wpt>

<wpt lat="35.82588577270508" lon="139.36737060546875">
 <time>2015-12-06T02:24:46ZZ</time>
 <name><![CDATA[東金子支所]]></name>
</wpt>

<wpt lat="35.82899856567383" lon="139.36956787109375">
 <time>2015-12-06T02:24:46ZZ</time>
 <name><![CDATA[さくら公園入口]]></name>
</wpt>

<wpt lat="35.815921783447266" lon="139.36614990234375">
 <time>2015-12-06T02:24:46ZZ</time>
 <name><![CDATA[リサイクルプラザ]]></name>
</wpt>

<wpt lat="35.81656265258789" lon="139.36483764648438">
 <time>2015-12-06T02:24:46ZZ</time>
 <name><![CDATA[社会保険健康センター]]></name>
</wpt>

<wpt lat="35.82232666015625" lon="139.36373901367188">
 <time>2015-12-06T02:24:46ZZ</time>
 <name><![CDATA[新久清水橋]]></name>
</wpt>

<wpt lat="35.82698059082031" lon="139.362548828125">
 <time>2015-12-06T02:24:46ZZ</time>
 <name><![CDATA[金子病院入口]]></name>
</wpt>

<wpt lat="35.82963943481445" lon="139.36172485351562">
 <time>2015-12-06T02:24:46ZZ</time>
 <name><![CDATA[八坂神社入口]]></name>
</wpt>

<wpt lat="35.835289001464844" lon="139.35964965820312">
 <time>2015-12-06T02:24:46ZZ</time>
 <name><![CDATA[武蔵野音大入口]]></name>
</wpt>

<wpt lat="35.81159973144531" lon="139.3203125">
 <time>2015-12-06T02:24:46ZZ</time>
 <name><![CDATA[木蓮寺]]></name>
</wpt>

<wpt lat="35.812137603759766" lon="139.32705688476562">
 <time>2015-12-06T02:24:46ZZ</time>
 <name><![CDATA[金子駅西]]></name>
</wpt>

<wpt lat="35.81376647949219" lon="139.325927734375">
 <time>2015-12-06T02:24:46ZZ</time>
 <name><![CDATA[桂橋北]]></name>
</wpt>

<wpt lat="35.81016540527344" lon="139.3710479736328">
 <time>2015-12-06T02:24:46ZZ</time>
 <name><![CDATA[狭山ヶ原]]></name>
</wpt>

<wpt lat="35.809425354003906" lon="139.36866760253906">
 <time>2015-12-06T02:24:46ZZ</time>
 <name><![CDATA[武蔵工業団地]]></name>
</wpt>

<wpt lat="35.80747604370117" lon="139.3688507080078">
 <time>2015-12-06T02:24:46ZZ</time>
 <name><![CDATA[いちょう通り]]></name>
</wpt>

<wpt lat="35.80443572998047" lon="139.3702392578125">
 <time>2015-12-06T02:24:46ZZ</time>
 <name><![CDATA[宮ノ台]]></name>
</wpt>

<wpt lat="35.80235290527344" lon="139.35848999023438">
 <time>2015-12-06T02:24:46ZZ</time>
 <name><![CDATA[大妻女子大学]]></name>
</wpt>

<wpt lat="35.8343620300293" lon="139.31556701660156">
 <time>2015-12-06T02:24:46ZZ</time>
 <name><![CDATA[前ヶ貫入口]]></name>
</wpt>

<wpt lat="35.825809478759766" lon="139.37176513671875">
 <time>2015-12-06T02:24:46ZZ</time>
 <name><![CDATA[小谷田]]></name>
</wpt>

<wpt lat="35.79994583129883" lon="139.36781311035156">
 <time>2015-12-06T02:24:46ZZ</time>
 <name><![CDATA[博物館入口]]></name>
</wpt>

<wpt lat="35.78978729248047" lon="139.3924560546875">
 <time>2015-12-06T02:24:46ZZ</time>
 <name><![CDATA[台]]></name>
</wpt>

<wpt lat="35.79342269897461" lon="139.38333129882812">
 <time>2015-12-06T02:24:46ZZ</time>
 <name><![CDATA[荻原]]></name>
</wpt>

<wpt lat="35.78241729736328" lon="139.4263153076172">
 <time>2015-12-06T02:24:46ZZ</time>
 <name><![CDATA[椿峰ニュータウン入口]]></name>
</wpt>

<wpt lat="35.788997650146484" lon="139.4229736328125">
 <time>2015-12-06T02:24:46ZZ</time>
 <name><![CDATA[内手]]></name>
</wpt>

<wpt lat="35.78907012939453" lon="139.42799377441406">
 <time>2015-12-06T02:24:46ZZ</time>
 <name><![CDATA[北野天神前]]></name>
</wpt>

<wpt lat="35.79133605957031" lon="139.38864135742188">
 <time>2015-12-06T02:24:46ZZ</time>
 <name><![CDATA[糀谷]]></name>
</wpt>

<wpt lat="35.79255676269531" lon="139.3804931640625">
 <time>2015-12-06T02:24:46ZZ</time>
 <name><![CDATA[宮寺]]></name>
</wpt>

<wpt lat="35.811336517333984" lon="139.41712951660156">
 <time>2015-12-06T02:24:46ZZ</time>
 <name><![CDATA[狭山ヶ丘駅東口]]></name>
</wpt>

<wpt lat="35.8329963684082" lon="139.42984008789062">
 <time>2015-12-06T02:24:46ZZ</time>
 <name><![CDATA[南入曽前原]]></name>
</wpt>

<wpt lat="35.83031463623047" lon="139.43051147460938">
 <time>2015-12-06T02:24:46ZZ</time>
 <name><![CDATA[狭山入曽郵便局]]></name>
</wpt>

<wpt lat="35.82974624633789" lon="139.4333038330078">
 <time>2015-12-06T02:24:46ZZ</time>
 <name><![CDATA[月見野]]></name>
</wpt>

<wpt lat="35.827239990234375" lon="139.4294891357422">
 <time>2015-12-06T02:24:46ZZ</time>
 <name><![CDATA[若葉台児童交通公園]]></name>
</wpt>

<wpt lat="35.8260383605957" lon="139.42779541015625">
 <time>2015-12-06T02:24:46ZZ</time>
 <name><![CDATA[水野保育所]]></name>
</wpt>

<wpt lat="35.79190444946289" lon="139.5060272216797">
 <time>2015-12-06T02:24:46ZZ</time>
 <name><![CDATA[和田安松]]></name>
</wpt>

<wpt lat="35.79022216796875" lon="139.54843139648438">
 <time>2015-12-06T02:24:46ZZ</time>
 <name><![CDATA[あたご橋]]></name>
</wpt>

<wpt lat="35.78171920776367" lon="139.55784606933594">
 <time>2015-12-06T02:24:46ZZ</time>
 <name><![CDATA[本多一丁目]]></name>
</wpt>

<wpt lat="35.79008483886719" lon="139.4306182861328">
 <time>2015-12-06T02:24:46ZZ</time>
 <name><![CDATA[小手指中学校前]]></name>
</wpt>

<wpt lat="35.78759765625" lon="139.40213012695312">
 <time>2015-12-06T02:24:46ZZ</time>
 <name><![CDATA[早稲田大学]]></name>
</wpt>

<wpt lat="35.79241943359375" lon="139.3728485107422">
 <time>2015-12-06T02:24:46ZZ</time>
 <name><![CDATA[宮寺西]]></name>
</wpt>

<wpt lat="35.79254913330078" lon="139.37765502929688">
 <time>2015-12-06T02:24:46ZZ</time>
 <name><![CDATA[JA宮寺支店前]]></name>
</wpt>

<wpt lat="35.79433822631836" lon="139.4290771484375">
 <time>2015-12-06T02:24:46ZZ</time>
 <name><![CDATA[こてさし荘入口]]></name>
</wpt>

<wpt lat="35.77786636352539" lon="139.4253692626953">
 <time>2015-12-06T02:24:46ZZ</time>
 <name><![CDATA[高橋]]></name>
</wpt>

<wpt lat="35.77777862548828" lon="139.41917419433594">
 <time>2015-12-06T02:24:46ZZ</time>
 <name><![CDATA[堀口]]></name>
</wpt>

<wpt lat="35.77560806274414" lon="139.4207763671875">
 <time>2015-12-06T02:24:46ZZ</time>
 <name><![CDATA[上山口]]></name>
</wpt>

<wpt lat="35.77783966064453" lon="139.4303741455078">
 <time>2015-12-06T02:24:46ZZ</time>
 <name><![CDATA[中氷川神社]]></name>
</wpt>

<wpt lat="35.794246673583984" lon="139.37965393066406">
 <time>2015-12-06T02:24:46ZZ</time>
 <name><![CDATA[宮寺地区体育館入口]]></name>
</wpt>

<wpt lat="35.7926139831543" lon="139.4282989501953">
 <time>2015-12-06T02:24:46ZZ</time>
 <name><![CDATA[宮後]]></name>
</wpt>

<wpt lat="35.78575134277344" lon="139.42672729492188">
 <time>2015-12-06T02:24:46ZZ</time>
 <name><![CDATA[高峰]]></name>
</wpt>

<wpt lat="35.78996276855469" lon="139.3968963623047">
 <time>2015-12-06T02:24:46ZZ</time>
 <name><![CDATA[堀之内]]></name>
</wpt>

<wpt lat="35.772891998291016" lon="139.45704650878906">
 <time>2015-12-06T02:24:46ZZ</time>
 <name><![CDATA[峰の下]]></name>
</wpt>

<wpt lat="35.773868560791016" lon="139.45970153808594">
 <time>2015-12-06T02:24:46ZZ</time>
 <name><![CDATA[松が丘中央]]></name>
</wpt>

<wpt lat="35.7758674621582" lon="139.46136474609375">
 <time>2015-12-06T02:24:46ZZ</time>
 <name><![CDATA[水天宮下]]></name>
</wpt>

<wpt lat="35.77608871459961" lon="139.46434020996094">
 <time>2015-12-06T02:24:46ZZ</time>
 <name><![CDATA[悲田処跡]]></name>
</wpt>

<wpt lat="35.77509689331055" lon="139.4673309326172">
 <time>2015-12-06T02:24:46ZZ</time>
 <name><![CDATA[将軍塚]]></name>
</wpt>

<wpt lat="35.77742004394531" lon="139.4694366455078">
 <time>2015-12-06T02:24:46ZZ</time>
 <name><![CDATA[勢揃橋]]></name>
</wpt>

<wpt lat="35.790287017822266" lon="139.48951721191406">
 <time>2015-12-06T02:24:46ZZ</time>
 <name><![CDATA[松井]]></name>
</wpt>

<wpt lat="35.790679931640625" lon="139.4921875">
 <time>2015-12-06T02:24:46ZZ</time>
 <name><![CDATA[上安松]]></name>
</wpt>

<wpt lat="35.793357849121094" lon="139.4718475341797">
 <time>2015-12-06T02:24:46ZZ</time>
 <name><![CDATA[北御幸町]]></name>
</wpt>

<wpt lat="35.794918060302734" lon="139.43618774414062">
 <time>2015-12-06T02:24:46ZZ</time>
 <name><![CDATA[大沢]]></name>
</wpt>

<wpt lat="35.79414367675781" lon="139.43878173828125">
 <time>2015-12-06T02:24:46ZZ</time>
 <name><![CDATA[大沢橋]]></name>
</wpt>

<wpt lat="35.792842864990234" lon="139.44229125976562">
 <time>2015-12-06T02:24:46ZZ</time>
 <name><![CDATA[大六天北]]></name>
</wpt>

<wpt lat="35.7910270690918" lon="139.4951629638672">
 <time>2015-12-06T02:24:46ZZ</time>
 <name><![CDATA[東中学校入口]]></name>
</wpt>

<wpt lat="35.79290008544922" lon="139.4822998046875">
 <time>2015-12-06T02:24:46ZZ</time>
 <name><![CDATA[市民医療センター入口]]></name>
</wpt>

<wpt lat="35.79067611694336" lon="139.43580627441406">
 <time>2015-12-06T02:24:46ZZ</time>
 <name><![CDATA[小手指小学校前]]></name>
</wpt>

<wpt lat="35.78468704223633" lon="139.43809509277344">
 <time>2015-12-06T02:24:46ZZ</time>
 <name><![CDATA[椿峰ニュータウン]]></name>
</wpt>

<wpt lat="35.78681182861328" lon="139.4769287109375">
 <time>2015-12-06T02:24:46ZZ</time>
 <name><![CDATA[所沢駅東口通り]]></name>
</wpt>

<wpt lat="35.771541595458984" lon="139.45489501953125">
 <time>2015-12-06T02:24:46ZZ</time>
 <name><![CDATA[南大谷公園]]></name>
</wpt>

<wpt lat="35.791046142578125" lon="139.48231506347656">
 <time>2015-12-06T02:24:46ZZ</time>
 <name><![CDATA[所沢陸橋北]]></name>
</wpt>

<wpt lat="35.77962112426758" lon="139.47842407226562">
 <time>2015-12-06T02:24:46ZZ</time>
 <name><![CDATA[日月神社]]></name>
</wpt>

<wpt lat="35.78255081176758" lon="139.45785522460938">
 <time>2015-12-06T02:24:46ZZ</time>
 <name><![CDATA[永源寺]]></name>
</wpt>

<wpt lat="35.78465270996094" lon="139.4547882080078">
 <time>2015-12-06T02:24:46ZZ</time>
 <name><![CDATA[春の台公園]]></name>
</wpt>

<wpt lat="35.784976959228516" lon="139.44937133789062">
 <time>2015-12-06T02:24:46ZZ</time>
 <name><![CDATA[瑞岩寺前]]></name>
</wpt>

<wpt lat="35.770538330078125" lon="139.45248413085938">
 <time>2015-12-06T02:24:46ZZ</time>
 <name><![CDATA[松が丘西]]></name>
</wpt>

<wpt lat="35.782142639160156" lon="139.44407653808594">
 <time>2015-12-06T02:24:46ZZ</time>
 <name><![CDATA[仏蔵院前]]></name>
</wpt>

<wpt lat="35.804039001464844" lon="139.37704467773438">
 <time>2015-12-06T02:24:46ZZ</time>
 <name><![CDATA[大森]]></name>
</wpt>

<wpt lat="35.81153869628906" lon="139.3778533935547">
 <time>2015-12-06T02:24:46ZZ</time>
 <name><![CDATA[船久保工場前]]></name>
</wpt>

<wpt lat="35.816104888916016" lon="139.3766326904297">
 <time>2015-12-06T02:24:46ZZ</time>
 <name><![CDATA[人事院研修所]]></name>
</wpt>

<wpt lat="35.820106506347656" lon="139.37672424316406">
 <time>2015-12-06T02:24:46ZZ</time>
 <name><![CDATA[東金子]]></name>
</wpt>

<wpt lat="35.82634735107422" lon="139.3815460205078">
 <time>2015-12-06T02:24:46ZZ</time>
 <name><![CDATA[武蔵団地入口]]></name>
</wpt>

<wpt lat="35.82978439331055" lon="139.38304138183594">
 <time>2015-12-06T02:24:46ZZ</time>
 <name><![CDATA[扇町屋]]></name>
</wpt>

<wpt lat="35.82688522338867" lon="139.3779754638672">
 <time>2015-12-06T02:24:46ZZ</time>
 <name><![CDATA[坂下]]></name>
</wpt>

<wpt lat="35.83226013183594" lon="139.38449096679688">
 <time>2015-12-06T02:24:46ZZ</time>
 <name><![CDATA[扇町屋二]]></name>
</wpt>

<wpt lat="35.830535888671875" lon="139.38888549804688">
 <time>2015-12-06T02:24:46ZZ</time>
 <name><![CDATA[扇町屋一丁目]]></name>
</wpt>

<wpt lat="35.835140228271484" lon="139.38658142089844">
 <time>2015-12-06T02:24:46ZZ</time>
 <name><![CDATA[扇町屋中央]]></name>
</wpt>

<wpt lat="35.835914611816406" lon="139.39208984375">
 <time>2015-12-06T02:24:46ZZ</time>
 <name><![CDATA[入間市役所]]></name>
</wpt>

<wpt lat="35.8247184753418" lon="139.40162658691406">
 <time>2015-12-06T02:24:46ZZ</time>
 <name><![CDATA[藤沢中学校]]></name>
</wpt>

<wpt lat="35.8244514465332" lon="139.39588928222656">
 <time>2015-12-06T02:24:46ZZ</time>
 <name><![CDATA[県営住宅入口]]></name>
</wpt>

<wpt lat="35.80058288574219" lon="139.410888671875">
 <time>2015-12-06T02:24:46ZZ</time>
 <name><![CDATA[金井ヶ原入口]]></name>
</wpt>

<wpt lat="35.805747985839844" lon="139.41810607910156">
 <time>2015-12-06T02:24:46ZZ</time>
 <name><![CDATA[甲地蔵]]></name>
</wpt>

<wpt lat="35.83283233642578" lon="139.42726135253906">
 <time>2015-12-06T02:24:46ZZ</time>
 <name><![CDATA[入曽駅]]></name>
</wpt>

<wpt lat="35.82634353637695" lon="139.39364624023438">
 <time>2015-12-06T02:24:46ZZ</time>
 <name><![CDATA[入間扇町屋団地]]></name>
</wpt>

<wpt lat="35.834129333496094" lon="139.42604064941406">
 <time>2015-12-06T02:24:46ZZ</time>
 <name><![CDATA[入曽駅入口]]></name>
</wpt>

<wpt lat="35.824588775634766" lon="139.41067504882812">
 <time>2015-12-06T02:24:46ZZ</time>
 <name><![CDATA[藤沢十字路]]></name>
</wpt>

<wpt lat="35.802093505859375" lon="139.37423706054688">
 <time>2015-12-06T02:24:46ZZ</time>
 <name><![CDATA[西武住宅前]]></name>
</wpt>

<wpt lat="35.821617126464844" lon="139.39657592773438">
 <time>2015-12-06T02:24:46ZZ</time>
 <name><![CDATA[西武グリーンヒル]]></name>
</wpt>

<wpt lat="35.82146072387695" lon="139.41209411621094">
 <time>2015-12-06T02:24:46ZZ</time>
 <name><![CDATA[武蔵藤沢駅]]></name>
</wpt>

<wpt lat="35.82306671142578" lon="139.3990020751953">
 <time>2015-12-06T02:24:46ZZ</time>
 <name><![CDATA[高見原]]></name>
</wpt>

<wpt lat="35.801856994628906" lon="139.41171264648438">
 <time>2015-12-06T02:24:46ZZ</time>
 <name><![CDATA[狭山ヶ丘住宅入口]]></name>
</wpt>

<wpt lat="35.835201263427734" lon="139.37953186035156">
 <time>2015-12-06T02:24:46ZZ</time>
 <name><![CDATA[高倉小学校]]></name>
</wpt>

<wpt lat="35.828548431396484" lon="139.37318420410156">
 <time>2015-12-06T02:24:46ZZ</time>
 <name><![CDATA[中野原稲荷]]></name>
</wpt>

<wpt lat="35.797637939453125" lon="139.37921142578125">
 <time>2015-12-06T02:24:46ZZ</time>
 <name><![CDATA[大森通り中央]]></name>
</wpt>

<wpt lat="35.80134582519531" lon="139.3797149658203">
 <time>2015-12-06T02:24:46ZZ</time>
 <name><![CDATA[大森会館前]]></name>
</wpt>

<wpt lat="35.803932189941406" lon="139.38201904296875">
 <time>2015-12-06T02:24:46ZZ</time>
 <name><![CDATA[やまゆり荘]]></name>
</wpt>

<wpt lat="35.80607986450195" lon="139.38157653808594">
 <time>2015-12-06T02:24:46ZZ</time>
 <name><![CDATA[下枝医院前]]></name>
</wpt>

<wpt lat="35.80717468261719" lon="139.37741088867188">
 <time>2015-12-06T02:24:46ZZ</time>
 <name><![CDATA[縄竹公会堂]]></name>
</wpt>

<wpt lat="35.81122970581055" lon="139.37464904785156">
 <time>2015-12-06T02:24:46ZZ</time>
 <name><![CDATA[武蔵中学校]]></name>
</wpt>

<wpt lat="35.81452941894531" lon="139.3734588623047">
 <time>2015-12-06T02:24:46ZZ</time>
 <name><![CDATA[十四区集会所]]></name>
</wpt>

<wpt lat="35.8263053894043" lon="139.4055938720703">
 <time>2015-12-06T02:24:46ZZ</time>
 <name><![CDATA[東台]]></name>
</wpt>

<wpt lat="35.82164764404297" lon="139.4059600830078">
 <time>2015-12-06T02:24:46ZZ</time>
 <name><![CDATA[澤田医院前]]></name>
</wpt>

<wpt lat="35.81774139404297" lon="139.40252685546875">
 <time>2015-12-06T02:24:46ZZ</time>
 <name><![CDATA[藤沢支所]]></name>
</wpt>

<wpt lat="35.81462860107422" lon="139.3997802734375">
 <time>2015-12-06T02:24:46ZZ</time>
 <name><![CDATA[藤沢橋東]]></name>
</wpt>

<wpt lat="35.809356689453125" lon="139.3899688720703">
 <time>2015-12-06T02:24:46ZZ</time>
 <name><![CDATA[上藤沢]]></name>
</wpt>

<wpt lat="35.80928039550781" lon="139.43421936035156">
 <time>2015-12-06T02:24:46ZZ</time>
 <name><![CDATA[北中]]></name>
</wpt>

<wpt lat="35.812042236328125" lon="139.42820739746094">
 <time>2015-12-06T02:24:46ZZ</time>
 <name><![CDATA[吉祥院前]]></name>
</wpt>

<wpt lat="35.813751220703125" lon="139.42462158203125">
 <time>2015-12-06T02:24:46ZZ</time>
 <name><![CDATA[宮前小学校入口]]></name>
</wpt>

<wpt lat="35.81515884399414" lon="139.41952514648438">
 <time>2015-12-06T02:24:46ZZ</time>
 <name><![CDATA[東狭山ヶ丘一丁目]]></name>
</wpt>

<wpt lat="35.835472106933594" lon="139.39564514160156">
 <time>2015-12-06T02:24:46ZZ</time>
 <name><![CDATA[産業文化センター]]></name>
</wpt>

<wpt lat="35.83440017700195" lon="139.39498901367188">
 <time>2015-12-06T02:24:46ZZ</time>
 <name><![CDATA[豊岡四]]></name>
</wpt>

<wpt lat="35.83386993408203" lon="139.39993286132812">
 <time>2015-12-06T02:24:46ZZ</time>
 <name><![CDATA[東町小学校]]></name>
</wpt>

<wpt lat="35.83395767211914" lon="139.4051055908203">
 <time>2015-12-06T02:24:46ZZ</time>
 <name><![CDATA[東久保団地]]></name>
</wpt>

<wpt lat="35.830936431884766" lon="139.4091339111328">
 <time>2015-12-06T02:24:46ZZ</time>
 <name><![CDATA[東町団地]]></name>
</wpt>

<wpt lat="35.8293571472168" lon="139.40823364257812">
 <time>2015-12-06T02:24:46ZZ</time>
 <name><![CDATA[東町五丁目]]></name>
</wpt>

<wpt lat="35.82764434814453" lon="139.40870666503906">
 <time>2015-12-06T02:24:46ZZ</time>
 <name><![CDATA[下藤沢]]></name>
</wpt>

<wpt lat="35.831974029541016" lon="139.40106201171875">
 <time>2015-12-06T02:24:46ZZ</time>
 <name><![CDATA[東町公民館入口]]></name>
</wpt>

<wpt lat="35.830543518066406" lon="139.40037536621094">
 <time>2015-12-06T02:24:46ZZ</time>
 <name><![CDATA[東町公民館]]></name>
</wpt>

<wpt lat="35.8274040222168" lon="139.39605712890625">
 <time>2015-12-06T02:24:46ZZ</time>
 <name><![CDATA[入間扇町屋団地中央]]></name>
</wpt>

<wpt lat="35.827571868896484" lon="139.38470458984375">
 <time>2015-12-06T02:24:46ZZ</time>
 <name><![CDATA[ユアコート入間前]]></name>
</wpt>

<wpt lat="35.824825286865234" lon="139.4237823486328">
 <time>2015-12-06T02:24:46ZZ</time>
 <name><![CDATA[水野公民館入口]]></name>
</wpt>

<wpt lat="35.82203674316406" lon="139.4197540283203">
 <time>2015-12-06T02:24:46ZZ</time>
 <name><![CDATA[水野郵便局]]></name>
</wpt>

<wpt lat="35.826942443847656" lon="139.41432189941406">
 <time>2015-12-06T02:24:46ZZ</time>
 <name><![CDATA[水野本堀]]></name>
</wpt>

<wpt lat="35.828704833984375" lon="139.4173126220703">
 <time>2015-12-06T02:24:46ZZ</time>
 <name><![CDATA[入曽多目的広場南]]></name>
</wpt>

<wpt lat="35.830894470214844" lon="139.42103576660156">
 <time>2015-12-06T02:24:46ZZ</time>
 <name><![CDATA[西前原]]></name>
</wpt>

<wpt lat="35.833961486816406" lon="139.4177703857422">
 <time>2015-12-06T02:24:46ZZ</time>
 <name><![CDATA[老人福祉センター不老荘]]></name>
</wpt>

<wpt lat="35.82589340209961" lon="139.38262939453125">
 <time>2015-12-06T02:24:46ZZ</time>
 <name><![CDATA[扇町屋五]]></name>
</wpt>

<wpt lat="35.829254150390625" lon="139.3863983154297">
 <time>2015-12-06T02:24:46ZZ</time>
 <name><![CDATA[JA豊岡支店前]]></name>
</wpt>

<wpt lat="35.833683013916016" lon="139.3855438232422">
 <time>2015-12-06T02:24:46ZZ</time>
 <name><![CDATA[奈賀町]]></name>
</wpt>

<wpt lat="35.83296585083008" lon="139.38966369628906">
 <time>2015-12-06T02:24:46ZZ</time>
 <name><![CDATA[入間市市民会館]]></name>
</wpt>

<wpt lat="35.814674377441406" lon="139.3902587890625">
 <time>2015-12-06T02:24:46ZZ</time>
 <name><![CDATA[健康福祉センター]]></name>
</wpt>

<wpt lat="35.82883071899414" lon="139.3906707763672">
 <time>2015-12-06T02:24:46ZZ</time>
 <name><![CDATA[市営住宅前]]></name>
</wpt>

<wpt lat="35.798099517822266" lon="139.4322509765625">
 <time>2015-12-06T02:24:46ZZ</time>
 <name><![CDATA[市民プール入口]]></name>
</wpt>

<wpt lat="35.8084831237793" lon="139.3787384033203">
 <time>2015-12-06T02:24:46ZZ</time>
 <name><![CDATA[三井アウトレットパーク前]]></name>
</wpt>

<wpt lat="35.812808990478516" lon="139.39488220214844">
 <time>2015-12-06T02:24:46ZZ</time>
 <name><![CDATA[神明神社]]></name>
</wpt>

<wpt lat="35.82283401489258" lon="139.4077911376953">
 <time>2015-12-06T02:24:46ZZ</time>
 <name><![CDATA[藤沢駅入口]]></name>
</wpt>

<wpt lat="35.82837677001953" lon="139.40663146972656">
 <time>2015-12-06T02:24:46ZZ</time>
 <name><![CDATA[安川新道口]]></name>
</wpt>

<wpt lat="35.83427429199219" lon="139.42221069335938">
 <time>2015-12-06T02:24:46ZZ</time>
 <name><![CDATA[不老荘東]]></name>
</wpt>

<wpt lat="35.83156967163086" lon="139.37741088867188">
 <time>2015-12-06T02:24:46ZZ</time>
 <name><![CDATA[文化村]]></name>
</wpt>

<wpt lat="35.82332229614258" lon="139.4296417236328">
 <time>2015-12-06T02:24:46ZZ</time>
 <name><![CDATA[野球場南]]></name>
</wpt>

<wpt lat="35.81026077270508" lon="139.46173095703125">
 <time>2015-12-06T02:24:46ZZ</time>
 <name><![CDATA[所沢市民体育館]]></name>
</wpt>

<wpt lat="35.81300354003906" lon="139.4619598388672">
 <time>2015-12-06T02:24:46ZZ</time>
 <name><![CDATA[美原町三丁目]]></name>
</wpt>

<wpt lat="35.81672668457031" lon="139.46551513671875">
 <time>2015-12-06T02:24:46ZZ</time>
 <name><![CDATA[伸栄小学校前]]></name>
</wpt>

<wpt lat="35.821044921875" lon="139.4654998779297">
 <time>2015-12-06T02:24:46ZZ</time>
 <name><![CDATA[所沢新田]]></name>
</wpt>

<wpt lat="35.826751708984375" lon="139.46585083007812">
 <time>2015-12-06T02:24:46ZZ</time>
 <name><![CDATA[下富]]></name>
</wpt>

<wpt lat="35.826377868652344" lon="139.46170043945312">
 <time>2015-12-06T02:24:46ZZ</time>
 <name><![CDATA[富岡]]></name>
</wpt>

<wpt lat="35.83168411254883" lon="139.46495056152344">
 <time>2015-12-06T02:24:46ZZ</time>
 <name><![CDATA[西武バス所沢営業所]]></name>
</wpt>

<wpt lat="35.833560943603516" lon="139.4584197998047">
 <time>2015-12-06T02:24:46ZZ</time>
 <name><![CDATA[十四軒]]></name>
</wpt>

<wpt lat="35.83237838745117" lon="139.4534454345703">
 <time>2015-12-06T02:24:46ZZ</time>
 <name><![CDATA[雪見ヶ原]]></name>
</wpt>

<wpt lat="35.83049774169922" lon="139.4492645263672">
 <time>2015-12-06T02:24:46ZZ</time>
 <name><![CDATA[ショッピングセンター前]]></name>
</wpt>

<wpt lat="35.829185485839844" lon="139.44659423828125">
 <time>2015-12-06T02:24:46ZZ</time>
 <name><![CDATA[西武フラワーヒル]]></name>
</wpt>

<wpt lat="35.79911422729492" lon="139.47999572753906">
 <time>2015-12-06T02:24:46ZZ</time>
 <name><![CDATA[こぶし団地入口]]></name>
</wpt>

<wpt lat="35.8045654296875" lon="139.48587036132812">
 <time>2015-12-06T02:24:46ZZ</time>
 <name><![CDATA[若松町]]></name>
</wpt>

<wpt lat="35.80385971069336" lon="139.4838104248047">
 <time>2015-12-06T02:24:46ZZ</time>
 <name><![CDATA[秩父学園前]]></name>
</wpt>

<wpt lat="35.80587387084961" lon="139.4801025390625">
 <time>2015-12-06T02:24:46ZZ</time>
 <name><![CDATA[北原町中央]]></name>
</wpt>

<wpt lat="35.80653762817383" lon="139.49009704589844">
 <time>2015-12-06T02:24:46ZZ</time>
 <name><![CDATA[所沢聖地霊園]]></name>
</wpt>

<wpt lat="35.809410095214844" lon="139.49383544921875">
 <time>2015-12-06T02:24:46ZZ</time>
 <name><![CDATA[中富南]]></name>
</wpt>

<wpt lat="35.80971145629883" lon="139.48011779785156">
 <time>2015-12-06T02:24:46ZZ</time>
 <name><![CDATA[並木通り団地入口]]></name>
</wpt>

<wpt lat="35.80903625488281" lon="139.47789001464844">
 <time>2015-12-06T02:24:46ZZ</time>
 <name><![CDATA[並木通り団地]]></name>
</wpt>

<wpt lat="35.811370849609375" lon="139.48013305664062">
 <time>2015-12-06T02:24:46ZZ</time>
 <name><![CDATA[北原]]></name>
</wpt>

<wpt lat="35.81623458862305" lon="139.4709014892578">
 <time>2015-12-06T02:24:46ZZ</time>
 <name><![CDATA[ニュータウン西]]></name>
</wpt>

<wpt lat="35.813621520996094" lon="139.48153686523438">
 <time>2015-12-06T02:24:46ZZ</time>
 <name><![CDATA[市民武道館]]></name>
</wpt>

<wpt lat="35.81536102294922" lon="139.48313903808594">
 <time>2015-12-06T02:24:46ZZ</time>
 <name><![CDATA[松下]]></name>
</wpt>

<wpt lat="35.81589126586914" lon="139.47520446777344">
 <time>2015-12-06T02:24:46ZZ</time>
 <name><![CDATA[ニュータウン中央]]></name>
</wpt>

<wpt lat="35.8165397644043" lon="139.4798126220703">
 <time>2015-12-06T02:24:46ZZ</time>
 <name><![CDATA[所沢ニュータウン]]></name>
</wpt>

<wpt lat="35.81803894042969" lon="139.48748779296875">
 <time>2015-12-06T02:24:46ZZ</time>
 <name><![CDATA[中富]]></name>
</wpt>

<wpt lat="35.82002639770508" lon="139.49159240722656">
 <time>2015-12-06T02:24:46ZZ</time>
 <name><![CDATA[中富東]]></name>
</wpt>

<wpt lat="35.82208251953125" lon="139.4958953857422">
 <time>2015-12-06T02:24:46ZZ</time>
 <name><![CDATA[中富角]]></name>
</wpt>

<wpt lat="35.815574645996094" lon="139.4613800048828">
 <time>2015-12-06T02:24:46ZZ</time>
 <name><![CDATA[花園]]></name>
</wpt>

<wpt lat="35.80281448364258" lon="139.4893798828125">
 <time>2015-12-06T02:24:46ZZ</time>
 <name><![CDATA[下新井新道]]></name>
</wpt>

<wpt lat="35.79957580566406" lon="139.49169921875">
 <time>2015-12-06T02:24:46ZZ</time>
 <name><![CDATA[牛沼]]></name>
</wpt>

<wpt lat="35.83505630493164" lon="139.46536254882812">
 <time>2015-12-06T02:24:46ZZ</time>
 <name><![CDATA[シチズン前]]></name>
</wpt>

<wpt lat="35.807159423828125" lon="139.45648193359375">
 <time>2015-12-06T02:24:46ZZ</time>
 <name><![CDATA[新所沢駅東口]]></name>
</wpt>

<wpt lat="35.80626678466797" lon="139.4551544189453">
 <time>2015-12-06T02:24:46ZZ</time>
 <name><![CDATA[新所沢駅西口]]></name>
</wpt>

<wpt lat="35.82356643676758" lon="139.45037841796875">
 <time>2015-12-06T02:24:46ZZ</time>
 <name><![CDATA[富岡公民館]]></name>
</wpt>

<wpt lat="35.82367706298828" lon="139.45187377929688">
 <time>2015-12-06T02:24:46ZZ</time>
 <name><![CDATA[とみおか荘]]></name>
</wpt>

<wpt lat="35.82076644897461" lon="139.44317626953125">
 <time>2015-12-06T02:24:46ZZ</time>
 <name><![CDATA[北岩岡]]></name>
</wpt>

<wpt lat="35.81238555908203" lon="139.4481201171875">
 <time>2015-12-06T02:24:46ZZ</time>
 <name><![CDATA[向陽ハイツ前]]></name>
</wpt>

<wpt lat="35.804378509521484" lon="139.4399871826172">
 <time>2015-12-06T02:24:46ZZ</time>
 <name><![CDATA[ハナミズキ通り]]></name>
</wpt>

<wpt lat="35.80132293701172" lon="139.4379425048828">
 <time>2015-12-06T02:24:46ZZ</time>
 <name><![CDATA[小手指駅北口]]></name>
</wpt>

<wpt lat="35.799015045166016" lon="139.43505859375">
 <time>2015-12-06T02:24:46ZZ</time>
 <name><![CDATA[彩のクリニック]]></name>
</wpt>

<wpt lat="35.802310943603516" lon="139.4498291015625">
 <time>2015-12-06T02:24:46ZZ</time>
 <name><![CDATA[新所沢コミュニティセンター]]></name>
</wpt>

<wpt lat="35.80447006225586" lon="139.45213317871094">
 <time>2015-12-06T02:24:46ZZ</time>
 <name><![CDATA[緑町中央公園]]></name>
</wpt>

<wpt lat="35.810150146484375" lon="139.4552764892578">
 <time>2015-12-06T02:24:46ZZ</time>
 <name><![CDATA[北所沢町]]></name>
</wpt>

<wpt lat="35.8092155456543" lon="139.45704650878906">
 <time>2015-12-06T02:24:46ZZ</time>
 <name><![CDATA[美原町五丁目]]></name>
</wpt>

<wpt lat="35.81482696533203" lon="139.4676971435547">
 <time>2015-12-06T02:24:46ZZ</time>
 <name><![CDATA[ニュータウン南]]></name>
</wpt>

<wpt lat="35.818336486816406" lon="139.4765625">
 <time>2015-12-06T02:24:46ZZ</time>
 <name><![CDATA[中新井五丁目]]></name>
</wpt>

<wpt lat="35.8226432800293" lon="139.47531127929688">
 <time>2015-12-06T02:24:46ZZ</time>
 <name><![CDATA[月野原]]></name>
</wpt>

<wpt lat="35.826683044433594" lon="139.48126220703125">
 <time>2015-12-06T02:24:46ZZ</time>
 <name><![CDATA[所沢リハビリテーション病院]]></name>
</wpt>

<wpt lat="35.83144760131836" lon="139.47952270507812">
 <time>2015-12-06T02:24:46ZZ</time>
 <name><![CDATA[下富北]]></name>
</wpt>

<wpt lat="35.82846450805664" lon="139.4752197265625">
 <time>2015-12-06T02:24:46ZZ</time>
 <name><![CDATA[下富公民館]]></name>
</wpt>

<wpt lat="35.82589340209961" lon="139.470703125">
 <time>2015-12-06T02:24:46ZZ</time>
 <name><![CDATA[下富片側]]></name>
</wpt>

<wpt lat="35.81310272216797" lon="139.48953247070312">
 <time>2015-12-06T02:24:46ZZ</time>
 <name><![CDATA[中富南三丁目]]></name>
</wpt>

<wpt lat="35.80656051635742" lon="139.45965576171875">
 <time>2015-12-06T02:24:46ZZ</time>
 <name><![CDATA[松葉町]]></name>
</wpt>

<wpt lat="35.8062858581543" lon="139.46128845214844">
 <time>2015-12-06T02:24:46ZZ</time>
 <name><![CDATA[弥生町]]></name>
</wpt>

<wpt lat="35.801307678222656" lon="139.46481323242188">
 <time>2015-12-06T02:24:46ZZ</time>
 <name><![CDATA[防衛医大病院前]]></name>
</wpt>

<wpt lat="35.7994499206543" lon="139.46145629882812">
 <time>2015-12-06T02:24:46ZZ</time>
 <name><![CDATA[喜多町]]></name>
</wpt>

<wpt lat="35.83413314819336" lon="139.43511962890625">
 <time>2015-12-06T02:24:46ZZ</time>
 <name><![CDATA[愛武館]]></name>
</wpt>

<wpt lat="35.82902526855469" lon="139.44430541992188">
 <time>2015-12-06T02:24:46ZZ</time>
 <name><![CDATA[フラワーヒル西]]></name>
</wpt>

<wpt lat="35.829864501953125" lon="139.44131469726562">
 <time>2015-12-06T02:24:46ZZ</time>
 <name><![CDATA[東急狭山団地]]></name>
</wpt>

<wpt lat="35.83327102661133" lon="139.44964599609375">
 <time>2015-12-06T02:24:46ZZ</time>
 <name><![CDATA[大生病院入口]]></name>
</wpt>

<wpt lat="35.82252883911133" lon="139.4461669921875">
 <time>2015-12-06T02:24:46ZZ</time>
 <name><![CDATA[北田]]></name>
</wpt>

<wpt lat="35.816162109375" lon="139.44482421875">
 <time>2015-12-06T02:24:46ZZ</time>
 <name><![CDATA[西富小学校入口]]></name>
</wpt>

<wpt lat="35.82481002807617" lon="139.46031188964844">
 <time>2015-12-06T02:24:46ZZ</time>
 <name><![CDATA[富岡中学校]]></name>
</wpt>

<wpt lat="35.81737518310547" lon="139.46356201171875">
 <time>2015-12-06T02:24:46ZZ</time>
 <name><![CDATA[花園四丁目]]></name>
</wpt>

<wpt lat="35.814266204833984" lon="139.46395874023438">
 <time>2015-12-06T02:24:46ZZ</time>
 <name><![CDATA[中新井一丁目]]></name>
</wpt>

<wpt lat="35.80257034301758" lon="139.4447784423828">
 <time>2015-12-06T02:24:46ZZ</time>
 <name><![CDATA[榎町]]></name>
</wpt>

<wpt lat="35.8086051940918" lon="139.45127868652344">
 <time>2015-12-06T02:24:46ZZ</time>
 <name><![CDATA[緑町四丁目]]></name>
</wpt>

<wpt lat="35.810611724853516" lon="139.44973754882812">
 <time>2015-12-06T02:24:46ZZ</time>
 <name><![CDATA[向陽町]]></name>
</wpt>

<wpt lat="35.80486297607422" lon="139.46395874023438">
 <time>2015-12-06T02:24:46ZZ</time>
 <name><![CDATA[リハビリテーションセンター]]></name>
</wpt>

<wpt lat="35.803489685058594" lon="139.4556121826172">
 <time>2015-12-06T02:24:46ZZ</time>
 <name><![CDATA[緑町二丁目]]></name>
</wpt>

<wpt lat="35.800933837890625" lon="139.45765686035156">
 <time>2015-12-06T02:24:46ZZ</time>
 <name><![CDATA[泉町]]></name>
</wpt>

<wpt lat="35.79948425292969" lon="139.45880126953125">
 <time>2015-12-06T02:24:46ZZ</time>
 <name><![CDATA[所沢中学校前]]></name>
</wpt>

<wpt lat="35.81135559082031" lon="139.49200439453125">
 <time>2015-12-06T02:24:46ZZ</time>
 <name><![CDATA[道傍公園]]></name>
</wpt>

<wpt lat="35.812984466552734" lon="139.49501037597656">
 <time>2015-12-06T02:24:46ZZ</time>
 <name><![CDATA[武蔵原公園]]></name>
</wpt>

<wpt lat="35.8132209777832" lon="139.4717254638672">
 <time>2015-12-06T02:24:46ZZ</time>
 <name><![CDATA[並木公民館入口]]></name>
</wpt>

<wpt lat="35.827476501464844" lon="139.43692016601562">
 <time>2015-12-06T02:24:46ZZ</time>
 <name><![CDATA[入曽運動広場]]></name>
</wpt>

<wpt lat="35.79540252685547" lon="139.4812774658203">
 <time>2015-12-06T02:24:46ZZ</time>
 <name><![CDATA[新東橋]]></name>
</wpt>

<wpt lat="35.795875549316406" lon="139.45846557617188">
 <time>2015-12-06T02:24:46ZZ</time>
 <name><![CDATA[はくれん通り]]></name>
</wpt>

<wpt lat="35.82550048828125" lon="139.45419311523438">
 <time>2015-12-06T02:24:46ZZ</time>
 <name><![CDATA[ネオポリス中央]]></name>
</wpt>

<wpt lat="35.82565689086914" lon="139.45645141601562">
 <time>2015-12-06T02:24:46ZZ</time>
 <name><![CDATA[柳野公園]]></name>
</wpt>

<wpt lat="35.8270378112793" lon="139.40464782714844">
 <time>2015-12-06T02:24:46ZZ</time>
 <name><![CDATA[東台]]></name>
</wpt>

<wpt lat="35.79228973388672" lon="139.38693237304688">
 <time>2015-12-06T02:24:46ZZ</time>
 <name><![CDATA[南矢萩]]></name>
</wpt>

<wpt lat="35.775634765625" lon="139.42393493652344">
 <time>2015-12-06T02:24:46ZZ</time>
 <name><![CDATA[川辺公園]]></name>
</wpt>

<wpt lat="35.766849517822266" lon="139.4431610107422">
 <time>2015-12-06T02:24:46ZZ</time>
 <name><![CDATA[西武園ゆうえんち]]></name>
</wpt>

<wpt lat="35.806644439697266" lon="139.43881225585938">
 <time>2015-12-06T02:24:46ZZ</time>
 <name><![CDATA[小手指公園北]]></name>
</wpt>

<wpt lat="35.82899475097656" lon="139.48565673828125">
 <time>2015-12-06T02:24:46ZZ</time>
 <name><![CDATA[多聞院通り西]]></name>
</wpt>

<wpt lat="35.81184005737305" lon="139.3766632080078">
 <time>2015-12-06T02:24:46ZZ</time>
 <name><![CDATA[工業団地入口]]></name>
</wpt>

<wpt lat="35.785892486572266" lon="139.51141357421875">
 <time>2015-12-06T02:24:46ZZ</time>
 <name><![CDATA[西武グリーンヒル]]></name>
</wpt>

<wpt lat="35.79173278808594" lon="139.5031280517578">
 <time>2015-12-06T02:24:46ZZ</time>
 <name><![CDATA[下安松]]></name>
</wpt>

<wpt lat="35.79053497314453" lon="139.50234985351562">
 <time>2015-12-06T02:24:46ZZ</time>
 <name><![CDATA[愛宕山]]></name>
</wpt>

<wpt lat="35.79110336303711" lon="139.49830627441406">
 <time>2015-12-06T02:24:46ZZ</time>
 <name><![CDATA[安松]]></name>
</wpt>

<wpt lat="35.788726806640625" lon="139.50625610351562">
 <time>2015-12-06T02:24:46ZZ</time>
 <name><![CDATA[柳瀬川]]></name>
</wpt>

<wpt lat="35.79458236694336" lon="139.51771545410156">
 <time>2015-12-06T02:24:46ZZ</time>
 <name><![CDATA[名古屋]]></name>
</wpt>

<wpt lat="35.760684967041016" lon="139.54959106445312">
 <time>2015-12-06T02:24:46ZZ</time>
 <name><![CDATA[別れ道]]></name>
</wpt>

<wpt lat="35.76249313354492" lon="139.55166625976562">
 <time>2015-12-06T02:24:46ZZ</time>
 <name><![CDATA[栗原]]></name>
</wpt>

<wpt lat="35.76570129394531" lon="139.5567626953125">
 <time>2015-12-06T02:24:46ZZ</time>
 <name><![CDATA[火の見下]]></name>
</wpt>

<wpt lat="35.76717758178711" lon="139.55862426757812">
 <time>2015-12-06T02:24:46ZZ</time>
 <name><![CDATA[貝沼]]></name>
</wpt>

<wpt lat="35.77028274536133" lon="139.5327606201172">
 <time>2015-12-06T02:24:46ZZ</time>
 <name><![CDATA[小山入口]]></name>
</wpt>

<wpt lat="35.7718620300293" lon="139.53811645507812">
 <time>2015-12-06T02:24:46ZZ</time>
 <name><![CDATA[西堀南]]></name>
</wpt>

<wpt lat="35.78159713745117" lon="139.5534210205078">
 <time>2015-12-06T02:24:46ZZ</time>
 <name><![CDATA[西屋敷]]></name>
</wpt>

<wpt lat="35.79420852661133" lon="139.54672241210938">
 <time>2015-12-06T02:24:46ZZ</time>
 <name><![CDATA[中郷]]></name>
</wpt>

<wpt lat="35.794376373291016" lon="139.55294799804688">
 <time>2015-12-06T02:24:46ZZ</time>
 <name><![CDATA[野火止三丁目]]></name>
</wpt>

<wpt lat="35.7877311706543" lon="139.55401611328125">
 <time>2015-12-06T02:24:46ZZ</time>
 <name><![CDATA[台]]></name>
</wpt>

<wpt lat="35.79249954223633" lon="139.51039123535156">
 <time>2015-12-06T02:24:46ZZ</time>
 <name><![CDATA[安松中学校入口]]></name>
</wpt>

<wpt lat="35.78908920288086" lon="139.54641723632812">
 <time>2015-12-06T02:24:46ZZ</time>
 <name><![CDATA[菅沢]]></name>
</wpt>

<wpt lat="35.79213333129883" lon="139.55101013183594">
 <time>2015-12-06T02:24:46ZZ</time>
 <name><![CDATA[菅沢中央]]></name>
</wpt>

<wpt lat="35.77599334716797" lon="139.54331970214844">
 <time>2015-12-06T02:24:46ZZ</time>
 <name><![CDATA[西堀]]></name>
</wpt>

<wpt lat="35.774539947509766" lon="139.5407257080078">
 <time>2015-12-06T02:24:46ZZ</time>
 <name><![CDATA[西堀小学校]]></name>
</wpt>

<wpt lat="35.793277740478516" lon="139.5142059326172">
 <time>2015-12-06T02:24:46ZZ</time>
 <name><![CDATA[東所沢駅入口]]></name>
</wpt>

<wpt lat="35.77790069580078" lon="139.54946899414062">
 <time>2015-12-06T02:24:46ZZ</time>
 <name><![CDATA[史跡公園]]></name>
</wpt>

<wpt lat="35.78009796142578" lon="139.55899047851562">
 <time>2015-12-06T02:24:46ZZ</time>
 <name><![CDATA[新座市児童センター前]]></name>
</wpt>

<wpt lat="35.768978118896484" lon="139.56515502929688">
 <time>2015-12-06T02:24:46ZZ</time>
 <name><![CDATA[中沢]]></name>
</wpt>

<wpt lat="35.768672943115234" lon="139.5601348876953">
 <time>2015-12-06T02:24:46ZZ</time>
 <name><![CDATA[道場]]></name>
</wpt>

<wpt lat="35.776947021484375" lon="139.5612030029297">
 <time>2015-12-06T02:24:46ZZ</time>
 <name><![CDATA[福祉センター入口]]></name>
</wpt>

<wpt lat="35.774513244628906" lon="139.5628662109375">
 <time>2015-12-06T02:24:46ZZ</time>
 <name><![CDATA[堀の内橋]]></name>
</wpt>

<wpt lat="35.773616790771484" lon="139.56979370117188">
 <time>2015-12-06T02:24:46ZZ</time>
 <name><![CDATA[池田二丁目]]></name>
</wpt>

<wpt lat="35.79336166381836" lon="139.5821990966797">
 <time>2015-12-06T02:24:46ZZ</time>
 <name><![CDATA[膝折団地入口]]></name>
</wpt>

<wpt lat="35.79032516479492" lon="139.57582092285156">
 <time>2015-12-06T02:24:46ZZ</time>
 <name><![CDATA[下片山]]></name>
</wpt>

<wpt lat="35.79384994506836" lon="139.56484985351562">
 <time>2015-12-06T02:24:46ZZ</time>
 <name><![CDATA[新座市役所]]></name>
</wpt>

<wpt lat="35.79159164428711" lon="139.56346130371094">
 <time>2015-12-06T02:24:46ZZ</time>
 <name><![CDATA[陣屋]]></name>
</wpt>

<wpt lat="35.78935623168945" lon="139.56202697753906">
 <time>2015-12-06T02:24:46ZZ</time>
 <name><![CDATA[平林寺]]></name>
</wpt>

<wpt lat="35.78830337524414" lon="139.57444763183594">
 <time>2015-12-06T02:24:46ZZ</time>
 <name><![CDATA[畑中ふれあい遊園]]></name>
</wpt>

<wpt lat="35.784080505371094" lon="139.57412719726562">
 <time>2015-12-06T02:24:46ZZ</time>
 <name><![CDATA[原ヶ谷戸]]></name>
</wpt>

<wpt lat="35.7816047668457" lon="139.57261657714844">
 <time>2015-12-06T02:24:46ZZ</time>
 <name><![CDATA[蓮光寺前]]></name>
</wpt>

<wpt lat="35.78810501098633" lon="139.57565307617188">
 <time>2015-12-06T02:24:46ZZ</time>
 <name><![CDATA[東福寺前]]></name>
</wpt>

<wpt lat="35.785736083984375" lon="139.574951171875">
 <time>2015-12-06T02:24:46ZZ</time>
 <name><![CDATA[畑中二丁目]]></name>
</wpt>

<wpt lat="35.792911529541016" lon="139.5888671875">
 <time>2015-12-06T02:24:46ZZ</time>
 <name><![CDATA[緑ヶ丘]]></name>
</wpt>

<wpt lat="35.772430419921875" lon="139.60911560058594">
 <time>2015-12-06T02:24:46ZZ</time>
 <name><![CDATA[越後山]]></name>
</wpt>

<wpt lat="35.775020599365234" lon="139.6051483154297">
 <time>2015-12-06T02:24:46ZZ</time>
 <name><![CDATA[樹林公園]]></name>
</wpt>

<wpt lat="35.777584075927734" lon="139.6084747314453">
 <time>2015-12-06T02:24:46ZZ</time>
 <name><![CDATA[西大和団地南]]></name>
</wpt>

<wpt lat="35.78091812133789" lon="139.60922241210938">
 <time>2015-12-06T02:24:46ZZ</time>
 <name><![CDATA[広沢]]></name>
</wpt>

<wpt lat="35.78472900390625" lon="139.6062469482422">
 <time>2015-12-06T02:24:46ZZ</time>
 <name><![CDATA[原新田]]></name>
</wpt>

<wpt lat="35.786312103271484" lon="139.61416625976562">
 <time>2015-12-06T02:24:46ZZ</time>
 <name><![CDATA[丸山台]]></name>
</wpt>

<wpt lat="35.78205108642578" lon="139.61949157714844">
 <time>2015-12-06T02:24:46ZZ</time>
 <name><![CDATA[白子坂上]]></name>
</wpt>

<wpt lat="35.78915786743164" lon="139.59083557128906">
 <time>2015-12-06T02:24:46ZZ</time>
 <name><![CDATA[上の原]]></name>
</wpt>

<wpt lat="35.78722381591797" lon="139.59754943847656">
 <time>2015-12-06T02:24:46ZZ</time>
 <name><![CDATA[南栄町]]></name>
</wpt>

<wpt lat="35.78053283691406" lon="139.61000061035156">
 <time>2015-12-06T02:24:46ZZ</time>
 <name><![CDATA[広沢]]></name>
</wpt>

<wpt lat="35.7655029296875" lon="139.56643676757812">
 <time>2015-12-06T02:24:46ZZ</time>
 <name><![CDATA[片山二丁目]]></name>
</wpt>

<wpt lat="35.777889251708984" lon="139.58255004882812">
 <time>2015-12-06T02:24:46ZZ</time>
 <name><![CDATA[栄公民館前（福祉の里）]]></name>
</wpt>

<wpt lat="35.786102294921875" lon="139.6148223876953">
 <time>2015-12-06T02:24:46ZZ</time>
 <name><![CDATA[丸山台]]></name>
</wpt>

<wpt lat="35.78494644165039" lon="139.56024169921875">
 <time>2015-12-06T02:24:46ZZ</time>
 <name><![CDATA[新座中学校]]></name>
</wpt>

<wpt lat="35.78879165649414" lon="139.59716796875">
 <time>2015-12-06T02:24:46ZZ</time>
 <name><![CDATA[第四中学校入口]]></name>
</wpt>

<wpt lat="35.77925491333008" lon="139.60472106933594">
 <time>2015-12-06T02:24:46ZZ</time>
 <name><![CDATA[国際高校入口]]></name>
</wpt>

<wpt lat="35.794803619384766" lon="139.58953857421875">
 <time>2015-12-06T02:24:46ZZ</time>
 <name><![CDATA[朝霞第一中学校]]></name>
</wpt>

<wpt lat="35.79261016845703" lon="139.59715270996094">
 <time>2015-12-06T02:24:46ZZ</time>
 <name><![CDATA[図書館入口]]></name>
</wpt>

<wpt lat="35.78997802734375" lon="139.58786010742188">
 <time>2015-12-06T02:24:46ZZ</time>
 <name><![CDATA[朝霞警察署前]]></name>
</wpt>

<wpt lat="35.778472900390625" lon="139.57066345214844">
 <time>2015-12-06T02:24:46ZZ</time>
 <name><![CDATA[新座高校]]></name>
</wpt>

<wpt lat="35.790687561035156" lon="139.58457946777344">
 <time>2015-12-06T02:24:46ZZ</time>
 <name><![CDATA[膝折坂下]]></name>
</wpt>

<wpt lat="35.77094268798828" lon="139.56488037109375">
 <time>2015-12-06T02:24:46ZZ</time>
 <name><![CDATA[片山小学校]]></name>
</wpt>

<wpt lat="35.77769470214844" lon="139.57643127441406">
 <time>2015-12-06T02:24:46ZZ</time>
 <name><![CDATA[第四小学校入口]]></name>
</wpt>

<wpt lat="35.772422790527344" lon="139.60508728027344">
 <time>2015-12-06T02:24:46ZZ</time>
 <name><![CDATA[和光市南]]></name>
</wpt>

<wpt lat="35.780975341796875" lon="139.6051788330078">
 <time>2015-12-06T02:24:46ZZ</time>
 <name><![CDATA[和光市役所前]]></name>
</wpt>

<wpt lat="35.792911529541016" lon="139.57598876953125">
 <time>2015-12-06T02:24:46ZZ</time>
 <name><![CDATA[榎木ガード]]></name>
</wpt>

<wpt lat="35.78611373901367" lon="139.61949157714844">
 <time>2015-12-06T02:24:46ZZ</time>
 <name><![CDATA[谷戸橋]]></name>
</wpt>

<wpt lat="35.78492736816406" lon="139.6172332763672">
 <time>2015-12-06T02:24:46ZZ</time>
 <name><![CDATA[大和中学校]]></name>
</wpt>

<wpt lat="35.78776168823242" lon="139.60702514648438">
 <time>2015-12-06T02:24:46ZZ</time>
 <name><![CDATA[図書館]]></name>
</wpt>

<wpt lat="35.791847229003906" lon="139.60791015625">
 <time>2015-12-06T02:24:46ZZ</time>
 <name><![CDATA[北原小学校入口]]></name>
</wpt>

<wpt lat="35.78809356689453" lon="139.59474182128906">
 <time>2015-12-06T02:24:46ZZ</time>
 <name><![CDATA[栄町五丁目]]></name>
</wpt>

<wpt lat="35.75989532470703" lon="139.55772399902344">
 <time>2015-12-06T02:24:46ZZ</time>
 <name><![CDATA[野寺小学校東]]></name>
</wpt>

<wpt lat="35.791282653808594" lon="139.61544799804688">
 <time>2015-12-06T02:24:46ZZ</time>
 <name><![CDATA[新倉ロータリー]]></name>
</wpt>

<wpt lat="35.783912658691406" lon="139.6109619140625">
 <time>2015-12-06T02:24:46ZZ</time>
 <name><![CDATA[中央公民館]]></name>
</wpt>

<wpt lat="35.782745361328125" lon="139.61781311035156">
 <time>2015-12-06T02:24:46ZZ</time>
 <name><![CDATA[大和中学校入口]]></name>
</wpt>

<wpt lat="35.77643585205078" lon="139.61959838867188">
 <time>2015-12-06T02:24:46ZZ</time>
 <name><![CDATA[和光陸橋]]></name>
</wpt>

<wpt lat="35.772727966308594" lon="139.6198272705078">
 <time>2015-12-06T02:24:46ZZ</time>
 <name><![CDATA[五小学校入口]]></name>
</wpt>

<wpt lat="35.77294158935547" lon="139.61410522460938">
 <time>2015-12-06T02:24:46ZZ</time>
 <name><![CDATA[第三中学校]]></name>
</wpt>

<wpt lat="35.77151870727539" lon="139.60693359375">
 <time>2015-12-06T02:24:46ZZ</time>
 <name><![CDATA[ふれあい農園]]></name>
</wpt>

<wpt lat="35.769508361816406" lon="139.60812377929688">
 <time>2015-12-06T02:24:46ZZ</time>
 <name><![CDATA[越後山テニスコート場]]></name>
</wpt>

<wpt lat="35.771583557128906" lon="139.61204528808594">
 <time>2015-12-06T02:24:46ZZ</time>
 <name><![CDATA[越後山橋入口]]></name>
</wpt>

<wpt lat="35.772422790527344" lon="139.60812377929688">
 <time>2015-12-06T02:24:46ZZ</time>
 <name><![CDATA[南大和団地]]></name>
</wpt>

<wpt lat="35.77824783325195" lon="139.6054229736328">
 <time>2015-12-06T02:24:46ZZ</time>
 <name><![CDATA[樹林公園]]></name>
</wpt>

<wpt lat="35.771785736083984" lon="139.6021270751953">
 <time>2015-12-06T02:24:46ZZ</time>
 <name><![CDATA[二軒新田]]></name>
</wpt>

<wpt lat="35.77460861206055" lon="139.61024475097656">
 <time>2015-12-06T02:24:46ZZ</time>
 <name><![CDATA[裁判所職員総合研修所]]></name>
</wpt>

<wpt lat="35.767364501953125" lon="139.620849609375">
 <time>2015-12-06T02:24:46ZZ</time>
 <name><![CDATA[白子折返場]]></name>
</wpt>

<wpt lat="35.794219970703125" lon="139.58236694335938">
 <time>2015-12-06T02:24:46ZZ</time>
 <name><![CDATA[末無川]]></name>
</wpt>

<wpt lat="35.77297592163086" lon="139.60374450683594">
 <time>2015-12-06T02:24:46ZZ</time>
 <name><![CDATA[司法研修所入口]]></name>
</wpt>

<wpt lat="35.78611373901367" lon="139.60369873046875">
 <time>2015-12-06T02:24:46ZZ</time>
 <name><![CDATA[本町小学校]]></name>
</wpt>

<wpt lat="35.78688430786133" lon="139.59176635742188">
 <time>2015-12-06T02:24:46ZZ</time>
 <name><![CDATA[税務大学研修所前]]></name>
</wpt>

<wpt lat="35.78536605834961" lon="139.60057067871094">
 <time>2015-12-06T02:24:46ZZ</time>
 <name><![CDATA[自衛隊朝霞門]]></name>
</wpt>

<wpt lat="35.772071838378906" lon="139.56781005859375">
 <time>2015-12-06T02:24:46ZZ</time>
 <name><![CDATA[あけぼの住宅前]]></name>
</wpt>

<wpt lat="35.771583557128906" lon="139.6026611328125">
 <time>2015-12-06T02:24:46ZZ</time>
 <name><![CDATA[南一]]></name>
</wpt>

<wpt lat="35.77623748779297" lon="139.60653686523438">
 <time>2015-12-06T02:24:46ZZ</time>
 <name><![CDATA[税務大学校和光校舎]]></name>
</wpt>

<wpt lat="35.7978630065918" lon="139.51132202148438">
 <time>2015-12-06T02:24:46ZZ</time>
 <name><![CDATA[和田]]></name>
</wpt>

<wpt lat="35.79783630371094" lon="139.51361083984375">
 <time>2015-12-06T02:24:46ZZ</time>
 <name><![CDATA[東所沢一丁目]]></name>
</wpt>

<wpt lat="35.79747009277344" lon="139.52354431152344">
 <time>2015-12-06T02:24:46ZZ</time>
 <name><![CDATA[本郷]]></name>
</wpt>

<wpt lat="35.79936599731445" lon="139.51870727539062">
 <time>2015-12-06T02:24:46ZZ</time>
 <name><![CDATA[東所沢三丁目]]></name>
</wpt>

<wpt lat="35.799713134765625" lon="139.4977569580078">
 <time>2015-12-06T02:24:46ZZ</time>
 <name><![CDATA[所沢車検場前]]></name>
</wpt>

<wpt lat="35.799560546875" lon="139.51016235351562">
 <time>2015-12-06T02:24:46ZZ</time>
 <name><![CDATA[新日比田橋]]></name>
</wpt>

<wpt lat="35.80562210083008" lon="139.5218505859375">
 <time>2015-12-06T02:24:46ZZ</time>
 <name><![CDATA[柳瀬小学校前]]></name>
</wpt>

<wpt lat="35.81215286254883" lon="139.49827575683594">
 <time>2015-12-06T02:24:46ZZ</time>
 <name><![CDATA[エステシティ中央]]></name>
</wpt>

<wpt lat="35.81087112426758" lon="139.521240234375">
 <time>2015-12-06T02:24:46ZZ</time>
 <name><![CDATA[やなせ荘入口]]></name>
</wpt>

<wpt lat="35.814056396484375" lon="139.50230407714844">
 <time>2015-12-06T02:24:46ZZ</time>
 <name><![CDATA[エステシティ所沢]]></name>
</wpt>

<wpt lat="35.81545639038086" lon="139.50930786132812">
 <time>2015-12-06T02:24:46ZZ</time>
 <name><![CDATA[南永井]]></name>
</wpt>

<wpt lat="35.81709289550781" lon="139.51425170898438">
 <time>2015-12-06T02:24:46ZZ</time>
 <name><![CDATA[八幡神社前]]></name>
</wpt>

<wpt lat="35.815956115722656" lon="139.5198211669922">
 <time>2015-12-06T02:24:46ZZ</time>
 <name><![CDATA[窪野]]></name>
</wpt>

<wpt lat="35.82442855834961" lon="139.50010681152344">
 <time>2015-12-06T02:24:46ZZ</time>
 <name><![CDATA[中西]]></name>
</wpt>

<wpt lat="35.827674865722656" lon="139.50579833984375">
 <time>2015-12-06T02:24:46ZZ</time>
 <name><![CDATA[上富]]></name>
</wpt>

<wpt lat="35.824615478515625" lon="139.50875854492188">
 <time>2015-12-06T02:24:46ZZ</time>
 <name><![CDATA[下組]]></name>
</wpt>

<wpt lat="35.829071044921875" lon="139.5147705078125">
 <time>2015-12-06T02:24:46ZZ</time>
 <name><![CDATA[三芳中学校]]></name>
</wpt>

<wpt lat="35.826080322265625" lon="139.51812744140625">
 <time>2015-12-06T02:24:46ZZ</time>
 <name><![CDATA[三芳合金前]]></name>
</wpt>

<wpt lat="35.83079147338867" lon="139.51907348632812">
 <time>2015-12-06T02:24:46ZZ</time>
 <name><![CDATA[三芳小学校]]></name>
</wpt>

<wpt lat="35.7971076965332" lon="139.55526733398438">
 <time>2015-12-06T02:24:46ZZ</time>
 <name><![CDATA[オリエンタル酵母工業前]]></name>
</wpt>

<wpt lat="35.80158233642578" lon="139.52955627441406">
 <time>2015-12-06T02:24:46ZZ</time>
 <name><![CDATA[城]]></name>
</wpt>

<wpt lat="35.805755615234375" lon="139.53582763671875">
 <time>2015-12-06T02:24:46ZZ</time>
 <name><![CDATA[坂の下上]]></name>
</wpt>

<wpt lat="35.807369232177734" lon="139.53900146484375">
 <time>2015-12-06T02:24:46ZZ</time>
 <name><![CDATA[金毘羅]]></name>
</wpt>

<wpt lat="35.809906005859375" lon="139.55010986328125">
 <time>2015-12-06T02:24:46ZZ</time>
 <name><![CDATA[英橋]]></name>
</wpt>

<wpt lat="35.811038970947266" lon="139.55105590820312">
 <time>2015-12-06T02:24:46ZZ</time>
 <name><![CDATA[大和田]]></name>
</wpt>

<wpt lat="35.813533782958984" lon="139.54481506347656">
 <time>2015-12-06T02:24:46ZZ</time>
 <name><![CDATA[西側]]></name>
</wpt>

<wpt lat="35.81318283081055" lon="139.55332946777344">
 <time>2015-12-06T02:24:46ZZ</time>
 <name><![CDATA[新座柳瀬高校入口]]></name>
</wpt>

<wpt lat="35.81515121459961" lon="139.5554656982422">
 <time>2015-12-06T02:24:46ZZ</time>
 <name><![CDATA[新座車庫]]></name>
</wpt>

<wpt lat="35.80006790161133" lon="139.55767822265625">
 <time>2015-12-06T02:24:46ZZ</time>
 <name><![CDATA[野火止小学校]]></name>
</wpt>

<wpt lat="35.81694793701172" lon="139.5453643798828">
 <time>2015-12-06T02:24:46ZZ</time>
 <name><![CDATA[中野]]></name>
</wpt>

<wpt lat="35.81867599487305" lon="139.55528259277344">
 <time>2015-12-06T02:24:46ZZ</time>
 <name><![CDATA[団地南]]></name>
</wpt>

<wpt lat="35.822227478027344" lon="139.55642700195312">
 <time>2015-12-06T02:24:46ZZ</time>
 <name><![CDATA[新座団地]]></name>
</wpt>

<wpt lat="35.824851989746094" lon="139.5372314453125">
 <time>2015-12-06T02:24:46ZZ</time>
 <name><![CDATA[みずほ台駅入口]]></name>
</wpt>

<wpt lat="35.83559799194336" lon="139.52830505371094">
 <time>2015-12-06T02:24:46ZZ</time>
 <name><![CDATA[飯能信用金庫前]]></name>
</wpt>

<wpt lat="35.82753372192383" lon="139.5125732421875">
 <time>2015-12-06T02:24:46ZZ</time>
 <name><![CDATA[上富橋]]></name>
</wpt>

<wpt lat="35.82793045043945" lon="139.52545166015625">
 <time>2015-12-06T02:24:46ZZ</time>
 <name><![CDATA[三芳役場]]></name>
</wpt>

<wpt lat="35.82545471191406" lon="139.52760314941406">
 <time>2015-12-06T02:24:46ZZ</time>
 <name><![CDATA[運動公園入口]]></name>
</wpt>

<wpt lat="35.82429122924805" lon="139.5247802734375">
 <time>2015-12-06T02:24:46ZZ</time>
 <name><![CDATA[芝原]]></name>
</wpt>

<wpt lat="35.822975158691406" lon="139.52044677734375">
 <time>2015-12-06T02:24:46ZZ</time>
 <name><![CDATA[竹下工業前]]></name>
</wpt>

<wpt lat="35.82535171508789" lon="139.51927185058594">
 <time>2015-12-06T02:24:46ZZ</time>
 <name><![CDATA[正電社前]]></name>
</wpt>

<wpt lat="35.825504302978516" lon="139.51675415039062">
 <time>2015-12-06T02:24:46ZZ</time>
 <name><![CDATA[東草橋]]></name>
</wpt>

<wpt lat="35.82194900512695" lon="139.51219177246094">
 <time>2015-12-06T02:24:46ZZ</time>
 <name><![CDATA[東草]]></name>
</wpt>

<wpt lat="35.83647155761719" lon="139.49864196777344">
 <time>2015-12-06T02:24:46ZZ</time>
 <name><![CDATA[多福寺]]></name>
</wpt>

<wpt lat="35.806861877441406" lon="139.5559539794922">
 <time>2015-12-06T02:24:46ZZ</time>
 <name><![CDATA[新座駅北入口]]></name>
</wpt>

<wpt lat="35.811378479003906" lon="139.54428100585938">
 <time>2015-12-06T02:24:46ZZ</time>
 <name><![CDATA[坂の下]]></name>
</wpt>

<wpt lat="35.816463470458984" lon="139.55677795410156">
 <time>2015-12-06T02:24:46ZZ</time>
 <name><![CDATA[新座団地入口]]></name>
</wpt>

<wpt lat="35.81817626953125" lon="139.5437469482422">
 <time>2015-12-06T02:24:46ZZ</time>
 <name><![CDATA[跡見女子大]]></name>
</wpt>

<wpt lat="35.8344612121582" lon="139.54736328125">
 <time>2015-12-06T02:24:46ZZ</time>
 <name><![CDATA[みよし台]]></name>
</wpt>

<wpt lat="35.83207702636719" lon="139.544677734375">
 <time>2015-12-06T02:24:46ZZ</time>
 <name><![CDATA[新開公園前]]></name>
</wpt>

<wpt lat="35.8270378112793" lon="139.53932189941406">
 <time>2015-12-06T02:24:46ZZ</time>
 <name><![CDATA[大日本印刷前]]></name>
</wpt>

<wpt lat="35.836509704589844" lon="139.52944946289062">
 <time>2015-12-06T02:24:46ZZ</time>
 <name><![CDATA[藤久保信号]]></name>
</wpt>

<wpt lat="35.823692321777344" lon="139.53250122070312">
 <time>2015-12-06T02:24:46ZZ</time>
 <name><![CDATA[埼玉スポーツセンター前]]></name>
</wpt>

<wpt lat="35.82388687133789" lon="139.53526306152344">
 <time>2015-12-06T02:24:46ZZ</time>
 <name><![CDATA[通西]]></name>
</wpt>

<wpt lat="35.83598709106445" lon="139.51573181152344">
 <time>2015-12-06T02:24:46ZZ</time>
 <name><![CDATA[中ノ久保]]></name>
</wpt>

<wpt lat="35.83302688598633" lon="139.51173400878906">
 <time>2015-12-06T02:24:46ZZ</time>
 <name><![CDATA[エーキドー]]></name>
</wpt>

<wpt lat="35.831459045410156" lon="139.51243591308594">
 <time>2015-12-06T02:24:46ZZ</time>
 <name><![CDATA[森の里団地前]]></name>
</wpt>

<wpt lat="35.83013916015625" lon="139.50311279296875">
 <time>2015-12-06T02:24:46ZZ</time>
 <name><![CDATA[学校前]]></name>
</wpt>

<wpt lat="35.811241149902344" lon="139.49874877929688">
 <time>2015-12-06T02:24:46ZZ</time>
 <name><![CDATA[大岾]]></name>
</wpt>

<wpt lat="35.80672836303711" lon="139.50653076171875">
 <time>2015-12-06T02:24:46ZZ</time>
 <name><![CDATA[向山]]></name>
</wpt>

<wpt lat="35.80680847167969" lon="139.51651000976562">
 <time>2015-12-06T02:24:46ZZ</time>
 <name><![CDATA[柳瀬民俗資料館]]></name>
</wpt>

<wpt lat="35.799930572509766" lon="139.5228729248047">
 <time>2015-12-06T02:24:46ZZ</time>
 <name><![CDATA[柳瀬分署]]></name>
</wpt>

<wpt lat="35.80426788330078" lon="139.52146911621094">
 <time>2015-12-06T02:24:46ZZ</time>
 <name><![CDATA[柳瀬公民館入口]]></name>
</wpt>

<wpt lat="35.799686431884766" lon="139.51710510253906">
 <time>2015-12-06T02:24:46ZZ</time>
 <name><![CDATA[東所沢小学校東]]></name>
</wpt>

<wpt lat="35.802066802978516" lon="139.51657104492188">
 <time>2015-12-06T02:24:46ZZ</time>
 <name><![CDATA[東所沢二丁目]]></name>
</wpt>

<wpt lat="35.805118560791016" lon="139.5181121826172">
 <time>2015-12-06T02:24:46ZZ</time>
 <name><![CDATA[亀ヶ谷公園]]></name>
</wpt>

<wpt lat="35.832923889160156" lon="139.52317810058594">
 <time>2015-12-06T02:24:46ZZ</time>
 <name><![CDATA[浄水場入口]]></name>
</wpt>

<wpt lat="35.803627014160156" lon="139.4971923828125">
 <time>2015-12-06T02:24:46ZZ</time>
 <name><![CDATA[東部クリーンセンター西]]></name>
</wpt>

<wpt lat="35.82704544067383" lon="139.50628662109375">
 <time>2015-12-06T02:24:46ZZ</time>
 <name><![CDATA[角屋]]></name>
</wpt>

<wpt lat="35.831787109375" lon="139.50180053710938">
 <time>2015-12-06T02:24:46ZZ</time>
 <name><![CDATA[中組]]></name>
</wpt>

<wpt lat="35.829654693603516" lon="139.5420379638672">
 <time>2015-12-06T02:24:46ZZ</time>
 <name><![CDATA[新開]]></name>
</wpt>

<wpt lat="35.797786712646484" lon="139.50242614746094">
 <time>2015-12-06T02:24:46ZZ</time>
 <name><![CDATA[松郷中央]]></name>
</wpt>

<wpt lat="35.79915237426758" lon="139.57403564453125">
 <time>2015-12-06T02:24:46ZZ</time>
 <name><![CDATA[野火止坂上]]></name>
</wpt>

<wpt lat="35.7951774597168" lon="139.57757568359375">
 <time>2015-12-06T02:24:46ZZ</time>
 <name><![CDATA[榎木]]></name>
</wpt>

<wpt lat="35.79680633544922" lon="139.57974243164062">
 <time>2015-12-06T02:24:46ZZ</time>
 <name><![CDATA[膝折]]></name>
</wpt>

<wpt lat="35.79599380493164" lon="139.58639526367188">
 <time>2015-12-06T02:24:46ZZ</time>
 <name><![CDATA[幸町一丁目]]></name>
</wpt>

<wpt lat="35.79814529418945" lon="139.58953857421875">
 <time>2015-12-06T02:24:46ZZ</time>
 <name><![CDATA[桜ヶ丘]]></name>
</wpt>

<wpt lat="35.800331115722656" lon="139.57687377929688">
 <time>2015-12-06T02:24:46ZZ</time>
 <name><![CDATA[下の原入口]]></name>
</wpt>

<wpt lat="35.80322265625" lon="139.5833282470703">
 <time>2015-12-06T02:24:46ZZ</time>
 <name><![CDATA[溝沼子どもプール入口]]></name>
</wpt>

<wpt lat="35.8013916015625" lon="139.5862274169922">
 <time>2015-12-06T02:24:46ZZ</time>
 <name><![CDATA[溝沼三丁目]]></name>
</wpt>

<wpt lat="35.805965423583984" lon="139.57647705078125">
 <time>2015-12-06T02:24:46ZZ</time>
 <name><![CDATA[水道道路入口]]></name>
</wpt>

<wpt lat="35.80375289916992" lon="139.57650756835938">
 <time>2015-12-06T02:24:46ZZ</time>
 <name><![CDATA[島の上]]></name>
</wpt>

<wpt lat="35.80473709106445" lon="139.58230590820312">
 <time>2015-12-06T02:24:46ZZ</time>
 <name><![CDATA[西朝霞公民館入口]]></name>
</wpt>

<wpt lat="35.80777359008789" lon="139.58731079101562">
 <time>2015-12-06T02:24:46ZZ</time>
 <name><![CDATA[第三中学校]]></name>
</wpt>

<wpt lat="35.805965423583984" lon="139.58897399902344">
 <time>2015-12-06T02:24:46ZZ</time>
 <name><![CDATA[溝沼火の見下]]></name>
</wpt>

<wpt lat="35.809120178222656" lon="139.56468200683594">
 <time>2015-12-06T02:24:46ZZ</time>
 <name><![CDATA[山川工業前]]></name>
</wpt>

<wpt lat="35.81157302856445" lon="139.56631469726562">
 <time>2015-12-06T02:24:46ZZ</time>
 <name><![CDATA[北野入口]]></name>
</wpt>

<wpt lat="35.8110466003418" lon="139.57620239257812">
 <time>2015-12-06T02:24:46ZZ</time>
 <name><![CDATA[下の原]]></name>
</wpt>

<wpt lat="35.80876922607422" lon="139.57620239257812">
 <time>2015-12-06T02:24:46ZZ</time>
 <name><![CDATA[泉水上]]></name>
</wpt>

<wpt lat="35.81020736694336" lon="139.5862579345703">
 <time>2015-12-06T02:24:46ZZ</time>
 <name><![CDATA[弁財坂下]]></name>
</wpt>

<wpt lat="35.814369201660156" lon="139.5814971923828">
 <time>2015-12-06T02:24:46ZZ</time>
 <name><![CDATA[西弁財]]></name>
</wpt>

<wpt lat="35.81827926635742" lon="139.5604705810547">
 <time>2015-12-06T02:24:46ZZ</time>
 <name><![CDATA[富士見ヶ丘団地]]></name>
</wpt>

<wpt lat="35.81968307495117" lon="139.5628662109375">
 <time>2015-12-06T02:24:46ZZ</time>
 <name><![CDATA[久保]]></name>
</wpt>

<wpt lat="35.816776275634766" lon="139.56741333007812">
 <time>2015-12-06T02:24:46ZZ</time>
 <name><![CDATA[東寮前]]></name>
</wpt>

<wpt lat="35.820350646972656" lon="139.57168579101562">
 <time>2015-12-06T02:24:46ZZ</time>
 <name><![CDATA[新座志木中央総合病院]]></name>
</wpt>

<wpt lat="35.81871032714844" lon="139.5770263671875">
 <time>2015-12-06T02:24:46ZZ</time>
 <name><![CDATA[境久保]]></name>
</wpt>

<wpt lat="35.81642150878906" lon="139.57928466796875">
 <time>2015-12-06T02:24:46ZZ</time>
 <name><![CDATA[霞ヶ丘住宅]]></name>
</wpt>

<wpt lat="35.81889343261719" lon="139.57626342773438">
 <time>2015-12-06T02:24:46ZZ</time>
 <name><![CDATA[北野]]></name>
</wpt>

<wpt lat="35.81903839111328" lon="139.58663940429688">
 <time>2015-12-06T02:24:46ZZ</time>
 <name><![CDATA[第七小学校入口]]></name>
</wpt>

<wpt lat="35.8214111328125" lon="139.56585693359375">
 <time>2015-12-06T02:24:46ZZ</time>
 <name><![CDATA[協和住宅]]></name>
</wpt>

<wpt lat="35.82352828979492" lon="139.56834411621094">
 <time>2015-12-06T02:24:46ZZ</time>
 <name><![CDATA[稲荷山]]></name>
</wpt>

<wpt lat="35.82451629638672" lon="139.58346557617188">
 <time>2015-12-06T02:24:46ZZ</time>
 <name><![CDATA[朝志ヶ丘]]></name>
</wpt>

<wpt lat="35.82182312011719" lon="139.58755493164062">
 <time>2015-12-06T02:24:46ZZ</time>
 <name><![CDATA[宮戸]]></name>
</wpt>

<wpt lat="35.827178955078125" lon="139.57228088378906">
 <time>2015-12-06T02:24:46ZZ</time>
 <name><![CDATA[中道]]></name>
</wpt>

<wpt lat="35.82769775390625" lon="139.5767822265625">
 <time>2015-12-06T02:24:46ZZ</time>
 <name><![CDATA[双葉町]]></name>
</wpt>

<wpt lat="35.825836181640625" lon="139.57846069335938">
 <time>2015-12-06T02:24:46ZZ</time>
 <name><![CDATA[慶応高校]]></name>
</wpt>

<wpt lat="35.82563781738281" lon="139.5817413330078">
 <time>2015-12-06T02:24:46ZZ</time>
 <name><![CDATA[大原]]></name>
</wpt>

<wpt lat="35.83258819580078" lon="139.57591247558594">
 <time>2015-12-06T02:24:46ZZ</time>
 <name><![CDATA[登記所前]]></name>
</wpt>

<wpt lat="35.83064270019531" lon="139.57862854003906">
 <time>2015-12-06T02:24:46ZZ</time>
 <name><![CDATA[昭和新道]]></name>
</wpt>

<wpt lat="35.829105377197266" lon="139.5743408203125">
 <time>2015-12-06T02:24:46ZZ</time>
 <name><![CDATA[柏町四丁目]]></name>
</wpt>

<wpt lat="35.83170700073242" lon="139.57887268066406">
 <time>2015-12-06T02:24:46ZZ</time>
 <name><![CDATA[上町]]></name>
</wpt>

<wpt lat="35.833412170410156" lon="139.57217407226562">
 <time>2015-12-06T02:24:46ZZ</time>
 <name><![CDATA[中野下引返場]]></name>
</wpt>

<wpt lat="35.83416748046875" lon="139.57752990722656">
 <time>2015-12-06T02:24:46ZZ</time>
 <name><![CDATA[消防署前]]></name>
</wpt>

<wpt lat="35.7979736328125" lon="139.59109497070312">
 <time>2015-12-06T02:24:46ZZ</time>
 <name><![CDATA[旭通り]]></name>
</wpt>

<wpt lat="35.79860305786133" lon="139.60545349121094">
 <time>2015-12-06T02:24:46ZZ</time>
 <name><![CDATA[東朝霞公民館]]></name>
</wpt>

<wpt lat="35.799598693847656" lon="139.61074829101562">
 <time>2015-12-06T02:24:46ZZ</time>
 <name><![CDATA[根岸台保育園]]></name>
</wpt>

<wpt lat="35.80097579956055" lon="139.6002960205078">
 <time>2015-12-06T02:24:46ZZ</time>
 <name><![CDATA[天ヶ久保]]></name>
</wpt>

<wpt lat="35.8047981262207" lon="139.59214782714844">
 <time>2015-12-06T02:24:46ZZ</time>
 <name><![CDATA[溝沼坂下]]></name>
</wpt>

<wpt lat="35.808250427246094" lon="139.59646606445312">
 <time>2015-12-06T02:24:46ZZ</time>
 <name><![CDATA[朝霞橋]]></name>
</wpt>

<wpt lat="35.80390548706055" lon="139.59986877441406">
 <time>2015-12-06T02:24:46ZZ</time>
 <name><![CDATA[岡]]></name>
</wpt>

<wpt lat="35.80406951904297" lon="139.61282348632812">
 <time>2015-12-06T02:24:46ZZ</time>
 <name><![CDATA[根岸台四丁目]]></name>
</wpt>

<wpt lat="35.80972671508789" lon="139.59579467773438">
 <time>2015-12-06T02:24:46ZZ</time>
 <name><![CDATA[岡二丁目]]></name>
</wpt>

<wpt lat="35.80880355834961" lon="139.59898376464844">
 <time>2015-12-06T02:24:46ZZ</time>
 <name><![CDATA[東円寺]]></name>
</wpt>

<wpt lat="35.81116485595703" lon="139.60665893554688">
 <time>2015-12-06T02:24:46ZZ</time>
 <name><![CDATA[笹橋]]></name>
</wpt>

<wpt lat="35.812255859375" lon="139.5939178466797">
 <time>2015-12-06T02:24:46ZZ</time>
 <name><![CDATA[博物館入口]]></name>
</wpt>

<wpt lat="35.81866455078125" lon="139.5928192138672">
 <time>2015-12-06T02:24:46ZZ</time>
 <name><![CDATA[浜崎]]></name>
</wpt>

<wpt lat="35.81898498535156" lon="139.59619140625">
 <time>2015-12-06T02:24:46ZZ</time>
 <name><![CDATA[浜崎四丁目]]></name>
</wpt>

<wpt lat="35.819908142089844" lon="139.60093688964844">
 <time>2015-12-06T02:24:46ZZ</time>
 <name><![CDATA[内間木支所前]]></name>
</wpt>

<wpt lat="35.8183708190918" lon="139.60585021972656">
 <time>2015-12-06T02:24:46ZZ</time>
 <name><![CDATA[朝霞田島]]></name>
</wpt>

<wpt lat="35.8183708190918" lon="139.60585021972656">
 <time>2015-12-06T02:24:46ZZ</time>
 <name><![CDATA[内間木公民館前]]></name>
</wpt>

<wpt lat="35.820186614990234" lon="139.6072540283203">
 <time>2015-12-06T02:24:46ZZ</time>
 <name><![CDATA[新盛橋]]></name>
</wpt>

<wpt lat="35.824501037597656" lon="139.6103515625">
 <time>2015-12-06T02:24:46ZZ</time>
 <name><![CDATA[上内間木三在]]></name>
</wpt>

<wpt lat="35.82695007324219" lon="139.60850524902344">
 <time>2015-12-06T02:24:46ZZ</time>
 <name><![CDATA[丸沼]]></name>
</wpt>

<wpt lat="35.83439636230469" lon="139.60397338867188">
 <time>2015-12-06T02:24:46ZZ</time>
 <name><![CDATA[秋ヶ瀬橋]]></name>
</wpt>

<wpt lat="35.79811096191406" lon="139.58541870117188">
 <time>2015-12-06T02:24:46ZZ</time>
 <name><![CDATA[膝折町五丁目]]></name>
</wpt>

<wpt lat="35.806983947753906" lon="139.58302307128906">
 <time>2015-12-06T02:24:46ZZ</time>
 <name><![CDATA[泉水三丁目]]></name>
</wpt>

<wpt lat="35.8354606628418" lon="139.5977325439453">
 <time>2015-12-06T02:24:46ZZ</time>
 <name><![CDATA[下宗岡三丁目]]></name>
</wpt>

<wpt lat="35.81932067871094" lon="139.5886993408203">
 <time>2015-12-06T02:24:46ZZ</time>
 <name><![CDATA[浄水場入口]]></name>
</wpt>

<wpt lat="35.81626892089844" lon="139.57647705078125">
 <time>2015-12-06T02:24:46ZZ</time>
 <name><![CDATA[境久保]]></name>
</wpt>

<wpt lat="35.79595947265625" lon="139.566162109375">
 <time>2015-12-06T02:24:46ZZ</time>
 <name><![CDATA[望芙台住宅]]></name>
</wpt>

<wpt lat="35.817176818847656" lon="139.57241821289062">
 <time>2015-12-06T02:24:46ZZ</time>
 <name><![CDATA[東北二丁目]]></name>
</wpt>