<?xml version="1.0" encoding="UTF-8" ?>
<gpx xmlns="http://www.topografix.com/GPX/1/1" version="1.1" creator="osmtracker-android" xmlns:xsi="http://www.w3.org/2001/XMLSchema-instance" xsi:schemaLocation="http://www.topografix.com/GPX/1/1 http://www.topografix.com/GPX/1/1/gpx.xsd ">
<metadata>
<name><![CDATA[バス停 : 奈良]]></name>
<desc><![CDATA[国土数値情報に基づく]]></desc>
</metadata>
<wpt lat="34.609249114990234" lon="135.96197509765625">
 <time>2015-12-06T02:24:46ZZ</time>
 <name><![CDATA[大和高原都祁]]></name>
</wpt>

<wpt lat="34.718685150146484" lon="136.06182861328125">
 <time>2015-12-06T02:24:46ZZ</time>
 <name><![CDATA[石打]]></name>
</wpt>

<wpt lat="34.71722412109375" lon="136.0563201904297">
 <time>2015-12-06T02:24:46ZZ</time>
 <name><![CDATA[寺脇]]></name>
</wpt>

<wpt lat="34.710182189941406" lon="136.04507446289062">
 <time>2015-12-06T02:24:46ZZ</time>
 <name><![CDATA[尾山診療所前]]></name>
</wpt>

<wpt lat="34.709049224853516" lon="136.04440307617188">
 <time>2015-12-06T02:24:46ZZ</time>
 <name><![CDATA[尾山]]></name>
</wpt>

<wpt lat="34.707637786865234" lon="136.03219604492188">
 <time>2015-12-06T02:24:46ZZ</time>
 <name><![CDATA[月瀬橋]]></name>
</wpt>

<wpt lat="34.70464324951172" lon="136.02621459960938">
 <time>2015-12-06T02:24:46ZZ</time>
 <name><![CDATA[月ノ瀬]]></name>
</wpt>

<wpt lat="34.70622253417969" lon="136.01510620117188">
 <time>2015-12-06T02:24:46ZZ</time>
 <name><![CDATA[太郎谷]]></name>
</wpt>

<wpt lat="34.707481384277344" lon="136.0105438232422">
 <time>2015-12-06T02:24:46ZZ</time>
 <name><![CDATA[桃香野]]></name>
</wpt>

<wpt lat="34.68425369262695" lon="136.05810546875">
 <time>2015-12-06T02:24:46ZZ</time>
 <name><![CDATA[広代]]></name>
</wpt>

<wpt lat="34.6807746887207" lon="136.04766845703125">
 <time>2015-12-06T02:24:46ZZ</time>
 <name><![CDATA[春日]]></name>
</wpt>

<wpt lat="34.68085479736328" lon="136.03977966308594">
 <time>2015-12-06T02:24:46ZZ</time>
 <name><![CDATA[国道山添]]></name>
</wpt>

<wpt lat="34.609249114990234" lon="135.96197509765625">
 <time>2015-12-06T02:24:46ZZ</time>
 <name><![CDATA[針インター]]></name>
</wpt>

<wpt lat="34.60793685913086" lon="135.90797424316406">
 <time>2015-12-06T02:24:46ZZ</time>
 <name><![CDATA[国道福住]]></name>
</wpt>

<wpt lat="34.61417770385742" lon="135.85557556152344">
 <time>2015-12-06T02:24:46ZZ</time>
 <name><![CDATA[国道岩屋]]></name>
</wpt>

<wpt lat="34.615966796875" lon="135.8321075439453">
 <time>2015-12-06T02:24:46ZZ</time>
 <name><![CDATA[国道櫟本]]></name>
</wpt>

<wpt lat="34.604339599609375" lon="135.83578491210938">
 <time>2015-12-06T02:24:46ZZ</time>
 <name><![CDATA[天理北大路]]></name>
</wpt>

<wpt lat="34.501365661621094" lon="136.11639404296875">
 <time>2015-12-06T02:24:46ZZ</time>
 <name><![CDATA[掛東口]]></name>
</wpt>

<wpt lat="34.495567321777344" lon="136.10693359375">
 <time>2015-12-06T02:24:46ZZ</time>
 <name><![CDATA[八辻橋]]></name>
</wpt>

<wpt lat="34.48982620239258" lon="136.10186767578125">
 <time>2015-12-06T02:24:46ZZ</time>
 <name><![CDATA[山粕東口]]></name>
</wpt>

<wpt lat="33.99886703491211" lon="135.79371643066406">
 <time>2015-12-06T02:24:46ZZ</time>
 <name><![CDATA[湯ノ原]]></name>
</wpt>

<wpt lat="34.681129455566406" lon="135.820068359375">
 <time>2015-12-06T02:24:46ZZ</time>
 <name><![CDATA[月瀬橋]]></name>
</wpt>

<wpt lat="34.699241638183594" lon="136.0603485107422">
 <time>2015-12-06T02:24:46ZZ</time>
 <name><![CDATA[五月橋]]></name>
</wpt>

<wpt lat="34.6954345703125" lon="136.05856323242188">
 <time>2015-12-06T02:24:46ZZ</time>
 <name><![CDATA[遅瀬口]]></name>
</wpt>

<wpt lat="34.68977355957031" lon="136.06358337402344">
 <time>2015-12-06T02:24:46ZZ</time>
 <name><![CDATA[波多野神社前]]></name>
</wpt>

<wpt lat="34.68693161010742" lon="136.06387329101562">
 <time>2015-12-06T02:24:46ZZ</time>
 <name><![CDATA[診療所前]]></name>
</wpt>

<wpt lat="34.6862678527832" lon="136.0626678466797">
 <time>2015-12-06T02:24:46ZZ</time>
 <name><![CDATA[中峰山]]></name>
</wpt>

<wpt lat="34.68107604980469" lon="136.0496368408203">
 <time>2015-12-06T02:24:46ZZ</time>
 <name><![CDATA[春日農協前]]></name>
</wpt>

<wpt lat="34.67887496948242" lon="136.04441833496094">
 <time>2015-12-06T02:24:46ZZ</time>
 <name><![CDATA[高校前]]></name>
</wpt>

<wpt lat="34.6728515625" lon="136.04417419433594">
 <time>2015-12-06T02:24:46ZZ</time>
 <name><![CDATA[下堂]]></name>
</wpt>

<wpt lat="34.67173385620117" lon="136.04135131835938">
 <time>2015-12-06T02:24:46ZZ</time>
 <name><![CDATA[菅生公民館前]]></name>
</wpt>

<wpt lat="34.67042541503906" lon="136.04022216796875">
 <time>2015-12-06T02:24:46ZZ</time>
 <name><![CDATA[峰出口]]></name>
</wpt>

<wpt lat="34.66551971435547" lon="136.03860473632812">
 <time>2015-12-06T02:24:46ZZ</time>
 <name><![CDATA[菅生]]></name>
</wpt>

<wpt lat="34.601566314697266" lon="135.8310546875">
 <time>2015-12-06T02:24:46ZZ</time>
 <name><![CDATA[天理駅前]]></name>
</wpt>

<wpt lat="34.64707565307617" lon="136.057373046875">
 <time>2015-12-06T02:24:46ZZ</time>
 <name><![CDATA[宮の上]]></name>
</wpt>

<wpt lat="34.645965576171875" lon="136.05543518066406">
 <time>2015-12-06T02:24:46ZZ</time>
 <name><![CDATA[岩屋公民館前]]></name>
</wpt>

<wpt lat="34.64385223388672" lon="136.05303955078125">
 <time>2015-12-06T02:24:46ZZ</time>
 <name><![CDATA[勝原口]]></name>
</wpt>

<wpt lat="34.64199447631836" lon="136.05117797851562">
 <time>2015-12-06T02:24:46ZZ</time>
 <name><![CDATA[東豊小学校前]]></name>
</wpt>

<wpt lat="34.63567352294922" lon="136.04071044921875">
 <time>2015-12-06T02:24:46ZZ</time>
 <name><![CDATA[毛原神社前]]></name>
</wpt>

<wpt lat="34.5533561706543" lon="136.13133239746094">
 <time>2015-12-06T02:24:46ZZ</time>
 <name><![CDATA[落合]]></name>
</wpt>

<wpt lat="34.5506591796875" lon="136.14013671875">
 <time>2015-12-06T02:24:46ZZ</time>
 <name><![CDATA[小太郎岩]]></name>
</wpt>

<wpt lat="34.54492950439453" lon="136.1459503173828">
 <time>2015-12-06T02:24:46ZZ</time>
 <name><![CDATA[曽爾弁天橋]]></name>
</wpt>

<wpt lat="34.54336929321289" lon="136.14599609375">
 <time>2015-12-06T02:24:46ZZ</time>
 <name><![CDATA[弁天前]]></name>
</wpt>

<wpt lat="34.539512634277344" lon="136.1466827392578">
 <time>2015-12-06T02:24:46ZZ</time>
 <name><![CDATA[槻ノ木橋]]></name>
</wpt>

<wpt lat="34.534568786621094" lon="136.14422607421875">
 <time>2015-12-06T02:24:46ZZ</time>
 <name><![CDATA[伊賀見大橋]]></name>
</wpt>

<wpt lat="34.53125762939453" lon="136.1404266357422">
 <time>2015-12-06T02:24:46ZZ</time>
 <name><![CDATA[新宅本店前]]></name>
</wpt>

<wpt lat="34.52759552001953" lon="136.14132690429688">
 <time>2015-12-06T02:24:46ZZ</time>
 <name><![CDATA[太良路]]></name>
</wpt>

<wpt lat="34.524391174316406" lon="136.13645935058594">
 <time>2015-12-06T02:24:46ZZ</time>
 <name><![CDATA[葛]]></name>
</wpt>

<wpt lat="34.519371032714844" lon="136.13023376464844">
 <time>2015-12-06T02:24:46ZZ</time>
 <name><![CDATA[嶽見橋]]></name>
</wpt>

<wpt lat="34.51717758178711" lon="136.1306610107422">
 <time>2015-12-06T02:24:46ZZ</time>
 <name><![CDATA[新嶽見橋]]></name>
</wpt>

<wpt lat="34.5142707824707" lon="136.12850952148438">
 <time>2015-12-06T02:24:46ZZ</time>
 <name><![CDATA[曽爾横輪]]></name>
</wpt>

<wpt lat="34.51105880737305" lon="136.12429809570312">
 <time>2015-12-06T02:24:46ZZ</time>
 <name><![CDATA[曽爾役場前]]></name>
</wpt>

<wpt lat="34.50920867919922" lon="136.12100219726562">
 <time>2015-12-06T02:24:46ZZ</time>
 <name><![CDATA[今井]]></name>
</wpt>

<wpt lat="34.50775146484375" lon="136.11819458007812">
 <time>2015-12-06T02:24:46ZZ</time>
 <name><![CDATA[小長尾橋]]></name>
</wpt>

<wpt lat="34.50580978393555" lon="136.1173858642578">
 <time>2015-12-06T02:24:46ZZ</time>
 <name><![CDATA[長野]]></name>
</wpt>

<wpt lat="34.498592376708984" lon="136.11280822753906">
 <time>2015-12-06T02:24:46ZZ</time>
 <name><![CDATA[掛西]]></name>
</wpt>

<wpt lat="34.488243103027344" lon="136.09075927734375">
 <time>2015-12-06T02:24:46ZZ</time>
 <name><![CDATA[前田橋]]></name>
</wpt>

<wpt lat="34.490142822265625" lon="136.08425903320312">
 <time>2015-12-06T02:24:46ZZ</time>
 <name><![CDATA[山粕西]]></name>
</wpt>

<wpt lat="34.51437759399414" lon="136.21554565429688">
 <time>2015-12-06T02:24:46ZZ</time>
 <name><![CDATA[小屋]]></name>
</wpt>

<wpt lat="34.51711654663086" lon="136.20779418945312">
 <time>2015-12-06T02:24:46ZZ</time>
 <name><![CDATA[赤目ビレッジ]]></name>
</wpt>

<wpt lat="34.51644515991211" lon="136.2022247314453">
 <time>2015-12-06T02:24:46ZZ</time>
 <name><![CDATA[敷津]]></name>
</wpt>

<wpt lat="34.522010803222656" lon="136.1939697265625">
 <time>2015-12-06T02:24:46ZZ</time>
 <name><![CDATA[唐戸山]]></name>
</wpt>

<wpt lat="34.6843376159668" lon="135.81069946289062">
 <time>2015-12-06T02:24:46ZZ</time>
 <name><![CDATA[月瀬橋]]></name>
</wpt>

<wpt lat="34.6812858581543" lon="135.82041931152344">
 <time>2015-12-06T02:24:46ZZ</time>
 <name><![CDATA[桃香野]]></name>
</wpt>

<wpt lat="34.61763000488281" lon="135.83197021484375">
 <time>2015-12-06T02:24:46ZZ</time>
 <name><![CDATA[広代]]></name>
</wpt>

<wpt lat="34.50321578979492" lon="135.74920654296875">
 <time>2015-12-06T02:24:46ZZ</time>
 <name><![CDATA[田井新町]]></name>
</wpt>

<wpt lat="34.483272552490234" lon="135.75404357910156">
 <time>2015-12-06T02:24:46ZZ</time>
 <name><![CDATA[天満農協前]]></name>
</wpt>

<wpt lat="34.501956939697266" lon="135.73719787597656">
 <time>2015-12-06T02:24:46ZZ</time>
 <name><![CDATA[東中]]></name>
</wpt>

<wpt lat="34.51169204711914" lon="135.7436065673828">
 <time>2015-12-06T02:24:46ZZ</time>
 <name><![CDATA[古川町]]></name>
</wpt>

<wpt lat="34.515098571777344" lon="135.74356079101562">
 <time>2015-12-06T02:24:46ZZ</time>
 <name><![CDATA[天神橋]]></name>
</wpt>

<wpt lat="34.510337829589844" lon="135.73687744140625">
 <time>2015-12-06T02:24:46ZZ</time>
 <name><![CDATA[市立病院]]></name>
</wpt>

<wpt lat="34.64801025390625" lon="135.79086303710938">
 <time>2015-12-06T02:24:46ZZ</time>
 <name><![CDATA[JR郡山駅東口]]></name>
</wpt>

<wpt lat="34.619747161865234" lon="135.80691528320312">
 <time>2015-12-06T02:24:46ZZ</time>
 <name><![CDATA[横田町社会教育会館]]></name>
</wpt>

<wpt lat="34.623104095458984" lon="135.80699157714844">
 <time>2015-12-06T02:24:46ZZ</time>
 <name><![CDATA[治道公民館]]></name>
</wpt>

<wpt lat="34.629085540771484" lon="135.8063201904297">
 <time>2015-12-06T02:24:46ZZ</time>
 <name><![CDATA[トドロキボウル前]]></name>
</wpt>

<wpt lat="34.62713623046875" lon="135.80426025390625">
 <time>2015-12-06T02:24:46ZZ</time>
 <name><![CDATA[発志院町西]]></name>
</wpt>

<wpt lat="34.62715530395508" lon="135.7999267578125">
 <time>2015-12-06T02:24:46ZZ</time>
 <name><![CDATA[中城町]]></name>
</wpt>

<wpt lat="34.6281623840332" lon="135.79269409179688">
 <time>2015-12-06T02:24:46ZZ</time>
 <name><![CDATA[番条町北]]></name>
</wpt>

<wpt lat="34.623748779296875" lon="135.78526306152344">
 <time>2015-12-06T02:24:46ZZ</time>
 <name><![CDATA[オークワ筒井店]]></name>
</wpt>

<wpt lat="34.62838363647461" lon="135.7858123779297">
 <time>2015-12-06T02:24:46ZZ</time>
 <name><![CDATA[丹後庄町]]></name>
</wpt>

<wpt lat="34.63299560546875" lon="135.7858428955078">
 <time>2015-12-06T02:24:46ZZ</time>
 <name><![CDATA[杉町]]></name>
</wpt>

<wpt lat="34.63486862182617" lon="135.7858123779297">
 <time>2015-12-06T02:24:46ZZ</time>
 <name><![CDATA[本庄町]]></name>
</wpt>

<wpt lat="34.649017333984375" lon="135.78244018554688">
 <time>2015-12-06T02:24:46ZZ</time>
 <name><![CDATA[市役所]]></name>
</wpt>

<wpt lat="34.635684967041016" lon="135.79209899902344">
 <time>2015-12-06T02:24:46ZZ</time>
 <name><![CDATA[県営住宅稗田団地]]></name>
</wpt>

<wpt lat="34.63668441772461" lon="135.79721069335938">
 <time>2015-12-06T02:24:46ZZ</time>
 <name><![CDATA[郡山東中学校]]></name>
</wpt>

<wpt lat="34.63780975341797" lon="135.8004913330078">
 <time>2015-12-06T02:24:46ZZ</time>
 <name><![CDATA[条里の森公園前]]></name>
</wpt>

<wpt lat="34.639339447021484" lon="135.8027801513672">
 <time>2015-12-06T02:24:46ZZ</time>
 <name><![CDATA[美濃庄町西]]></name>
</wpt>

<wpt lat="34.641815185546875" lon="135.80117797851562">
 <time>2015-12-06T02:24:46ZZ</time>
 <name><![CDATA[郡山ニュータウン北]]></name>
</wpt>

<wpt lat="34.643577575683594" lon="135.79995727539062">
 <time>2015-12-06T02:24:46ZZ</time>
 <name><![CDATA[稗田北児童公園前]]></name>
</wpt>

<wpt lat="34.63529586791992" lon="135.8032989501953">
 <time>2015-12-06T02:24:46ZZ</time>
 <name><![CDATA[大江町]]></name>
</wpt>

<wpt lat="34.635040283203125" lon="135.8096466064453">
 <time>2015-12-06T02:24:46ZZ</time>
 <name><![CDATA[井戸野町]]></name>
</wpt>

<wpt lat="34.6392936706543" lon="135.81227111816406">
 <time>2015-12-06T02:24:46ZZ</time>
 <name><![CDATA[美濃庄]]></name>
</wpt>

<wpt lat="34.64328384399414" lon="135.8145751953125">
 <time>2015-12-06T02:24:46ZZ</time>
 <name><![CDATA[シャープ前]]></name>
</wpt>

<wpt lat="34.645965576171875" lon="135.81617736816406">
 <time>2015-12-06T02:24:46ZZ</time>
 <name><![CDATA[上三橋西]]></name>
</wpt>

<wpt lat="34.65048599243164" lon="135.79754638671875">
 <time>2015-12-06T02:24:46ZZ</time>
 <name><![CDATA[下三橋町北]]></name>
</wpt>

<wpt lat="34.65885925292969" lon="135.7896270751953">
 <time>2015-12-06T02:24:46ZZ</time>
 <name><![CDATA[九条公園前]]></name>
</wpt>

<wpt lat="34.657867431640625" lon="135.78746032714844">
 <time>2015-12-06T02:24:46ZZ</time>
 <name><![CDATA[奈良口]]></name>
</wpt>

<wpt lat="34.65921401977539" lon="135.783203125">
 <time>2015-12-06T02:24:46ZZ</time>
 <name><![CDATA[近鉄九条駅]]></name>
</wpt>

<wpt lat="34.657081604003906" lon="135.78529357910156">
 <time>2015-12-06T02:24:46ZZ</time>
 <name><![CDATA[山本町]]></name>
</wpt>

<wpt lat="34.601566314697266" lon="135.8310546875">
 <time>2015-12-06T02:24:46ZZ</time>
 <name><![CDATA[天理駅]]></name>
</wpt>

<wpt lat="34.59801483154297" lon="135.8321533203125">
 <time>2015-12-06T02:24:46ZZ</time>
 <name><![CDATA[天理市民会館前]]></name>
</wpt>

<wpt lat="34.59706115722656" lon="135.8345947265625">
 <time>2015-12-06T02:24:46ZZ</time>
 <name><![CDATA[天理商工会館前]]></name>
</wpt>

<wpt lat="34.597557067871094" lon="135.8365020751953">
 <time>2015-12-06T02:24:46ZZ</time>
 <name><![CDATA[天理市役所]]></name>
</wpt>

<wpt lat="34.59425735473633" lon="135.8362274169922">
 <time>2015-12-06T02:24:46ZZ</time>
 <name><![CDATA[守目堂]]></name>
</wpt>

<wpt lat="34.58906936645508" lon="135.83309936523438">
 <time>2015-12-06T02:24:46ZZ</time>
 <name><![CDATA[田町東]]></name>
</wpt>

<wpt lat="34.58903121948242" lon="135.8286590576172">
 <time>2015-12-06T02:24:46ZZ</time>
 <name><![CDATA[田町西]]></name>
</wpt>

<wpt lat="34.59047317504883" lon="135.82537841796875">
 <time>2015-12-06T02:24:46ZZ</time>
 <name><![CDATA[イオン天理ショッピングセンター]]></name>
</wpt>

<wpt lat="34.5948371887207" lon="135.8262481689453">
 <time>2015-12-06T02:24:46ZZ</time>
 <name><![CDATA[富堂東]]></name>
</wpt>

<wpt lat="34.595890045166016" lon="135.82315063476562">
 <time>2015-12-06T02:24:46ZZ</time>
 <name><![CDATA[田井庄・オークワ前]]></name>
</wpt>

<wpt lat="34.597442626953125" lon="135.8171844482422">
 <time>2015-12-06T02:24:46ZZ</time>
 <name><![CDATA[天理市立病院]]></name>
</wpt>

<wpt lat="34.59293746948242" lon="135.8169708251953">
 <time>2015-12-06T02:24:46ZZ</time>
 <name><![CDATA[富堂西]]></name>
</wpt>

<wpt lat="34.58882141113281" lon="135.8163604736328">
 <time>2015-12-06T02:24:46ZZ</time>
 <name><![CDATA[西井戸堂]]></name>
</wpt>

<wpt lat="34.58888244628906" lon="135.8114471435547">
 <time>2015-12-06T02:24:46ZZ</time>
 <name><![CDATA[合場]]></name>
</wpt>

<wpt lat="34.588043212890625" lon="135.80055236816406">
 <time>2015-12-06T02:24:46ZZ</time>
 <name><![CDATA[嘉幡]]></name>
</wpt>

<wpt lat="34.584388732910156" lon="135.7980194091797">
 <time>2015-12-06T02:24:46ZZ</time>
 <name><![CDATA[クリーンセンター前]]></name>
</wpt>

<wpt lat="34.5767822265625" lon="135.81126403808594">
 <time>2015-12-06T02:24:46ZZ</time>
 <name><![CDATA[吉田]]></name>
</wpt>

<wpt lat="34.575904846191406" lon="135.81532287597656">
 <time>2015-12-06T02:24:46ZZ</time>
 <name><![CDATA[備前]]></name>
</wpt>

<wpt lat="34.574005126953125" lon="135.8209228515625">
 <time>2015-12-06T02:24:46ZZ</time>
 <name><![CDATA[長柄運動公園前]]></name>
</wpt>

<wpt lat="34.57460403442383" lon="135.82321166992188">
 <time>2015-12-06T02:24:46ZZ</time>
 <name><![CDATA[西長柄公民館前]]></name>
</wpt>

<wpt lat="34.57897186279297" lon="135.8230743408203">
 <time>2015-12-06T02:24:46ZZ</time>
 <name><![CDATA[筑紫公民館]]></name>
</wpt>

<wpt lat="34.58302688598633" lon="135.8218231201172">
 <time>2015-12-06T02:24:46ZZ</time>
 <name><![CDATA[九条]]></name>
</wpt>

<wpt lat="34.513084411621094" lon="135.7927703857422">
 <time>2015-12-06T02:24:46ZZ</time>
 <name><![CDATA[八木駅（南口）]]></name>
</wpt>

<wpt lat="34.50969314575195" lon="135.7923583984375">
 <time>2015-12-06T02:24:46ZZ</time>
 <name><![CDATA[橿原市役所前]]></name>
</wpt>

<wpt lat="34.50448226928711" lon="135.7924346923828">
 <time>2015-12-06T02:24:46ZZ</time>
 <name><![CDATA[奈良医大病院（正面玄関）]]></name>
</wpt>

<wpt lat="34.50030517578125" lon="135.79641723632812">
 <time>2015-12-06T02:24:46ZZ</time>
 <name><![CDATA[かしはら万葉ホール（ホール敷地内）]]></name>
</wpt>

<wpt lat="34.50211715698242" lon="135.80455017089844">
 <time>2015-12-06T02:24:46ZZ</time>
 <name><![CDATA[橿原市藤原京資料室前（JAならけん　橿原東部経済センター前）]]></name>
</wpt>

<wpt lat="34.49740219116211" lon="135.80455017089844">
 <time>2015-12-06T02:24:46ZZ</time>
 <name><![CDATA[飛騨町]]></name>
</wpt>

<wpt lat="34.494834899902344" lon="135.8112335205078">
 <time>2015-12-06T02:24:46ZZ</time>
 <name><![CDATA[別所町]]></name>
</wpt>

<wpt lat="34.494789123535156" lon="135.81381225585938">
 <time>2015-12-06T02:24:46ZZ</time>
 <name><![CDATA[木之本町]]></name>
</wpt>

<wpt lat="34.49139404296875" lon="135.8174285888672">
 <time>2015-12-06T02:24:46ZZ</time>
 <name><![CDATA[南浦町]]></name>
</wpt>

<wpt lat="34.4925537109375" lon="135.8229217529297">
 <time>2015-12-06T02:24:46ZZ</time>
 <name><![CDATA[南山町（香久山体育館下）]]></name>
</wpt>

<wpt lat="34.49307632446289" lon="135.82540893554688">
 <time>2015-12-06T02:24:46ZZ</time>
 <name><![CDATA[橿原市営香久山墓苑（墓苑センター前）]]></name>
</wpt>

<wpt lat="34.49134826660156" lon="135.8262176513672">
 <time>2015-12-06T02:24:46ZZ</time>
 <name><![CDATA[橿原市昆虫館]]></name>
</wpt>

<wpt lat="34.489742279052734" lon="135.8236083984375">
 <time>2015-12-06T02:24:46ZZ</time>
 <name><![CDATA[南山町南]]></name>
</wpt>

<wpt lat="34.48536682128906" lon="135.82948303222656">
 <time>2015-12-06T02:24:46ZZ</time>
 <name><![CDATA[山田寺前]]></name>
</wpt>

<wpt lat="34.483428955078125" lon="135.8250274658203">
 <time>2015-12-06T02:24:46ZZ</time>
 <name><![CDATA[飛鳥資料館]]></name>
</wpt>

<wpt lat="34.48341369628906" lon="135.82289123535156">
 <time>2015-12-06T02:24:46ZZ</time>
 <name><![CDATA[明日香奥山]]></name>
</wpt>

<wpt lat="34.53105163574219" lon="135.9115447998047">
 <time>2015-12-06T02:24:46ZZ</time>
 <name><![CDATA[与喜浦]]></name>
</wpt>

<wpt lat="34.52895736694336" lon="135.9046173095703">
 <time>2015-12-06T02:24:46ZZ</time>
 <name><![CDATA[長谷寺参道口]]></name>
</wpt>

<wpt lat="34.527992248535156" lon="135.9019012451172">
 <time>2015-12-06T02:24:46ZZ</time>
 <name><![CDATA[初瀬観光センター]]></name>
</wpt>

<wpt lat="34.5262565612793" lon="135.8966827392578">
 <time>2015-12-06T02:24:46ZZ</time>
 <name><![CDATA[桜井東中学校]]></name>
</wpt>

<wpt lat="34.52475357055664" lon="135.89028930664062">
 <time>2015-12-06T02:24:46ZZ</time>
 <name><![CDATA[出雲]]></name>
</wpt>

<wpt lat="34.522762298583984" lon="135.8795623779297">
 <time>2015-12-06T02:24:46ZZ</time>
 <name><![CDATA[黒崎]]></name>
</wpt>

<wpt lat="34.52146911621094" lon="135.8763885498047">
 <time>2015-12-06T02:24:46ZZ</time>
 <name><![CDATA[朝倉小学校]]></name>
</wpt>

<wpt lat="34.5203742980957" lon="135.87379455566406">
 <time>2015-12-06T02:24:46ZZ</time>
 <name><![CDATA[脇本]]></name>
</wpt>

<wpt lat="34.51758575439453" lon="135.8681182861328">
 <time>2015-12-06T02:24:46ZZ</time>
 <name><![CDATA[慈恩寺]]></name>
</wpt>

<wpt lat="34.514644622802734" lon="135.8653106689453">
 <time>2015-12-06T02:24:46ZZ</time>
 <name><![CDATA[宇陀が辻東口]]></name>
</wpt>

<wpt lat="34.51266860961914" lon="135.86288452148438">
 <time>2015-12-06T02:24:46ZZ</time>
 <name><![CDATA[宇陀が辻]]></name>
</wpt>

<wpt lat="34.51157760620117" lon="135.8596954345703">
 <time>2015-12-06T02:24:46ZZ</time>
 <name><![CDATA[外山]]></name>
</wpt>

<wpt lat="34.51100158691406" lon="135.85443115234375">
 <time>2015-12-06T02:24:46ZZ</time>
 <name><![CDATA[薬師町]]></name>
</wpt>

<wpt lat="34.51095199584961" lon="135.84921264648438">
 <time>2015-12-06T02:24:46ZZ</time>
 <name><![CDATA[御幸田町]]></name>
</wpt>

<wpt lat="34.51279067993164" lon="135.8466339111328">
 <time>2015-12-06T02:24:46ZZ</time>
 <name><![CDATA[桜井駅南口]]></name>
</wpt>

<wpt lat="34.46403503417969" lon="135.86175537109375">
 <time>2015-12-06T02:24:46ZZ</time>
 <name><![CDATA[談山神社]]></name>
</wpt>

<wpt lat="34.467227935791016" lon="135.8677215576172">
 <time>2015-12-06T02:24:46ZZ</time>
 <name><![CDATA[多武峯]]></name>
</wpt>

<wpt lat="34.47047424316406" lon="135.8687744140625">
 <time>2015-12-06T02:24:46ZZ</time>
 <name><![CDATA[不動滝]]></name>
</wpt>

<wpt lat="34.47528076171875" lon="135.86790466308594">
 <time>2015-12-06T02:24:46ZZ</time>
 <name><![CDATA[百市]]></name>
</wpt>

<wpt lat="34.48540496826172" lon="135.86624145507812">
 <time>2015-12-06T02:24:46ZZ</time>
 <name><![CDATA[下居]]></name>
</wpt>

<wpt lat="34.491214752197266" lon="135.86180114746094">
 <time>2015-12-06T02:24:46ZZ</time>
 <name><![CDATA[倉橋池口]]></name>
</wpt>

<wpt lat="34.49153518676758" lon="135.85946655273438">
 <time>2015-12-06T02:24:46ZZ</time>
 <name><![CDATA[倉橋]]></name>
</wpt>

<wpt lat="34.491905212402344" lon="135.85682678222656">
 <time>2015-12-06T02:24:46ZZ</time>
 <name><![CDATA[赤鳥居]]></name>
</wpt>

<wpt lat="34.49427032470703" lon="135.85316467285156">
 <time>2015-12-06T02:24:46ZZ</time>
 <name><![CDATA[聖林寺前]]></name>
</wpt>

<wpt lat="34.49891662597656" lon="135.8535614013672">
 <time>2015-12-06T02:24:46ZZ</time>
 <name><![CDATA[浅古]]></name>
</wpt>

<wpt lat="34.50384521484375" lon="135.85279846191406">
 <time>2015-12-06T02:24:46ZZ</time>
 <name><![CDATA[河西能登町]]></name>
</wpt>

<wpt lat="34.5069465637207" lon="135.85226440429688">
 <time>2015-12-06T02:24:46ZZ</time>
 <name><![CDATA[神之森町]]></name>
</wpt>

<wpt lat="34.51597213745117" lon="135.8695831298828">
 <time>2015-12-06T02:24:46ZZ</time>
 <name><![CDATA[大和朝倉駅]]></name>
</wpt>

<wpt lat="34.51235580444336" lon="135.87074279785156">
 <time>2015-12-06T02:24:46ZZ</time>
 <name><![CDATA[朝倉台西]]></name>
</wpt>

<wpt lat="34.51377868652344" lon="135.87286376953125">
 <time>2015-12-06T02:24:46ZZ</time>
 <name><![CDATA[朝倉台中]]></name>
</wpt>

<wpt lat="34.515682220458984" lon="135.87567138671875">
 <time>2015-12-06T02:24:46ZZ</time>
 <name><![CDATA[朝倉台東]]></name>
</wpt>

<wpt lat="34.517189025878906" lon="135.85281372070312">
 <time>2015-12-06T02:24:46ZZ</time>
 <name><![CDATA[とれとれ・オークワ前]]></name>
</wpt>

<wpt lat="34.51678466796875" lon="135.84642028808594">
 <time>2015-12-06T02:24:46ZZ</time>
 <name><![CDATA[粟殿・ヤマトー桜井店]]></name>
</wpt>

<wpt lat="34.521263122558594" lon="135.84378051757812">
 <time>2015-12-06T02:24:46ZZ</time>
 <name><![CDATA[桜井総合庁舎]]></name>
</wpt>

<wpt lat="34.522300720214844" lon="135.83694458007812">
 <time>2015-12-06T02:24:46ZZ</time>
 <name><![CDATA[上之庄・ジャスコ桜井店]]></name>
</wpt>

<wpt lat="34.50772476196289" lon="135.84048461914062">
 <time>2015-12-06T02:24:46ZZ</time>
 <name><![CDATA[仁王堂（済生会中和病院前）]]></name>
</wpt>

<wpt lat="34.51670837402344" lon="135.8365936279297">
 <time>2015-12-06T02:24:46ZZ</time>
 <name><![CDATA[戒重北口]]></name>
</wpt>

<wpt lat="34.51718521118164" lon="135.8420867919922">
 <time>2015-12-06T02:24:46ZZ</time>
 <name><![CDATA[桜井税務署]]></name>
</wpt>

<wpt lat="34.51871109008789" lon="135.84371948242188">
 <time>2015-12-06T02:24:46ZZ</time>
 <name><![CDATA[桜井市役所]]></name>
</wpt>

<wpt lat="34.47084426879883" lon="135.72943115234375">
 <time>2015-12-06T02:24:46ZZ</time>
 <name><![CDATA[元町]]></name>
</wpt>

<wpt lat="34.47051239013672" lon="135.7252197265625">
 <time>2015-12-06T02:24:46ZZ</time>
 <name><![CDATA[産業振興センター前]]></name>
</wpt>

<wpt lat="34.46630096435547" lon="135.71429443359375">
 <time>2015-12-06T02:24:46ZZ</time>
 <name><![CDATA[小林]]></name>
</wpt>

<wpt lat="34.461219787597656" lon="135.70848083496094">
 <time>2015-12-06T02:24:46ZZ</time>
 <name><![CDATA[老人福祉センター]]></name>
</wpt>

<wpt lat="34.45930099487305" lon="135.7149658203125">
 <time>2015-12-06T02:24:46ZZ</time>
 <name><![CDATA[櫛羅南]]></name>
</wpt>

<wpt lat="34.45317459106445" lon="135.71458435058594">
 <time>2015-12-06T02:24:46ZZ</time>
 <name><![CDATA[楢原]]></name>
</wpt>

<wpt lat="34.44619369506836" lon="135.71458435058594">
 <time>2015-12-06T02:24:46ZZ</time>
 <name><![CDATA[森脇]]></name>
</wpt>

<wpt lat="34.43994903564453" lon="135.71432495117188">
 <time>2015-12-06T02:24:46ZZ</time>
 <name><![CDATA[名柄]]></name>
</wpt>

<wpt lat="34.435523986816406" lon="135.7117462158203">
 <time>2015-12-06T02:24:46ZZ</time>
 <name><![CDATA[増]]></name>
</wpt>

<wpt lat="34.42671585083008" lon="135.710205078125">
 <time>2015-12-06T02:24:46ZZ</time>
 <name><![CDATA[南郷]]></name>
</wpt>

<wpt lat="34.421878814697266" lon="135.7083740234375">
 <time>2015-12-06T02:24:46ZZ</time>
 <name><![CDATA[北窪]]></name>
</wpt>

<wpt lat="34.417747497558594" lon="135.7052001953125">
 <time>2015-12-06T02:24:46ZZ</time>
 <name><![CDATA[高天口]]></name>
</wpt>

<wpt lat="34.407711029052734" lon="135.7029571533203">
 <time>2015-12-06T02:24:46ZZ</time>
 <name><![CDATA[鴨神]]></name>
</wpt>

<wpt lat="34.40231704711914" lon="135.7059783935547">
 <time>2015-12-06T02:24:46ZZ</time>
 <name><![CDATA[西佐味]]></name>
</wpt>

<wpt lat="34.39991760253906" lon="135.71510314941406">
 <time>2015-12-06T02:24:46ZZ</time>
 <name><![CDATA[東佐味]]></name>
</wpt>

<wpt lat="34.40440368652344" lon="135.71539306640625">
 <time>2015-12-06T02:24:46ZZ</time>
 <name><![CDATA[風の森]]></name>
</wpt>

<wpt lat="34.41391372680664" lon="135.7177734375">
 <time>2015-12-06T02:24:46ZZ</time>
 <name><![CDATA[かもきみの湯]]></name>
</wpt>

<wpt lat="34.416587829589844" lon="135.7175750732422">
 <time>2015-12-06T02:24:46ZZ</time>
 <name><![CDATA[五百家]]></name>
</wpt>

<wpt lat="34.41501235961914" lon="135.7067413330078">
 <time>2015-12-06T02:24:46ZZ</time>
 <name><![CDATA[伏見]]></name>
</wpt>

<wpt lat="34.44261932373047" lon="135.71681213378906">
 <time>2015-12-06T02:24:46ZZ</time>
 <name><![CDATA[豊田]]></name>
</wpt>

<wpt lat="34.44343948364258" lon="135.7235565185547">
 <time>2015-12-06T02:24:46ZZ</time>
 <name><![CDATA[宮戸]]></name>
</wpt>

<wpt lat="34.44365692138672" lon="135.73060607910156">
 <time>2015-12-06T02:24:46ZZ</time>
 <name><![CDATA[室]]></name>
</wpt>

<wpt lat="34.444740295410156" lon="135.74107360839844">
 <time>2015-12-06T02:24:46ZZ</time>
 <name><![CDATA[室東口]]></name>
</wpt>

<wpt lat="34.44477081298828" lon="135.74465942382812">
 <time>2015-12-06T02:24:46ZZ</time>
 <name><![CDATA[條]]></name>
</wpt>

<wpt lat="34.44557571411133" lon="135.74732971191406">
 <time>2015-12-06T02:24:46ZZ</time>
 <name><![CDATA[出走]]></name>
</wpt>

<wpt lat="34.44890213012695" lon="135.74729919433594">
 <time>2015-12-06T02:24:46ZZ</time>
 <name><![CDATA[池之内]]></name>
</wpt>

<wpt lat="34.453182220458984" lon="135.74546813964844">
 <time>2015-12-06T02:24:46ZZ</time>
 <name><![CDATA[池之内住宅前]]></name>
</wpt>

<wpt lat="34.45236587524414" lon="135.73585510253906">
 <time>2015-12-06T02:24:46ZZ</time>
 <name><![CDATA[御所消防署前]]></name>
</wpt>

<wpt lat="34.44929504394531" lon="135.73028564453125">
 <time>2015-12-06T02:24:46ZZ</time>
 <name><![CDATA[鎌田橋]]></name>
</wpt>

<wpt lat="34.45159149169922" lon="135.72605895996094">
 <time>2015-12-06T02:24:46ZZ</time>
 <name><![CDATA[幸町]]></name>
</wpt>

<wpt lat="34.45536422729492" lon="135.7323455810547">
 <time>2015-12-06T02:24:46ZZ</time>
 <name><![CDATA[三室]]></name>
</wpt>

<wpt lat="34.45989990234375" lon="135.73721313476562">
 <time>2015-12-06T02:24:46ZZ</time>
 <name><![CDATA[豊年橋]]></name>
</wpt>

<wpt lat="34.463661193847656" lon="135.73931884765625">
 <time>2015-12-06T02:24:46ZZ</time>
 <name><![CDATA[御所市役所]]></name>
</wpt>

<wpt lat="34.460845947265625" lon="135.73226928710938">
 <time>2015-12-06T02:24:46ZZ</time>
 <name><![CDATA[御所済生会病院前]]></name>
</wpt>

<wpt lat="34.46723556518555" lon="135.73866271972656">
 <time>2015-12-06T02:24:46ZZ</time>
 <name><![CDATA[竹田]]></name>
</wpt>

<wpt lat="34.46995544433594" lon="135.73861694335938">
 <time>2015-12-06T02:24:46ZZ</time>
 <name><![CDATA[東辻]]></name>
</wpt>

<wpt lat="34.474666595458984" lon="135.744140625">
 <time>2015-12-06T02:24:46ZZ</time>
 <name><![CDATA[今城]]></name>
</wpt>

<wpt lat="34.47761535644531" lon="135.7515411376953">
 <time>2015-12-06T02:24:46ZZ</time>
 <name><![CDATA[柳原]]></name>
</wpt>

<wpt lat="34.471214294433594" lon="135.7493896484375">
 <time>2015-12-06T02:24:46ZZ</time>
 <name><![CDATA[出屋敷]]></name>
</wpt>

<wpt lat="34.46732711791992" lon="135.7493438720703">
 <time>2015-12-06T02:24:46ZZ</time>
 <name><![CDATA[御所東高校前]]></name>
</wpt>

<wpt lat="34.463279724121094" lon="135.7493896484375">
 <time>2015-12-06T02:24:46ZZ</time>
 <name><![CDATA[茅原]]></name>
</wpt>

<wpt lat="34.459774017333984" lon="135.75201416015625">
 <time>2015-12-06T02:24:46ZZ</time>
 <name><![CDATA[玉手]]></name>
</wpt>

<wpt lat="34.459869384765625" lon="135.75653076171875">
 <time>2015-12-06T02:24:46ZZ</time>
 <name><![CDATA[学校給食センター前]]></name>
</wpt>

<wpt lat="34.46062088012695" lon="135.76107788085938">
 <time>2015-12-06T02:24:46ZZ</time>
 <name><![CDATA[水平社博物館前]]></name>
</wpt>

<wpt lat="34.45793151855469" lon="135.76303100585938">
 <time>2015-12-06T02:24:46ZZ</time>
 <name><![CDATA[郡界橋]]></name>
</wpt>

<wpt lat="34.4458122253418" lon="135.76593017578125">
 <time>2015-12-06T02:24:46ZZ</time>
 <name><![CDATA[今住]]></name>
</wpt>

<wpt lat="34.45177459716797" lon="135.76358032226562">
 <time>2015-12-06T02:24:46ZZ</time>
 <name><![CDATA[JR掖上駅]]></name>
</wpt>

<wpt lat="34.45066452026367" lon="135.752197265625">
 <time>2015-12-06T02:24:46ZZ</time>
 <name><![CDATA[市民グラウンド前]]></name>
</wpt>

<wpt lat="34.446136474609375" lon="135.74830627441406">
 <time>2015-12-06T02:24:46ZZ</time>
 <name><![CDATA[冨田]]></name>
</wpt>

<wpt lat="34.44032287597656" lon="135.74850463867188">
 <time>2015-12-06T02:24:46ZZ</time>
 <name><![CDATA[大口峠]]></name>
</wpt>

<wpt lat="34.4350471496582" lon="135.75360107421875">
 <time>2015-12-06T02:24:46ZZ</time>
 <name><![CDATA[稲宿]]></name>
</wpt>

<wpt lat="34.43174362182617" lon="135.7582550048828">
 <time>2015-12-06T02:24:46ZZ</time>
 <name><![CDATA[葛公民館前]]></name>
</wpt>

<wpt lat="34.42829895019531" lon="135.75624084472656">
 <time>2015-12-06T02:24:46ZZ</time>
 <name><![CDATA[戸毛]]></name>
</wpt>

<wpt lat="34.42363739013672" lon="135.75302124023438">
 <time>2015-12-06T02:24:46ZZ</time>
 <name><![CDATA[古瀬中橋]]></name>
</wpt>

<wpt lat="34.420894622802734" lon="135.75120544433594">
 <time>2015-12-06T02:24:46ZZ</time>
 <name><![CDATA[吉野口駅]]></name>
</wpt>

<wpt lat="34.41767501831055" lon="135.75100708007812">
 <time>2015-12-06T02:24:46ZZ</time>
 <name><![CDATA[奉膳]]></name>
</wpt>

<wpt lat="34.418277740478516" lon="135.7491912841797">
 <time>2015-12-06T02:24:46ZZ</time>
 <name><![CDATA[川合]]></name>
</wpt>

<wpt lat="34.41384506225586" lon="135.7440185546875">
 <time>2015-12-06T02:24:46ZZ</time>
 <name><![CDATA[水泥]]></name>
</wpt>

<wpt lat="34.422996520996094" lon="135.73825073242188">
 <time>2015-12-06T02:24:46ZZ</time>
 <name><![CDATA[朝町]]></name>
</wpt>

<wpt lat="34.42795181274414" lon="135.727783203125">
 <time>2015-12-06T02:24:46ZZ</time>
 <name><![CDATA[市民運動公園前]]></name>
</wpt>

<wpt lat="34.427284240722656" lon="135.72389221191406">
 <time>2015-12-06T02:24:46ZZ</time>
 <name><![CDATA[栗阪]]></name>
</wpt>

<wpt lat="34.42949295043945" lon="135.72006225585938">
 <time>2015-12-06T02:24:46ZZ</time>
 <name><![CDATA[小殿]]></name>
</wpt>

<wpt lat="34.420265197753906" lon="135.71926879882812">
 <time>2015-12-06T02:24:46ZZ</time>
 <name><![CDATA[鳥井戸]]></name>
</wpt>

<wpt lat="34.394493103027344" lon="135.7319793701172">
 <time>2015-12-06T02:24:46ZZ</time>
 <name><![CDATA[重阪]]></name>
</wpt>

<wpt lat="34.40229034423828" lon="135.7395477294922">
 <time>2015-12-06T02:24:46ZZ</time>
 <name><![CDATA[新田]]></name>
</wpt>

<wpt lat="34.463584899902344" lon="135.72401428222656">
 <time>2015-12-06T02:24:46ZZ</time>
 <name><![CDATA[新屋敷]]></name>
</wpt>

<wpt lat="34.46344757080078" lon="135.7162322998047">
 <time>2015-12-06T02:24:46ZZ</time>
 <name><![CDATA[櫛羅]]></name>
</wpt>

<wpt lat="34.46897888183594" lon="135.7301025390625">
 <time>2015-12-06T02:24:46ZZ</time>
 <name><![CDATA[御所文化センター前]]></name>
</wpt>

<wpt lat="34.70009231567383" lon="135.68911743164062">
 <time>2015-12-06T02:24:46ZZ</time>
 <name><![CDATA[光陽台東公園]]></name>
</wpt>

<wpt lat="34.69961166381836" lon="135.6881103515625">
 <time>2015-12-06T02:24:46ZZ</time>
 <name><![CDATA[光陽台中央公園]]></name>
</wpt>

<wpt lat="34.69913864135742" lon="135.6896209716797">
 <time>2015-12-06T02:24:46ZZ</time>
 <name><![CDATA[光陽台口]]></name>
</wpt>

<wpt lat="34.699954986572266" lon="135.69113159179688">
 <time>2015-12-06T02:24:46ZZ</time>
 <name><![CDATA[西松ケ丘15番]]></name>
</wpt>

<wpt lat="34.69974136352539" lon="135.6920166015625">
 <time>2015-12-06T02:24:46ZZ</time>
 <name><![CDATA[西松ケ丘16番]]></name>
</wpt>

<wpt lat="34.69986343383789" lon="135.69361877441406">
 <time>2015-12-06T02:24:46ZZ</time>
 <name><![CDATA[西松ケ丘12番]]></name>
</wpt>

<wpt lat="34.70036697387695" lon="135.69541931152344">
 <time>2015-12-06T02:24:46ZZ</time>
 <name><![CDATA[俵口西]]></name>
</wpt>

<wpt lat="34.699771881103516" lon="135.69638061523438">
 <time>2015-12-06T02:24:46ZZ</time>
 <name><![CDATA[東松ケ丘5番]]></name>
</wpt>

<wpt lat="34.69751739501953" lon="135.69601440429688">
 <time>2015-12-06T02:24:46ZZ</time>
 <name><![CDATA[東松ケ丘2番]]></name>
</wpt>

<wpt lat="34.69352340698242" lon="135.69703674316406">
 <time>2015-12-06T02:24:46ZZ</time>
 <name><![CDATA[生駒駅北口]]></name>
</wpt>

<wpt lat="34.692649841308594" lon="135.69741821289062">
 <time>2015-12-06T02:24:46ZZ</time>
 <name><![CDATA[生駒駅南口]]></name>
</wpt>

<wpt lat="34.69150161743164" lon="135.7003173828125">
 <time>2015-12-06T02:24:46ZZ</time>
 <name><![CDATA[生駒市役所]]></name>
</wpt>

<wpt lat="34.69626998901367" lon="135.69485473632812">
 <time>2015-12-06T02:24:46ZZ</time>
 <name><![CDATA[芸術会館]]></name>
</wpt>

<wpt lat="34.697418212890625" lon="135.6927490234375">
 <time>2015-12-06T02:24:46ZZ</time>
 <name><![CDATA[西松ケ丘5番]]></name>
</wpt>

<wpt lat="34.69904708862305" lon="135.69215393066406">
 <time>2015-12-06T02:24:46ZZ</time>
 <name><![CDATA[西松ケ丘児童公園]]></name>
</wpt>

<wpt lat="34.62534713745117" lon="136.02699279785156">
 <time>2015-12-06T02:24:46ZZ</time>
 <name><![CDATA[下笠間]]></name>
</wpt>

<wpt lat="34.623226165771484" lon="136.024658203125">
 <time>2015-12-06T02:24:46ZZ</time>
 <name><![CDATA[下笠間西口]]></name>
</wpt>

<wpt lat="34.61137390136719" lon="136.02743530273438">
 <time>2015-12-06T02:24:46ZZ</time>
 <name><![CDATA[上笠間]]></name>
</wpt>

<wpt lat="34.607513427734375" lon="136.012939453125">
 <time>2015-12-06T02:24:46ZZ</time>
 <name><![CDATA[滝之尾口]]></name>
</wpt>

<wpt lat="34.60860824584961" lon="136.0103759765625">
 <time>2015-12-06T02:24:46ZZ</time>
 <name><![CDATA[東里小原]]></name>
</wpt>

<wpt lat="34.60741424560547" lon="136.0048370361328">
 <time>2015-12-06T02:24:46ZZ</time>
 <name><![CDATA[小原西口]]></name>
</wpt>

<wpt lat="34.60054016113281" lon="135.99734497070312">
 <time>2015-12-06T02:24:46ZZ</time>
 <name><![CDATA[奥山口]]></name>
</wpt>

<wpt lat="34.599937438964844" lon="135.98684692382812">
 <time>2015-12-06T02:24:46ZZ</time>
 <name><![CDATA[染田]]></name>
</wpt>

<wpt lat="34.599205017089844" lon="135.984130859375">
 <time>2015-12-06T02:24:46ZZ</time>
 <name><![CDATA[染田口]]></name>
</wpt>

<wpt lat="34.59638214111328" lon="135.9821014404297">
 <time>2015-12-06T02:24:46ZZ</time>
 <name><![CDATA[多田]]></name>
</wpt>

<wpt lat="34.59095001220703" lon="135.97740173339844">
 <time>2015-12-06T02:24:46ZZ</time>
 <name><![CDATA[無山東]]></name>
</wpt>

<wpt lat="34.58741760253906" lon="135.97662353515625">
 <time>2015-12-06T02:24:46ZZ</time>
 <name><![CDATA[無山]]></name>
</wpt>

<wpt lat="34.57635498046875" lon="135.99447631835938">
 <time>2015-12-06T02:24:46ZZ</time>
 <name><![CDATA[向渕]]></name>
</wpt>

<wpt lat="34.57390213012695" lon="135.9990234375">
 <time>2015-12-06T02:24:46ZZ</time>
 <name><![CDATA[馬場出口]]></name>
</wpt>

<wpt lat="34.56321716308594" lon="136.00289916992188">
 <time>2015-12-06T02:24:46ZZ</time>
 <name><![CDATA[緑川]]></name>
</wpt>

<wpt lat="34.563785552978516" lon="136.01556396484375">
 <time>2015-12-06T02:24:46ZZ</time>
 <name><![CDATA[室生地域事務所]]></name>
</wpt>

<wpt lat="34.56078338623047" lon="136.03526306152344">
 <time>2015-12-06T02:24:46ZZ</time>
 <name><![CDATA[砥取]]></name>
</wpt>

<wpt lat="34.53656005859375" lon="136.0428009033203">
 <time>2015-12-06T02:24:46ZZ</time>
 <name><![CDATA[室生駐在所前]]></name>
</wpt>

<wpt lat="34.534061431884766" lon="136.0471954345703">
 <time>2015-12-06T02:24:46ZZ</time>
 <name><![CDATA[竜穴神社前]]></name>
</wpt>

<wpt lat="34.5274658203125" lon="136.05453491210938">
 <time>2015-12-06T02:24:46ZZ</time>
 <name><![CDATA[宇野川橋]]></name>
</wpt>

<wpt lat="34.52507019042969" lon="136.05252075195312">
 <time>2015-12-06T02:24:46ZZ</time>
 <name><![CDATA[老人ホーム室生園]]></name>
</wpt>

<wpt lat="34.522621154785156" lon="136.0506134033203">
 <time>2015-12-06T02:24:46ZZ</time>
 <name><![CDATA[太古良橋]]></name>
</wpt>

<wpt lat="34.520652770996094" lon="136.0472869873047">
 <time>2015-12-06T02:24:46ZZ</time>
 <name><![CDATA[ふるさと元気村]]></name>
</wpt>

<wpt lat="34.51607131958008" lon="136.04782104492188">
 <time>2015-12-06T02:24:46ZZ</time>
 <name><![CDATA[不動野橋]]></name>
</wpt>

<wpt lat="34.510982513427734" lon="136.0508575439453">
 <time>2015-12-06T02:24:46ZZ</time>
 <name><![CDATA[角川]]></name>
</wpt>

<wpt lat="34.509525299072266" lon="136.0526885986328">
 <time>2015-12-06T02:24:46ZZ</time>
 <name><![CDATA[田口診療所]]></name>
</wpt>

<wpt lat="34.50349426269531" lon="136.04953002929688">
 <time>2015-12-06T02:24:46ZZ</time>
 <name><![CDATA[血原橋]]></name>
</wpt>

<wpt lat="34.49843978881836" lon="136.05372619628906">
 <time>2015-12-06T02:24:46ZZ</time>
 <name><![CDATA[黒岩口]]></name>
</wpt>

<wpt lat="34.483131408691406" lon="136.04612731933594">
 <time>2015-12-06T02:24:46ZZ</time>
 <name><![CDATA[上田口弁天]]></name>
</wpt>

<wpt lat="34.47182846069336" lon="135.9273681640625">
 <time>2015-12-06T02:24:46ZZ</time>
 <name><![CDATA[あきののゆ]]></name>
</wpt>

<wpt lat="34.47581100463867" lon="135.9328155517578">
 <time>2015-12-06T02:24:46ZZ</time>
 <name><![CDATA[大宇陀（道の駅）]]></name>
</wpt>

<wpt lat="34.47339630126953" lon="135.93360900878906">
 <time>2015-12-06T02:24:46ZZ</time>
 <name><![CDATA[万六]]></name>
</wpt>

<wpt lat="34.471595764160156" lon="135.9431915283203">
 <time>2015-12-06T02:24:46ZZ</time>
 <name><![CDATA[高倉口]]></name>
</wpt>

<wpt lat="34.46611022949219" lon="135.94808959960938">
 <time>2015-12-06T02:24:46ZZ</time>
 <name><![CDATA[上守道]]></name>
</wpt>

<wpt lat="34.46591567993164" lon="135.95306396484375">
 <time>2015-12-06T02:24:46ZZ</time>
 <name><![CDATA[守道]]></name>
</wpt>

<wpt lat="34.45866012573242" lon="135.95648193359375">
 <time>2015-12-06T02:24:46ZZ</time>
 <name><![CDATA[白鳥居]]></name>
</wpt>

<wpt lat="34.45011901855469" lon="135.9602813720703">
 <time>2015-12-06T02:24:46ZZ</time>
 <name><![CDATA[片岡]]></name>
</wpt>

<wpt lat="34.449005126953125" lon="135.9619140625">
 <time>2015-12-06T02:24:46ZZ</time>
 <name><![CDATA[東平尾口]]></name>
</wpt>

<wpt lat="34.447166442871094" lon="135.96498107910156">
 <time>2015-12-06T02:24:46ZZ</time>
 <name><![CDATA[東平尾]]></name>
</wpt>

<wpt lat="34.444580078125" lon="135.97190856933594">
 <time>2015-12-06T02:24:46ZZ</time>
 <name><![CDATA[大熊]]></name>
</wpt>

<wpt lat="34.44523620605469" lon="135.96006774902344">
 <time>2015-12-06T02:24:46ZZ</time>
 <name><![CDATA[上片岡集荷場前]]></name>
</wpt>

<wpt lat="34.44440460205078" lon="135.95730590820312">
 <time>2015-12-06T02:24:46ZZ</time>
 <name><![CDATA[堺垣内]]></name>
</wpt>

<wpt lat="34.444156646728516" lon="135.9512176513672">
 <time>2015-12-06T02:24:46ZZ</time>
 <name><![CDATA[宇陀菅原神社前]]></name>
</wpt>

<wpt lat="34.44455337524414" lon="135.9464111328125">
 <time>2015-12-06T02:24:46ZZ</time>
 <name><![CDATA[田原]]></name>
</wpt>

<wpt lat="34.435787200927734" lon="135.93797302246094">
 <time>2015-12-06T02:24:46ZZ</time>
 <name><![CDATA[千本橋]]></name>
</wpt>

<wpt lat="34.44268035888672" lon="135.93801879882812">
 <time>2015-12-06T02:24:46ZZ</time>
 <name><![CDATA[下栗野]]></name>
</wpt>

<wpt lat="34.446590423583984" lon="135.9375762939453">
 <time>2015-12-06T02:24:46ZZ</time>
 <name><![CDATA[大蔵寺前]]></name>
</wpt>

<wpt lat="34.451961517333984" lon="135.9366912841797">
 <time>2015-12-06T02:24:46ZZ</time>
 <name><![CDATA[栗野]]></name>
</wpt>

<wpt lat="34.45743942260742" lon="135.93467712402344">
 <time>2015-12-06T02:24:46ZZ</time>
 <name><![CDATA[関戸峠]]></name>
</wpt>

<wpt lat="34.462425231933594" lon="135.9332733154297">
 <time>2015-12-06T02:24:46ZZ</time>
 <name><![CDATA[関戸]]></name>
</wpt>

<wpt lat="34.46671676635742" lon="135.9337615966797">
 <time>2015-12-06T02:24:46ZZ</time>
 <name><![CDATA[大東]]></name>
</wpt>

<wpt lat="34.528228759765625" lon="135.95306396484375">
 <time>2015-12-06T02:24:46ZZ</time>
 <name><![CDATA[宇陀市役所]]></name>
</wpt>

<wpt lat="34.529396057128906" lon="135.95428466796875">
 <time>2015-12-06T02:24:46ZZ</time>
 <name><![CDATA[榛原駅]]></name>
</wpt>

<wpt lat="34.53132629394531" lon="135.96214294433594">
 <time>2015-12-06T02:24:46ZZ</time>
 <name><![CDATA[市立病院前]]></name>
</wpt>

<wpt lat="34.53537368774414" lon="135.9681854248047">
 <time>2015-12-06T02:24:46ZZ</time>
 <name><![CDATA[美榛苑]]></name>
</wpt>

<wpt lat="34.53956985473633" lon="135.9680938720703">
 <time>2015-12-06T02:24:46ZZ</time>
 <name><![CDATA[長峯公民館前]]></name>
</wpt>

<wpt lat="34.541500091552734" lon="135.971923828125">
 <time>2015-12-06T02:24:46ZZ</time>
 <name><![CDATA[長峯]]></name>
</wpt>

<wpt lat="34.54867172241211" lon="135.9826202392578">
 <time>2015-12-06T02:24:46ZZ</time>
 <name><![CDATA[山辺口]]></name>
</wpt>

<wpt lat="34.55302047729492" lon="135.98675537109375">
 <time>2015-12-06T02:24:46ZZ</time>
 <name><![CDATA[山辺]]></name>
</wpt>

<wpt lat="34.555152893066406" lon="135.9906005859375">
 <time>2015-12-06T02:24:46ZZ</time>
 <name><![CDATA[山辺東]]></name>
</wpt>

<wpt lat="34.555885314941406" lon="135.99319458007812">
 <time>2015-12-06T02:24:46ZZ</time>
 <name><![CDATA[大野西垣内]]></name>
</wpt>

<wpt lat="34.55812072753906" lon="135.9996337890625">
 <time>2015-12-06T02:24:46ZZ</time>
 <name><![CDATA[緑川半焼]]></name>
</wpt>

<wpt lat="34.55650329589844" lon="136.00103759765625">
 <time>2015-12-06T02:24:46ZZ</time>
 <name><![CDATA[ぬく森の郷]]></name>
</wpt>

<wpt lat="34.56435775756836" lon="136.01312255859375">
 <time>2015-12-06T02:24:46ZZ</time>
 <name><![CDATA[室生西小学校前]]></name>
</wpt>

<wpt lat="34.56574249267578" lon="136.01475524902344">
 <time>2015-12-06T02:24:46ZZ</time>
 <name><![CDATA[室生口大野駅]]></name>
</wpt>

<wpt lat="34.56074523925781" lon="136.00515747070312">
 <time>2015-12-06T02:24:46ZZ</time>
 <name><![CDATA[下脇]]></name>
</wpt>

<wpt lat="34.62837600708008" lon="135.70175170898438">
 <time>2015-12-06T02:24:46ZZ</time>
 <name><![CDATA[吉新商店街前]]></name>
</wpt>

<wpt lat="34.63175582885742" lon="135.6990966796875">
 <time>2015-12-06T02:24:46ZZ</time>
 <name><![CDATA[老人福祉センター前]]></name>
</wpt>

<wpt lat="34.629356384277344" lon="135.69956970214844">
 <time>2015-12-06T02:24:46ZZ</time>
 <name><![CDATA[中央公民館前]]></name>
</wpt>

<wpt lat="34.62672805786133" lon="135.6946258544922">
 <time>2015-12-06T02:24:46ZZ</time>
 <name><![CDATA[大津門池]]></name>
</wpt>

<wpt lat="34.62541961669922" lon="135.69020080566406">
 <time>2015-12-06T02:24:46ZZ</time>
 <name><![CDATA[総合スポーツセンター]]></name>
</wpt>

<wpt lat="34.62456130981445" lon="135.6875762939453">
 <time>2015-12-06T02:24:46ZZ</time>
 <name><![CDATA[西小学校]]></name>
</wpt>

<wpt lat="34.61949157714844" lon="135.6831512451172">
 <time>2015-12-06T02:24:46ZZ</time>
 <name><![CDATA[信貴畑待合所]]></name>
</wpt>

<wpt lat="34.61775588989258" lon="135.6806182861328">
 <time>2015-12-06T02:24:46ZZ</time>
 <name><![CDATA[信貴畑集落センター]]></name>
</wpt>

<wpt lat="34.62071228027344" lon="135.67225646972656">
 <time>2015-12-06T02:24:46ZZ</time>
 <name><![CDATA[久安寺久保入口]]></name>
</wpt>

<wpt lat="34.62315368652344" lon="135.6724090576172">
 <time>2015-12-06T02:24:46ZZ</time>
 <name><![CDATA[久安寺北垣内入口]]></name>
</wpt>

<wpt lat="34.63047409057617" lon="135.67678833007812">
 <time>2015-12-06T02:24:46ZZ</time>
 <name><![CDATA[福貴畑大石橋下]]></name>
</wpt>

<wpt lat="34.63337326049805" lon="135.6774139404297">
 <time>2015-12-06T02:24:46ZZ</time>
 <name><![CDATA[福貴畑集落センター]]></name>
</wpt>

<wpt lat="34.62948989868164" lon="135.7002410888672">
 <time>2015-12-06T02:24:46ZZ</time>
 <name><![CDATA[役場]]></name>
</wpt>

<wpt lat="34.63035583496094" lon="135.70127868652344">
 <time>2015-12-06T02:24:46ZZ</time>
 <name><![CDATA[東小学校前]]></name>
</wpt>

<wpt lat="34.62879180908203" lon="135.70155334472656">
 <time>2015-12-06T02:24:46ZZ</time>
 <name><![CDATA[南都銀行平群支店前]]></name>
</wpt>

<wpt lat="34.62934875488281" lon="135.7039794921875">
 <time>2015-12-06T02:24:46ZZ</time>
 <name><![CDATA[平群駅]]></name>
</wpt>

<wpt lat="34.62710189819336" lon="135.7019500732422">
 <time>2015-12-06T02:24:46ZZ</time>
 <name><![CDATA[森脇橋]]></name>
</wpt>

<wpt lat="34.62449264526367" lon="135.698974609375">
 <time>2015-12-06T02:24:46ZZ</time>
 <name><![CDATA[初香台1号公園]]></name>
</wpt>

<wpt lat="34.6248893737793" lon="135.70008850097656">
 <time>2015-12-06T02:24:46ZZ</time>
 <name><![CDATA[光ヶ丘二丁目]]></name>
</wpt>

<wpt lat="34.623695373535156" lon="135.69715881347656">
 <time>2015-12-06T02:24:46ZZ</time>
 <name><![CDATA[初香台四丁目]]></name>
</wpt>

<wpt lat="34.621334075927734" lon="135.69931030273438">
 <time>2015-12-06T02:24:46ZZ</time>
 <name><![CDATA[若井2号公園南]]></name>
</wpt>

<wpt lat="34.62037658691406" lon="135.69883728027344">
 <time>2015-12-06T02:24:46ZZ</time>
 <name><![CDATA[平群町人権交流センター]]></name>
</wpt>

<wpt lat="34.61930465698242" lon="135.70323181152344">
 <time>2015-12-06T02:24:46ZZ</time>
 <name><![CDATA[南保育園]]></name>
</wpt>

<wpt lat="34.61781692504883" lon="135.7044677734375">
 <time>2015-12-06T02:24:46ZZ</time>
 <name><![CDATA[竜田川駅西側]]></name>
</wpt>

<wpt lat="34.61647415161133" lon="135.700927734375">
 <time>2015-12-06T02:24:46ZZ</time>
 <name><![CDATA[春日丘中五条通北]]></name>
</wpt>

<wpt lat="34.615570068359375" lon="135.70169067382812">
 <time>2015-12-06T02:24:46ZZ</time>
 <name><![CDATA[春日丘中三条通南]]></name>
</wpt>

<wpt lat="34.61644744873047" lon="135.70252990722656">
 <time>2015-12-06T02:24:46ZZ</time>
 <name><![CDATA[春日丘会館]]></name>
</wpt>

<wpt lat="34.61677551269531" lon="135.70521545410156">
 <time>2015-12-06T02:24:46ZZ</time>
 <name><![CDATA[竜田川駅東側]]></name>
</wpt>

<wpt lat="34.61275100708008" lon="135.70741271972656">
 <time>2015-12-06T02:24:46ZZ</time>
 <name><![CDATA[椿井交差点南]]></name>
</wpt>

<wpt lat="34.61044692993164" lon="135.70877075195312">
 <time>2015-12-06T02:24:46ZZ</time>
 <name><![CDATA[北信貴ヶ丘自治会館]]></name>
</wpt>

<wpt lat="34.611732482910156" lon="135.7097930908203">
 <time>2015-12-06T02:24:46ZZ</time>
 <name><![CDATA[竜田川団地3号公園下]]></name>
</wpt>

<wpt lat="34.61407470703125" lon="135.7115478515625">
 <time>2015-12-06T02:24:46ZZ</time>
 <name><![CDATA[竜田川ネオポリス]]></name>
</wpt>

<wpt lat="34.61322784423828" lon="135.7100067138672">
 <time>2015-12-06T02:24:46ZZ</time>
 <name><![CDATA[竜田川団地入口]]></name>
</wpt>

<wpt lat="34.616668701171875" lon="135.7038116455078">
 <time>2015-12-06T02:24:46ZZ</time>
 <name><![CDATA[春日丘入口]]></name>
</wpt>

<wpt lat="34.62176513671875" lon="135.69773864746094">
 <time>2015-12-06T02:24:46ZZ</time>
 <name><![CDATA[若井若葉湯東]]></name>
</wpt>

<wpt lat="34.498592376708984" lon="136.11280822753906">
 <time>2015-12-06T02:24:46ZZ</time>
 <name><![CDATA[掛西口]]></name>
</wpt>

<wpt lat="34.490394592285156" lon="136.11715698242188">
 <time>2015-12-06T02:24:46ZZ</time>
 <name><![CDATA[桃俣口]]></name>
</wpt>

<wpt lat="34.48912048339844" lon="136.11602783203125">
 <time>2015-12-06T02:24:46ZZ</time>
 <name><![CDATA[桃俣町屋]]></name>
</wpt>

<wpt lat="34.4872932434082" lon="136.11434936523438">
 <time>2015-12-06T02:24:46ZZ</time>
 <name><![CDATA[桃俣町屋上]]></name>
</wpt>

<wpt lat="34.483741760253906" lon="136.11492919921875">
 <time>2015-12-06T02:24:46ZZ</time>
 <name><![CDATA[桃俣菖浦]]></name>
</wpt>

<wpt lat="34.4798698425293" lon="136.11485290527344">
 <time>2015-12-06T02:24:46ZZ</time>
 <name><![CDATA[三季館前]]></name>
</wpt>

<wpt lat="34.477935791015625" lon="136.11367797851562">
 <time>2015-12-06T02:24:46ZZ</time>
 <name><![CDATA[茶屋の辻]]></name>
</wpt>

<wpt lat="34.48707962036133" lon="136.1203155517578">
 <time>2015-12-06T02:24:46ZZ</time>
 <name><![CDATA[土屋原畑井]]></name>
</wpt>

<wpt lat="34.48490524291992" lon="136.1245880126953">
 <time>2015-12-06T02:24:46ZZ</time>
 <name><![CDATA[土屋原水口]]></name>
</wpt>

<wpt lat="34.48421859741211" lon="136.12945556640625">
 <time>2015-12-06T02:24:46ZZ</time>
 <name><![CDATA[土屋原峯]]></name>
</wpt>

<wpt lat="34.484073638916016" lon="136.13368225097656">
 <time>2015-12-06T02:24:46ZZ</time>
 <name><![CDATA[土屋原中村]]></name>
</wpt>

<wpt lat="34.48236083984375" lon="136.13787841796875">
 <time>2015-12-06T02:24:46ZZ</time>
 <name><![CDATA[土屋原堂前]]></name>
</wpt>

<wpt lat="34.47630310058594" lon="136.1374969482422">
 <time>2015-12-06T02:24:46ZZ</time>
 <name><![CDATA[土屋原大野]]></name>
</wpt>

<wpt lat="34.48548126220703" lon="136.1443634033203">
 <time>2015-12-06T02:24:46ZZ</time>
 <name><![CDATA[土屋原笹及]]></name>
</wpt>

<wpt lat="34.48747634887695" lon="136.15634155273438">
 <time>2015-12-06T02:24:46ZZ</time>
 <name><![CDATA[小学校前]]></name>
</wpt>

<wpt lat="34.489139556884766" lon="136.16204833984375">
 <time>2015-12-06T02:24:46ZZ</time>
 <name><![CDATA[菅野前谷]]></name>
</wpt>

<wpt lat="34.48874282836914" lon="136.16537475585938">
 <time>2015-12-06T02:24:46ZZ</time>
 <name><![CDATA[役場前]]></name>
</wpt>

<wpt lat="34.4841423034668" lon="136.16578674316406">
 <time>2015-12-06T02:24:46ZZ</time>
 <name><![CDATA[菅野中野]]></name>
</wpt>

<wpt lat="34.48042678833008" lon="136.16615295410156">
 <time>2015-12-06T02:24:46ZZ</time>
 <name><![CDATA[大杉分教会]]></name>
</wpt>

<wpt lat="34.47752380371094" lon="136.1669921875">
 <time>2015-12-06T02:24:46ZZ</time>
 <name><![CDATA[菅野上郷]]></name>
</wpt>

<wpt lat="34.487178802490234" lon="136.16677856445312">
 <time>2015-12-06T02:24:46ZZ</time>
 <name><![CDATA[診療所]]></name>
</wpt>

<wpt lat="34.48997497558594" lon="136.1680145263672">
 <time>2015-12-06T02:24:46ZZ</time>
 <name><![CDATA[菅野庄谷]]></name>
</wpt>

<wpt lat="34.49123764038086" lon="136.169921875">
 <time>2015-12-06T02:24:46ZZ</time>
 <name><![CDATA[菅野中村]]></name>
</wpt>

<wpt lat="34.4932746887207" lon="136.17298889160156">
 <time>2015-12-06T02:24:46ZZ</time>
 <name><![CDATA[郵便局前]]></name>
</wpt>

<wpt lat="34.49646759033203" lon="136.1758270263672">
 <time>2015-12-06T02:24:46ZZ</time>
 <name><![CDATA[菅野東郷]]></name>
</wpt>

<wpt lat="34.50347137451172" lon="136.17820739746094">
 <time>2015-12-06T02:24:46ZZ</time>
 <name><![CDATA[菅野際土良]]></name>
</wpt>

<wpt lat="34.50515365600586" lon="136.18406677246094">
 <time>2015-12-06T02:24:46ZZ</time>
 <name><![CDATA[菅野泰原]]></name>
</wpt>

<wpt lat="34.508056640625" lon="136.19129943847656">
 <time>2015-12-06T02:24:46ZZ</time>
 <name><![CDATA[神末川合]]></name>
</wpt>

<wpt lat="34.50661849975586" lon="136.1929168701172">
 <time>2015-12-06T02:24:46ZZ</time>
 <name><![CDATA[上浪医院前]]></name>
</wpt>

<wpt lat="34.50181579589844" lon="136.1957244873047">
 <time>2015-12-06T02:24:46ZZ</time>
 <name><![CDATA[神末辻本]]></name>
</wpt>

<wpt lat="34.49869918823242" lon="136.1951446533203">
 <time>2015-12-06T02:24:46ZZ</time>
 <name><![CDATA[神末東町]]></name>
</wpt>

<wpt lat="34.497440338134766" lon="136.1947479248047">
 <time>2015-12-06T02:24:46ZZ</time>
 <name><![CDATA[神末西町]]></name>
</wpt>

<wpt lat="34.49046325683594" lon="136.19503784179688">
 <time>2015-12-06T02:24:46ZZ</time>
 <name><![CDATA[神末中村]]></name>
</wpt>

<wpt lat="34.4863395690918" lon="136.19583129882812">
 <time>2015-12-06T02:24:46ZZ</time>
 <name><![CDATA[神末上村口]]></name>
</wpt>

<wpt lat="34.48290252685547" lon="136.19644165039062">
 <time>2015-12-06T02:24:46ZZ</time>
 <name><![CDATA[神末上村]]></name>
</wpt>

<wpt lat="34.504215240478516" lon="136.1994171142578">
 <time>2015-12-06T02:24:46ZZ</time>
 <name><![CDATA[神末佐田峠]]></name>
</wpt>

<wpt lat="34.5098876953125" lon="136.2048797607422">
 <time>2015-12-06T02:24:46ZZ</time>
 <name><![CDATA[敷津集会所]]></name>
</wpt>

<wpt lat="34.51644515991211" lon="136.2022247314453">
 <time>2015-12-06T02:24:46ZZ</time>
 <name><![CDATA[神末敷津]]></name>
</wpt>

<wpt lat="34.516963958740234" lon="136.20794677734375">
 <time>2015-12-06T02:24:46ZZ</time>
 <name><![CDATA[神末西部]]></name>
</wpt>

<wpt lat="34.51437759399414" lon="136.21554565429688">
 <time>2015-12-06T02:24:46ZZ</time>
 <name><![CDATA[神末小屋]]></name>
</wpt>

<wpt lat="34.483909606933594" lon="135.7950897216797">
 <time>2015-12-06T02:24:46ZZ</time>
 <name><![CDATA[橿原神宮駅東口]]></name>
</wpt>

<wpt lat="34.48303985595703" lon="135.80438232421875">
 <time>2015-12-06T02:24:46ZZ</time>
 <name><![CDATA[和田町西]]></name>
</wpt>

<wpt lat="34.48305130004883" lon="135.8075408935547">
 <time>2015-12-06T02:24:46ZZ</time>
 <name><![CDATA[橿原和田]]></name>
</wpt>

<wpt lat="34.48310089111328" lon="135.8112335205078">
 <time>2015-12-06T02:24:46ZZ</time>
 <name><![CDATA[豊浦駐車場]]></name>
</wpt>

<wpt lat="34.48329544067383" lon="135.81329345703125">
 <time>2015-12-06T02:24:46ZZ</time>
 <name><![CDATA[豊浦]]></name>
</wpt>

<wpt lat="34.48169708251953" lon="135.8150177001953">
 <time>2015-12-06T02:24:46ZZ</time>
 <name><![CDATA[甘樫丘]]></name>
</wpt>

<wpt lat="34.48062515258789" lon="135.81768798828125">
 <time>2015-12-06T02:24:46ZZ</time>
 <name><![CDATA[飛鳥]]></name>
</wpt>

<wpt lat="34.48846435546875" lon="135.81561279296875">
 <time>2015-12-06T02:24:46ZZ</time>
 <name><![CDATA[明日香小山]]></name>
</wpt>

<wpt lat="34.483428955078125" lon="135.8250274658203">
 <time>2015-12-06T02:24:46ZZ</time>
 <name><![CDATA[飛鳥資料館前]]></name>
</wpt>

<wpt lat="34.47874069213867" lon="135.821044921875">
 <time>2015-12-06T02:24:46ZZ</time>
 <name><![CDATA[飛鳥大仏前]]></name>
</wpt>

<wpt lat="34.47609329223633" lon="135.82232666015625">
 <time>2015-12-06T02:24:46ZZ</time>
 <name><![CDATA[万葉文化館西口]]></name>
</wpt>

<wpt lat="34.47354507446289" lon="135.82249450683594">
 <time>2015-12-06T02:24:46ZZ</time>
 <name><![CDATA[岡天理教前]]></name>
</wpt>

<wpt lat="34.4714241027832" lon="135.82241821289062">
 <time>2015-12-06T02:24:46ZZ</time>
 <name><![CDATA[岡戎前]]></name>
</wpt>

<wpt lat="34.47026443481445" lon="135.8225555419922">
 <time>2015-12-06T02:24:46ZZ</time>
 <name><![CDATA[岡寺前]]></name>
</wpt>

<wpt lat="34.46758270263672" lon="135.82382202148438">
 <time>2015-12-06T02:24:46ZZ</time>
 <name><![CDATA[石舞台]]></name>
</wpt>

<wpt lat="34.46907043457031" lon="135.82241821289062">
 <time>2015-12-06T02:24:46ZZ</time>
 <name><![CDATA[明日香観光会館前]]></name>
</wpt>

<wpt lat="34.47151184082031" lon="135.81907653808594">
 <time>2015-12-06T02:24:46ZZ</time>
 <name><![CDATA[岡橋本]]></name>
</wpt>

<wpt lat="34.4714241027832" lon="135.8159942626953">
 <time>2015-12-06T02:24:46ZZ</time>
 <name><![CDATA[川原]]></name>
</wpt>

<wpt lat="34.47105026245117" lon="135.81358337402344">
 <time>2015-12-06T02:24:46ZZ</time>
 <name><![CDATA[中央公民館]]></name>
</wpt>

<wpt lat="34.46746826171875" lon="135.81361389160156">
 <time>2015-12-06T02:24:46ZZ</time>
 <name><![CDATA[健康福祉センター]]></name>
</wpt>

<wpt lat="34.469749450683594" lon="135.81028747558594">
 <time>2015-12-06T02:24:46ZZ</time>
 <name><![CDATA[天武・持統陵]]></name>
</wpt>

<wpt lat="34.46500015258789" lon="135.8043212890625">
 <time>2015-12-06T02:24:46ZZ</time>
 <name><![CDATA[高松塚]]></name>
</wpt>

<wpt lat="34.46453857421875" lon="135.79867553710938">
 <time>2015-12-06T02:24:46ZZ</time>
 <name><![CDATA[飛鳥駅]]></name>
</wpt>

<wpt lat="34.460105895996094" lon="135.7978057861328">
 <time>2015-12-06T02:24:46ZZ</time>
 <name><![CDATA[緑ヶ丘]]></name>
</wpt>

<wpt lat="34.454124450683594" lon="135.796142578125">
 <time>2015-12-06T02:24:46ZZ</time>
 <name><![CDATA[吉野ストア]]></name>
</wpt>

<wpt lat="34.450687408447266" lon="135.8056640625">
 <time>2015-12-06T02:24:46ZZ</time>
 <name><![CDATA[阿部山]]></name>
</wpt>

<wpt lat="34.45294189453125" lon="135.80499267578125">
 <time>2015-12-06T02:24:46ZZ</time>
 <name><![CDATA[大根田]]></name>
</wpt>

<wpt lat="34.454349517822266" lon="135.8076934814453">
 <time>2015-12-06T02:24:46ZZ</time>
 <name><![CDATA[栗原]]></name>
</wpt>

<wpt lat="34.460601806640625" lon="135.8030548095703">
 <time>2015-12-06T02:24:46ZZ</time>
 <name><![CDATA[檜前]]></name>
</wpt>

<wpt lat="34.46489334106445" lon="135.82955932617188">
 <time>2015-12-06T02:24:46ZZ</time>
 <name><![CDATA[上居]]></name>
</wpt>

<wpt lat="34.464298248291016" lon="135.8333740234375">
 <time>2015-12-06T02:24:46ZZ</time>
 <name><![CDATA[細川]]></name>
</wpt>

<wpt lat="34.4627685546875" lon="135.84796142578125">
 <time>2015-12-06T02:24:46ZZ</time>
 <name><![CDATA[上]]></name>
</wpt>

<wpt lat="34.46342468261719" lon="135.8255157470703">
 <time>2015-12-06T02:24:46ZZ</time>
 <name><![CDATA[阪田]]></name>
</wpt>

<wpt lat="34.454811096191406" lon="135.82168579101562">
 <time>2015-12-06T02:24:46ZZ</time>
 <name><![CDATA[稲渕]]></name>
</wpt>

<wpt lat="34.44307327270508" lon="135.8299560546875">
 <time>2015-12-06T02:24:46ZZ</time>
 <name><![CDATA[栢森]]></name>
</wpt>

<wpt lat="34.39004898071289" lon="135.8472900390625">
 <time>2015-12-06T02:24:46ZZ</time>
 <name><![CDATA[吉野病院]]></name>
</wpt>

<wpt lat="34.39018630981445" lon="135.84796142578125">
 <time>2015-12-06T02:24:46ZZ</time>
 <name><![CDATA[吉野神宮駅]]></name>
</wpt>

<wpt lat="34.387351989746094" lon="135.84548950195312">
 <time>2015-12-06T02:24:46ZZ</time>
 <name><![CDATA[吉野神宮前]]></name>
</wpt>

<wpt lat="34.384246826171875" lon="135.84690856933594">
 <time>2015-12-06T02:24:46ZZ</time>
 <name><![CDATA[吉野神宮南]]></name>
</wpt>

<wpt lat="34.38241958618164" lon="135.84683227539062">
 <time>2015-12-06T02:24:46ZZ</time>
 <name><![CDATA[吉野長峰]]></name>
</wpt>

<wpt lat="34.37467575073242" lon="135.85227966308594">
 <time>2015-12-06T02:24:46ZZ</time>
 <name><![CDATA[吉野山駐車場]]></name>
</wpt>

<wpt lat="34.37217712402344" lon="135.8556671142578">
 <time>2015-12-06T02:24:46ZZ</time>
 <name><![CDATA[下千本]]></name>
</wpt>

<wpt lat="34.37007522583008" lon="135.85801696777344">
 <time>2015-12-06T02:24:46ZZ</time>
 <name><![CDATA[銅の鳥居前]]></name>
</wpt>

<wpt lat="34.36851119995117" lon="135.85923767089844">
 <time>2015-12-06T02:24:46ZZ</time>
 <name><![CDATA[仁王門前]]></name>
</wpt>

<wpt lat="34.36668395996094" lon="135.86056518554688">
 <time>2015-12-06T02:24:46ZZ</time>
 <name><![CDATA[吉野山中町]]></name>
</wpt>

<wpt lat="34.364707946777344" lon="135.86279296875">
 <time>2015-12-06T02:24:46ZZ</time>
 <name><![CDATA[中千本]]></name>
</wpt>

<wpt lat="34.361148834228516" lon="135.86402893066406">
 <time>2015-12-06T02:24:46ZZ</time>
 <name><![CDATA[中千本公園]]></name>
</wpt>

<wpt lat="34.360076904296875" lon="135.8649444580078">
 <time>2015-12-06T02:24:46ZZ</time>
 <name><![CDATA[上千本口]]></name>
</wpt>

<wpt lat="34.37461853027344" lon="135.85601806640625">
 <time>2015-12-06T02:24:46ZZ</time>
 <name><![CDATA[町営住宅前]]></name>
</wpt>

<wpt lat="34.37685012817383" lon="135.8539581298828">
 <time>2015-12-06T02:24:46ZZ</time>
 <name><![CDATA[吉野駅]]></name>
</wpt>

<wpt lat="34.38118362426758" lon="135.85372924804688">
 <time>2015-12-06T02:24:46ZZ</time>
 <name><![CDATA[県営住宅前]]></name>
</wpt>

<wpt lat="34.387481689453125" lon="135.82725524902344">
 <time>2015-12-06T02:24:46ZZ</time>
 <name><![CDATA[奥六田]]></name>
</wpt>

<wpt lat="34.38970947265625" lon="135.83123779296875">
 <time>2015-12-06T02:24:46ZZ</time>
 <name><![CDATA[美吉野橋南詰]]></name>
</wpt>

<wpt lat="34.390499114990234" lon="135.8352813720703">
 <time>2015-12-06T02:24:46ZZ</time>
 <name><![CDATA[左曽口]]></name>
</wpt>

<wpt lat="34.39021682739258" lon="135.83583068847656">
 <time>2015-12-06T02:24:46ZZ</time>
 <name><![CDATA[下左曽]]></name>
</wpt>

<wpt lat="34.389404296875" lon="135.83616638183594">
 <time>2015-12-06T02:24:46ZZ</time>
 <name><![CDATA[中左曽]]></name>
</wpt>

<wpt lat="34.38833236694336" lon="135.83645629882812">
 <time>2015-12-06T02:24:46ZZ</time>
 <name><![CDATA[上左曽]]></name>
</wpt>

<wpt lat="34.39139938354492" lon="135.84060668945312">
 <time>2015-12-06T02:24:46ZZ</time>
 <name><![CDATA[吉野大橋南詰]]></name>
</wpt>

<wpt lat="34.390716552734375" lon="135.85423278808594">
 <time>2015-12-06T02:24:46ZZ</time>
 <name><![CDATA[丹治]]></name>
</wpt>

<wpt lat="34.38979721069336" lon="135.8513946533203">
 <time>2015-12-06T02:24:46ZZ</time>
 <name><![CDATA[飯貝茶屋]]></name>
</wpt>

<wpt lat="34.39272689819336" lon="135.85678100585938">
 <time>2015-12-06T02:24:46ZZ</time>
 <name><![CDATA[保育所前]]></name>
</wpt>

<wpt lat="34.3934326171875" lon="135.85874938964844">
 <time>2015-12-06T02:24:46ZZ</time>
 <name><![CDATA[桜橋南詰]]></name>
</wpt>

<wpt lat="34.38276672363281" lon="135.8691864013672">
 <time>2015-12-06T02:24:46ZZ</time>
 <name><![CDATA[藤田]]></name>
</wpt>

<wpt lat="34.39445877075195" lon="135.86434936523438">
 <time>2015-12-06T02:24:46ZZ</time>
 <name><![CDATA[飯貝庁舎前]]></name>
</wpt>

<wpt lat="34.39124298095703" lon="135.87008666992188">
 <time>2015-12-06T02:24:46ZZ</time>
 <name><![CDATA[左室]]></name>
</wpt>

<wpt lat="34.3876953125" lon="135.87564086914062">
 <time>2015-12-06T02:24:46ZZ</time>
 <name><![CDATA[下南楢井]]></name>
</wpt>

<wpt lat="34.38518142700195" lon="135.87855529785156">
 <time>2015-12-06T02:24:46ZZ</time>
 <name><![CDATA[上南楢井]]></name>
</wpt>

<wpt lat="34.37956619262695" lon="135.8888397216797">
 <time>2015-12-06T02:24:46ZZ</time>
 <name><![CDATA[下御園]]></name>
</wpt>

<wpt lat="34.376930236816406" lon="135.8897247314453">
 <time>2015-12-06T02:24:46ZZ</time>
 <name><![CDATA[上御園]]></name>
</wpt>

<wpt lat="34.364959716796875" lon="135.88987731933594">
 <time>2015-12-06T02:24:46ZZ</time>
 <name><![CDATA[喜佐谷]]></name>
</wpt>

<wpt lat="34.37519836425781" lon="135.89503479003906">
 <time>2015-12-06T02:24:46ZZ</time>
 <name><![CDATA[喜佐谷口]]></name>
</wpt>

<wpt lat="34.37595748901367" lon="135.89915466308594">
 <time>2015-12-06T02:24:46ZZ</time>
 <name><![CDATA[樋口]]></name>
</wpt>

<wpt lat="34.37678909301758" lon="135.90792846679688">
 <time>2015-12-06T02:24:46ZZ</time>
 <name><![CDATA[樫尾]]></name>
</wpt>

<wpt lat="34.39439392089844" lon="135.84695434570312">
 <time>2015-12-06T02:24:46ZZ</time>
 <name><![CDATA[上市]]></name>
</wpt>

<wpt lat="34.39430618286133" lon="135.8502197265625">
 <time>2015-12-06T02:24:46ZZ</time>
 <name><![CDATA[上市橋]]></name>
</wpt>

<wpt lat="34.39472579956055" lon="135.85382080078125">
 <time>2015-12-06T02:24:46ZZ</time>
 <name><![CDATA[リバーフィールド吉野]]></name>
</wpt>

<wpt lat="34.394920349121094" lon="135.85548400878906">
 <time>2015-12-06T02:24:46ZZ</time>
 <name><![CDATA[上市局前]]></name>
</wpt>

<wpt lat="34.395301818847656" lon="135.8577117919922">
 <time>2015-12-06T02:24:46ZZ</time>
 <name><![CDATA[役場前]]></name>
</wpt>

<wpt lat="34.39603042602539" lon="135.86109924316406">
 <time>2015-12-06T02:24:46ZZ</time>
 <name><![CDATA[上市水泳場]]></name>
</wpt>

<wpt lat="34.396236419677734" lon="135.86309814453125">
 <time>2015-12-06T02:24:46ZZ</time>
 <name><![CDATA[轟]]></name>
</wpt>

<wpt lat="34.39569854736328" lon="135.86566162109375">
 <time>2015-12-06T02:24:46ZZ</time>
 <name><![CDATA[立野]]></name>
</wpt>

<wpt lat="34.39464569091797" lon="135.86717224121094">
 <time>2015-12-06T02:24:46ZZ</time>
 <name><![CDATA[立野口]]></name>
</wpt>

<wpt lat="34.39308166503906" lon="135.8703155517578">
 <time>2015-12-06T02:24:46ZZ</time>
 <name><![CDATA[津風呂湖口]]></name>
</wpt>

<wpt lat="34.394229888916016" lon="135.87374877929688">
 <time>2015-12-06T02:24:46ZZ</time>
 <name><![CDATA[吉野中学校]]></name>
</wpt>

<wpt lat="34.38847732543945" lon="135.88124084472656">
 <time>2015-12-06T02:24:46ZZ</time>
 <name><![CDATA[下楢井]]></name>
</wpt>

<wpt lat="34.385398864746094" lon="135.88162231445312">
 <time>2015-12-06T02:24:46ZZ</time>
 <name><![CDATA[楢井老人憩いの家]]></name>
</wpt>

<wpt lat="34.38423156738281" lon="135.88235473632812">
 <time>2015-12-06T02:24:46ZZ</time>
 <name><![CDATA[楢井]]></name>
</wpt>

<wpt lat="34.383575439453125" lon="135.8869171142578">
 <time>2015-12-06T02:24:46ZZ</time>
 <name><![CDATA[上楢井]]></name>
</wpt>

<wpt lat="34.382999420166016" lon="135.8916473388672">
 <time>2015-12-06T02:24:46ZZ</time>
 <name><![CDATA[長崎]]></name>
</wpt>

<wpt lat="34.37751770019531" lon="135.89422607421875">
 <time>2015-12-06T02:24:46ZZ</time>
 <name><![CDATA[宮滝]]></name>
</wpt>

<wpt lat="34.383819580078125" lon="135.89991760253906">
 <time>2015-12-06T02:24:46ZZ</time>
 <name><![CDATA[菜摘]]></name>
</wpt>

<wpt lat="34.38701248168945" lon="135.90631103515625">
 <time>2015-12-06T02:24:46ZZ</time>
 <name><![CDATA[下矢治]]></name>
</wpt>

<wpt lat="34.37784194946289" lon="135.91050720214844">
 <time>2015-12-06T02:24:46ZZ</time>
 <name><![CDATA[上矢治]]></name>
</wpt>

<wpt lat="34.376216888427734" lon="135.91481018066406">
 <time>2015-12-06T02:24:46ZZ</time>
 <name><![CDATA[矢治若山]]></name>
</wpt>

<wpt lat="34.38610076904297" lon="135.91651916503906">
 <time>2015-12-06T02:24:46ZZ</time>
 <name><![CDATA[吉野渡場]]></name>
</wpt>

<wpt lat="34.38862228393555" lon="135.92002868652344">
 <time>2015-12-06T02:24:46ZZ</time>
 <name><![CDATA[南大野]]></name>
</wpt>

<wpt lat="34.391090393066406" lon="135.92169189453125">
 <time>2015-12-06T02:24:46ZZ</time>
 <name><![CDATA[大野]]></name>
</wpt>

<wpt lat="34.39070129394531" lon="135.92669677734375">
 <time>2015-12-06T02:24:46ZZ</time>
 <name><![CDATA[窪垣内]]></name>
</wpt>

<wpt lat="34.388126373291016" lon="135.92591857910156">
 <time>2015-12-06T02:24:46ZZ</time>
 <name><![CDATA[窪垣内宮の下]]></name>
</wpt>

<wpt lat="34.38694763183594" lon="135.9279022216797">
 <time>2015-12-06T02:24:46ZZ</time>
 <name><![CDATA[新子局前]]></name>
</wpt>

<wpt lat="34.385833740234375" lon="135.93067932128906">
 <time>2015-12-06T02:24:46ZZ</time>
 <name><![CDATA[新子]]></name>
</wpt>

<wpt lat="34.38496780395508" lon="135.9326629638672">
 <time>2015-12-06T02:24:46ZZ</time>
 <name><![CDATA[国栖]]></name>
</wpt>

<wpt lat="34.38334655761719" lon="135.92979431152344">
 <time>2015-12-06T02:24:46ZZ</time>
 <name><![CDATA[南国栖隧道口]]></name>
</wpt>

<wpt lat="34.37989807128906" lon="135.92837524414062">
 <time>2015-12-06T02:24:46ZZ</time>
 <name><![CDATA[南国栖]]></name>
</wpt>

<wpt lat="34.39921188354492" lon="135.9265594482422">
 <time>2015-12-06T02:24:46ZZ</time>
 <name><![CDATA[入野]]></name>
</wpt>

<wpt lat="34.408573150634766" lon="135.93032836914062">
 <time>2015-12-06T02:24:46ZZ</time>
 <name><![CDATA[下色生]]></name>
</wpt>

<wpt lat="34.411502838134766" lon="135.93402099609375">
 <time>2015-12-06T02:24:46ZZ</time>
 <name><![CDATA[中色生]]></name>
</wpt>

<wpt lat="34.415016174316406" lon="135.9346923828125">
 <time>2015-12-06T02:24:46ZZ</time>
 <name><![CDATA[上色生]]></name>
</wpt>

<wpt lat="34.417724609375" lon="135.93643188476562">
 <time>2015-12-06T02:24:46ZZ</time>
 <name><![CDATA[笛吹]]></name>
</wpt>

<wpt lat="34.39527893066406" lon="135.84568786621094">
 <time>2015-12-06T02:24:46ZZ</time>
 <name><![CDATA[上市駅]]></name>
</wpt>

<wpt lat="34.39455795288086" lon="135.8452911376953">
 <time>2015-12-06T02:24:46ZZ</time>
 <name><![CDATA[尾仁山]]></name>
</wpt>

<wpt lat="34.394737243652344" lon="135.85093688964844">
 <time>2015-12-06T02:24:46ZZ</time>
 <name><![CDATA[上市橋北詰]]></name>
</wpt>

<wpt lat="34.39540481567383" lon="135.85374450683594">
 <time>2015-12-06T02:24:46ZZ</time>
 <name><![CDATA[六軒町]]></name>
</wpt>

<wpt lat="34.39554977416992" lon="135.855712890625">
 <time>2015-12-06T02:24:46ZZ</time>
 <name><![CDATA[蛭子宮前]]></name>
</wpt>

<wpt lat="34.39573669433594" lon="135.857666015625">
 <time>2015-12-06T02:24:46ZZ</time>
 <name><![CDATA[中道役場前]]></name>
</wpt>

<wpt lat="34.3962287902832" lon="135.86001586914062">
 <time>2015-12-06T02:24:46ZZ</time>
 <name><![CDATA[轟会所下]]></name>
</wpt>

<wpt lat="34.395896911621094" lon="135.8656768798828">
 <time>2015-12-06T02:24:46ZZ</time>
 <name><![CDATA[中道立野]]></name>
</wpt>

<wpt lat="34.394920349121094" lon="135.867431640625">
 <time>2015-12-06T02:24:46ZZ</time>
 <name><![CDATA[中道立野口]]></name>
</wpt>

<wpt lat="34.39748001098633" lon="135.87290954589844">
 <time>2015-12-06T02:24:46ZZ</time>
 <name><![CDATA[吉中北口]]></name>
</wpt>

<wpt lat="34.40305709838867" lon="135.87774658203125">
 <time>2015-12-06T02:24:46ZZ</time>
 <name><![CDATA[南峰寺口]]></name>
</wpt>

<wpt lat="34.40646743774414" lon="135.88082885742188">
 <time>2015-12-06T02:24:46ZZ</time>
 <name><![CDATA[佐々羅口]]></name>
</wpt>

<wpt lat="34.39850997924805" lon="135.8470458984375">
 <time>2015-12-06T02:24:46ZZ</time>
 <name><![CDATA[東口住宅前]]></name>
</wpt>

<wpt lat="34.40135955810547" lon="135.85653686523438">
 <time>2015-12-06T02:24:46ZZ</time>
 <name><![CDATA[みどりの村口]]></name>
</wpt>

<wpt lat="34.4066162109375" lon="135.8600311279297">
 <time>2015-12-06T02:24:46ZZ</time>
 <name><![CDATA[下千股]]></name>
</wpt>

<wpt lat="34.40839385986328" lon="135.86061096191406">
 <time>2015-12-06T02:24:46ZZ</time>
 <name><![CDATA[中千股]]></name>
</wpt>

<wpt lat="34.411338806152344" lon="135.86065673828125">
 <time>2015-12-06T02:24:46ZZ</time>
 <name><![CDATA[上千股]]></name>
</wpt>

<wpt lat="34.40740203857422" lon="135.87167358398438">
 <time>2015-12-06T02:24:46ZZ</time>
 <name><![CDATA[志賀]]></name>
</wpt>

<wpt lat="34.40053939819336" lon="135.87261962890625">
 <time>2015-12-06T02:24:46ZZ</time>
 <name><![CDATA[峰寺口]]></name>
</wpt>

<wpt lat="34.40834045410156" lon="135.87667846679688">
 <time>2015-12-06T02:24:46ZZ</time>
 <name><![CDATA[峰寺]]></name>
</wpt>

<wpt lat="34.40895080566406" lon="135.87852478027344">
 <time>2015-12-06T02:24:46ZZ</time>
 <name><![CDATA[佐々羅]]></name>
</wpt>

<wpt lat="34.409488677978516" lon="135.8806610107422">
 <time>2015-12-06T02:24:46ZZ</time>
 <name><![CDATA[西谷口]]></name>
</wpt>

<wpt lat="34.413543701171875" lon="135.88145446777344">
 <time>2015-12-06T02:24:46ZZ</time>
 <name><![CDATA[西谷集会所]]></name>
</wpt>

<wpt lat="34.4159049987793" lon="135.88204956054688">
 <time>2015-12-06T02:24:46ZZ</time>
 <name><![CDATA[西谷大橋]]></name>
</wpt>

<wpt lat="34.422142028808594" lon="135.8837890625">
 <time>2015-12-06T02:24:46ZZ</time>
 <name><![CDATA[西谷半次河原]]></name>
</wpt>

<wpt lat="34.4094352722168" lon="135.88290405273438">
 <time>2015-12-06T02:24:46ZZ</time>
 <name><![CDATA[龍門郵便局]]></name>
</wpt>

<wpt lat="34.41021728515625" lon="135.8851776123047">
 <time>2015-12-06T02:24:46ZZ</time>
 <name><![CDATA[吉北小]]></name>
</wpt>

<wpt lat="34.41142654418945" lon="135.88783264160156">
 <time>2015-12-06T02:24:46ZZ</time>
 <name><![CDATA[津風呂湖北口]]></name>
</wpt>

<wpt lat="34.413230895996094" lon="135.890380859375">
 <time>2015-12-06T02:24:46ZZ</time>
 <name><![CDATA[山口]]></name>
</wpt>

<wpt lat="34.41249465942383" lon="135.89166259765625">
 <time>2015-12-06T02:24:46ZZ</time>
 <name><![CDATA[運動公園]]></name>
</wpt>

<wpt lat="34.41474533081055" lon="135.90032958984375">
 <time>2015-12-06T02:24:46ZZ</time>
 <name><![CDATA[下香束]]></name>
</wpt>

<wpt lat="34.41614532470703" lon="135.90567016601562">
 <time>2015-12-06T02:24:46ZZ</time>
 <name><![CDATA[香束]]></name>
</wpt>

<wpt lat="34.41484451293945" lon="135.91043090820312">
 <time>2015-12-06T02:24:46ZZ</time>
 <name><![CDATA[地蔵前]]></name>
</wpt>

<wpt lat="34.41745376586914" lon="135.91546630859375">
 <time>2015-12-06T02:24:46ZZ</time>
 <name><![CDATA[下柳]]></name>
</wpt>

<wpt lat="34.41830062866211" lon="135.91932678222656">
 <time>2015-12-06T02:24:46ZZ</time>
 <name><![CDATA[旧中竜門小]]></name>
</wpt>

<wpt lat="34.41888427734375" lon="135.92124938964844">
 <time>2015-12-06T02:24:46ZZ</time>
 <name><![CDATA[柳]]></name>
</wpt>

<wpt lat="34.42159652709961" lon="135.9207763671875">
 <time>2015-12-06T02:24:46ZZ</time>
 <name><![CDATA[宮前橋]]></name>
</wpt>

<wpt lat="34.42499542236328" lon="135.92095947265625">
 <time>2015-12-06T02:24:46ZZ</time>
 <name><![CDATA[法雲寺]]></name>
</wpt>

<wpt lat="34.426597595214844" lon="135.92111206054688">
 <time>2015-12-06T02:24:46ZZ</time>
 <name><![CDATA[別所]]></name>
</wpt>

<wpt lat="34.41936111450195" lon="135.927490234375">
 <time>2015-12-06T02:24:46ZZ</time>
 <name><![CDATA[上柳]]></name>
</wpt>

<wpt lat="34.421722412109375" lon="135.93775939941406">
 <time>2015-12-06T02:24:46ZZ</time>
 <name><![CDATA[三茶屋]]></name>
</wpt>

<wpt lat="34.42245864868164" lon="135.9488525390625">
 <time>2015-12-06T02:24:46ZZ</time>
 <name><![CDATA[小名口]]></name>
</wpt>

<wpt lat="34.42283248901367" lon="135.9532928466797">
 <time>2015-12-06T02:24:46ZZ</time>
 <name><![CDATA[小名]]></name>
</wpt>

<wpt lat="34.415706634521484" lon="135.9549102783203">
 <time>2015-12-06T02:24:46ZZ</time>
 <name><![CDATA[殿川]]></name>
</wpt>

<wpt lat="34.286865234375" lon="135.83059692382812">
 <time>2015-12-06T02:24:46ZZ</time>
 <name><![CDATA[笠木]]></name>
</wpt>

<wpt lat="34.296112060546875" lon="135.82691955566406">
 <time>2015-12-06T02:24:46ZZ</time>
 <name><![CDATA[桂原]]></name>
</wpt>

<wpt lat="34.305938720703125" lon="135.82266235351562">
 <time>2015-12-06T02:24:46ZZ</time>
 <name><![CDATA[309案内センター]]></name>
</wpt>

<wpt lat="34.313602447509766" lon="135.8282928466797">
 <time>2015-12-06T02:24:46ZZ</time>
 <name><![CDATA[粟飯谷口]]></name>
</wpt>

<wpt lat="34.32441329956055" lon="135.83819580078125">
 <time>2015-12-06T02:24:46ZZ</time>
 <name><![CDATA[粟飯谷]]></name>
</wpt>

<wpt lat="34.30922317504883" lon="135.8328399658203">
 <time>2015-12-06T02:24:46ZZ</time>
 <name><![CDATA[御吉野]]></name>
</wpt>

<wpt lat="34.30717849731445" lon="135.83734130859375">
 <time>2015-12-06T02:24:46ZZ</time>
 <name><![CDATA[堂原]]></name>
</wpt>

<wpt lat="34.310699462890625" lon="135.85012817382812">
 <time>2015-12-06T02:24:46ZZ</time>
 <name><![CDATA[診療所]]></name>
</wpt>

<wpt lat="34.310211181640625" lon="135.85166931152344">
 <time>2015-12-06T02:24:46ZZ</time>
 <name><![CDATA[小学校前]]></name>
</wpt>

<wpt lat="34.30923080444336" lon="135.85182189941406">
 <time>2015-12-06T02:24:46ZZ</time>
 <name><![CDATA[役場下]]></name>
</wpt>

<wpt lat="34.30708694458008" lon="135.85462951660156">
 <time>2015-12-06T02:24:46ZZ</time>
 <name><![CDATA[川戸]]></name>
</wpt>

<wpt lat="34.306129455566406" lon="135.85630798339844">
 <time>2015-12-06T02:24:46ZZ</time>
 <name><![CDATA[上中戸口]]></name>
</wpt>

<wpt lat="34.30584716796875" lon="135.8592529296875">
 <time>2015-12-06T02:24:46ZZ</time>
 <name><![CDATA[雫]]></name>
</wpt>

<wpt lat="34.305809020996094" lon="135.86375427246094">
 <time>2015-12-06T02:24:46ZZ</time>
 <name><![CDATA[上中戸]]></name>
</wpt>

<wpt lat="34.30394744873047" lon="135.86923217773438">
 <time>2015-12-06T02:24:46ZZ</time>
 <name><![CDATA[上平]]></name>
</wpt>

<wpt lat="34.3040657043457" lon="135.88314819335938">
 <time>2015-12-06T02:24:46ZZ</time>
 <name><![CDATA[赤滝]]></name>
</wpt>

<wpt lat="34.316993713378906" lon="135.85877990722656">
 <time>2015-12-06T02:24:46ZZ</time>
 <name><![CDATA[脇川]]></name>
</wpt>

<wpt lat="34.32731628417969" lon="135.875244140625">
 <time>2015-12-06T02:24:46ZZ</time>
 <name><![CDATA[槙尾]]></name>
</wpt>

<wpt lat="34.330535888671875" lon="135.8604736328125">
 <time>2015-12-06T02:24:46ZZ</time>
 <name><![CDATA[鳥住]]></name>
</wpt>

<wpt lat="34.35254669189453" lon="135.80799865722656">
 <time>2015-12-06T02:24:46ZZ</time>
 <name><![CDATA[岩森]]></name>
</wpt>

<wpt lat="34.1483268737793" lon="135.7687225341797">
 <time>2015-12-06T02:24:46ZZ</time>
 <name><![CDATA[沼田原]]></name>
</wpt>

<wpt lat="34.154876708984375" lon="135.74481201171875">
 <time>2015-12-06T02:24:46ZZ</time>
 <name><![CDATA[宇井]]></name>
</wpt>

<wpt lat="34.1402587890625" lon="135.75521850585938">
 <time>2015-12-06T02:24:46ZZ</time>
 <name><![CDATA[塩鶴]]></name>
</wpt>

<wpt lat="34.135887145996094" lon="135.7636260986328">
 <time>2015-12-06T02:24:46ZZ</time>
 <name><![CDATA[長殿]]></name>
</wpt>

<wpt lat="34.131038665771484" lon="135.76734924316406">
 <time>2015-12-06T02:24:46ZZ</time>
 <name><![CDATA[長殿発電所]]></name>
</wpt>

<wpt lat="34.11328125" lon="135.77252197265625">
 <time>2015-12-06T02:24:46ZZ</time>
 <name><![CDATA[旭橋]]></name>
</wpt>

<wpt lat="34.11577606201172" lon="135.80039978027344">
 <time>2015-12-06T02:24:46ZZ</time>
 <name><![CDATA[中谷]]></name>
</wpt>

<wpt lat="34.11520767211914" lon="135.79786682128906">
 <time>2015-12-06T02:24:46ZZ</time>
 <name><![CDATA[下切橋]]></name>
</wpt>

<wpt lat="34.1180419921875" lon="135.78208923339844">
 <time>2015-12-06T02:24:46ZZ</time>
 <name><![CDATA[栂ノ本]]></name>
</wpt>

<wpt lat="34.11442184448242" lon="135.7714080810547">
 <time>2015-12-06T02:24:46ZZ</time>
 <name><![CDATA[旭口]]></name>
</wpt>

<wpt lat="34.104644775390625" lon="135.7685546875">
 <time>2015-12-06T02:24:46ZZ</time>
 <name><![CDATA[小栗栖]]></name>
</wpt>

<wpt lat="34.103538513183594" lon="135.7543487548828">
 <time>2015-12-06T02:24:46ZZ</time>
 <name><![CDATA[西坊]]></name>
</wpt>

<wpt lat="34.10750198364258" lon="135.75701904296875">
 <time>2015-12-06T02:24:46ZZ</time>
 <name><![CDATA[中切]]></name>
</wpt>

<wpt lat="34.10556411743164" lon="135.76084899902344">
 <time>2015-12-06T02:24:46ZZ</time>
 <name><![CDATA[平地]]></name>
</wpt>

<wpt lat="34.09975814819336" lon="135.7622833251953">
 <time>2015-12-06T02:24:46ZZ</time>
 <name><![CDATA[上野地]]></name>
</wpt>

<wpt lat="34.09724807739258" lon="135.7625732421875">
 <time>2015-12-06T02:24:46ZZ</time>
 <name><![CDATA[下上野地]]></name>
</wpt>

<wpt lat="34.092891693115234" lon="135.75592041015625">
 <time>2015-12-06T02:24:46ZZ</time>
 <name><![CDATA[月谷口]]></name>
</wpt>

<wpt lat="34.087459564208984" lon="135.75624084472656">
 <time>2015-12-06T02:24:46ZZ</time>
 <name><![CDATA[河津谷]]></name>
</wpt>

<wpt lat="34.082618713378906" lon="135.75791931152344">
 <time>2015-12-06T02:24:46ZZ</time>
 <name><![CDATA[高津]]></name>
</wpt>

<wpt lat="34.08108901977539" lon="135.7550811767578">
 <time>2015-12-06T02:24:46ZZ</time>
 <name><![CDATA[高津下]]></name>
</wpt>

<wpt lat="34.06061553955078" lon="135.74476623535156">
 <time>2015-12-06T02:24:46ZZ</time>
 <name><![CDATA[川津西]]></name>
</wpt>

<wpt lat="34.05997848510742" lon="135.74868774414062">
 <time>2015-12-06T02:24:46ZZ</time>
 <name><![CDATA[川津]]></name>
</wpt>

<wpt lat="34.05478286743164" lon="135.74453735351562">
 <time>2015-12-06T02:24:46ZZ</time>
 <name><![CDATA[川津大橋]]></name>
</wpt>

<wpt lat="34.04572296142578" lon="135.71778869628906">
 <time>2015-12-06T02:24:46ZZ</time>
 <name><![CDATA[入谷口]]></name>
</wpt>

<wpt lat="34.04273986816406" lon="135.7113494873047">
 <time>2015-12-06T02:24:46ZZ</time>
 <name><![CDATA[内野]]></name>
</wpt>

<wpt lat="34.04429626464844" lon="135.7092742919922">
 <time>2015-12-06T02:24:46ZZ</time>
 <name><![CDATA[内野下]]></name>
</wpt>

<wpt lat="34.04104995727539" lon="135.7076873779297">
 <time>2015-12-06T02:24:46ZZ</time>
 <name><![CDATA[山天口]]></name>
</wpt>

<wpt lat="34.0346794128418" lon="135.6992645263672">
 <time>2015-12-06T02:24:46ZZ</time>
 <name><![CDATA[三浦口]]></name>
</wpt>

<wpt lat="34.03575134277344" lon="135.69580078125">
 <time>2015-12-06T02:24:46ZZ</time>
 <name><![CDATA[五百瀬]]></name>
</wpt>

<wpt lat="34.03718566894531" lon="135.693115234375">
 <time>2015-12-06T02:24:46ZZ</time>
 <name><![CDATA[三田谷]]></name>
</wpt>

<wpt lat="34.03544235229492" lon="135.69036865234375">
 <time>2015-12-06T02:24:46ZZ</time>
 <name><![CDATA[高岡]]></name>
</wpt>

<wpt lat="34.0391845703125" lon="135.6853790283203">
 <time>2015-12-06T02:24:46ZZ</time>
 <name><![CDATA[杉清]]></name>
</wpt>

<wpt lat="34.06327819824219" lon="135.75416564941406">
 <time>2015-12-06T02:24:46ZZ</time>
 <name><![CDATA[津越谷]]></name>
</wpt>

<wpt lat="34.05696105957031" lon="135.76490783691406">
 <time>2015-12-06T02:24:46ZZ</time>
 <name><![CDATA[野広瀬]]></name>
</wpt>

<wpt lat="34.04341125488281" lon="135.7810821533203">
 <time>2015-12-06T02:24:46ZZ</time>
 <name><![CDATA[風屋]]></name>
</wpt>

<wpt lat="34.05120086669922" lon="135.78631591796875">
 <time>2015-12-06T02:24:46ZZ</time>
 <name><![CDATA[滝川口]]></name>
</wpt>

<wpt lat="34.05356979370117" lon="135.79302978515625">
 <time>2015-12-06T02:24:46ZZ</time>
 <name><![CDATA[下地]]></name>
</wpt>

<wpt lat="34.055118560791016" lon="135.7942657470703">
 <time>2015-12-06T02:24:46ZZ</time>
 <name><![CDATA[滝川]]></name>
</wpt>

<wpt lat="34.05844497680664" lon="135.79185485839844">
 <time>2015-12-06T02:24:46ZZ</time>
 <name><![CDATA[向地]]></name>
</wpt>

<wpt lat="34.06198501586914" lon="135.79928588867188">
 <time>2015-12-06T02:24:46ZZ</time>
 <name><![CDATA[導水路前]]></name>
</wpt>

<wpt lat="34.06180953979492" lon="135.80572509765625">
 <time>2015-12-06T02:24:46ZZ</time>
 <name><![CDATA[内原]]></name>
</wpt>

<wpt lat="34.06178283691406" lon="135.80780029296875">
 <time>2015-12-06T02:24:46ZZ</time>
 <name><![CDATA[内原橋]]></name>
</wpt>

<wpt lat="34.052188873291016" lon="135.8117218017578">
 <time>2015-12-06T02:24:46ZZ</time>
 <name><![CDATA[奥里]]></name>
</wpt>

<wpt lat="34.05046463012695" lon="135.7876739501953">
 <time>2015-12-06T02:24:46ZZ</time>
 <name><![CDATA[風屋花園]]></name>
</wpt>

<wpt lat="34.036537170410156" lon="135.78741455078125">
 <time>2015-12-06T02:24:46ZZ</time>
 <name><![CDATA[野尻]]></name>
</wpt>

<wpt lat="34.03207778930664" lon="135.78138732910156">
 <time>2015-12-06T02:24:46ZZ</time>
 <name><![CDATA[野尻口]]></name>
</wpt>

<wpt lat="34.02839660644531" lon="135.78726196289062">
 <time>2015-12-06T02:24:46ZZ</time>
 <name><![CDATA[住宅前]]></name>
</wpt>

<wpt lat="34.02553176879883" lon="135.7846221923828">
 <time>2015-12-06T02:24:46ZZ</time>
 <name><![CDATA[山崎大橋]]></name>
</wpt>

<wpt lat="34.02095413208008" lon="135.7803192138672">
 <time>2015-12-06T02:24:46ZZ</time>
 <name><![CDATA[池穴]]></name>
</wpt>

<wpt lat="34.0233268737793" lon="135.78602600097656">
 <time>2015-12-06T02:24:46ZZ</time>
 <name><![CDATA[池穴南口]]></name>
</wpt>

<wpt lat="34.011878967285156" lon="135.7961883544922">
 <time>2015-12-06T02:24:46ZZ</time>
 <name><![CDATA[小井]]></name>
</wpt>

<wpt lat="33.989295959472656" lon="135.79248046875">
 <time>2015-12-06T02:24:46ZZ</time>
 <name><![CDATA[十津川役場前]]></name>
</wpt>

<wpt lat="33.98308563232422" lon="135.79559326171875">
 <time>2015-12-06T02:24:46ZZ</time>
 <name><![CDATA[小原]]></name>
</wpt>

<wpt lat="33.97515869140625" lon="135.80136108398438">
 <time>2015-12-06T02:24:46ZZ</time>
 <name><![CDATA[滝]]></name>
</wpt>

<wpt lat="33.974246978759766" lon="135.80126953125">
 <time>2015-12-06T02:24:46ZZ</time>
 <name><![CDATA[滝口]]></name>
</wpt>

<wpt lat="33.973243713378906" lon="135.80429077148438">
 <time>2015-12-06T02:24:46ZZ</time>
 <name><![CDATA[高滝下]]></name>
</wpt>

<wpt lat="33.97117614746094" lon="135.80853271484375">
 <time>2015-12-06T02:24:46ZZ</time>
 <name><![CDATA[衛生センター]]></name>
</wpt>

<wpt lat="34.004852294921875" lon="135.84266662597656">
 <time>2015-12-06T02:24:46ZZ</time>
 <name><![CDATA[大野片川]]></name>
</wpt>

<wpt lat="33.98926544189453" lon="135.83428955078125">
 <time>2015-12-06T02:24:46ZZ</time>
 <name><![CDATA[大野]]></name>
</wpt>

<wpt lat="33.97622299194336" lon="135.82720947265625">
 <time>2015-12-06T02:24:46ZZ</time>
 <name><![CDATA[森]]></name>
</wpt>

<wpt lat="33.96612548828125" lon="135.82533264160156">
 <time>2015-12-06T02:24:46ZZ</time>
 <name><![CDATA[大野出合]]></name>
</wpt>

<wpt lat="33.96629333496094" lon="135.8444366455078">
 <time>2015-12-06T02:24:46ZZ</time>
 <name><![CDATA[下小川]]></name>
</wpt>

<wpt lat="33.97063064575195" lon="135.84776306152344">
 <time>2015-12-06T02:24:46ZZ</time>
 <name><![CDATA[上小川]]></name>
</wpt>

<wpt lat="33.96376419067383" lon="135.8496856689453">
 <time>2015-12-06T02:24:46ZZ</time>
 <name><![CDATA[森林植物公園]]></name>
</wpt>

<wpt lat="33.96261215209961" lon="135.8593292236328">
 <time>2015-12-06T02:24:46ZZ</time>
 <name><![CDATA[玉置山登山口]]></name>
</wpt>

<wpt lat="33.96237564086914" lon="135.86293029785156">
 <time>2015-12-06T02:24:46ZZ</time>
 <name><![CDATA[上葛川口]]></name>
</wpt>

<wpt lat="33.962371826171875" lon="135.87193298339844">
 <time>2015-12-06T02:24:46ZZ</time>
 <name><![CDATA[上葛川]]></name>
</wpt>

<wpt lat="33.95817184448242" lon="135.85948181152344">
 <time>2015-12-06T02:24:46ZZ</time>
 <name><![CDATA[東中上]]></name>
</wpt>

<wpt lat="33.954341888427734" lon="135.8572235107422">
 <time>2015-12-06T02:24:46ZZ</time>
 <name><![CDATA[東中]]></name>
</wpt>

<wpt lat="33.95241165161133" lon="135.85707092285156">
 <time>2015-12-06T02:24:46ZZ</time>
 <name><![CDATA[東中下]]></name>
</wpt>

<wpt lat="33.94377899169922" lon="135.86546325683594">
 <time>2015-12-06T02:24:46ZZ</time>
 <name><![CDATA[下葛川]]></name>
</wpt>

<wpt lat="33.94243240356445" lon="135.87103271484375">
 <time>2015-12-06T02:24:46ZZ</time>
 <name><![CDATA[下葛川口]]></name>
</wpt>

<wpt lat="33.94410705566406" lon="135.8700714111328">
 <time>2015-12-06T02:24:46ZZ</time>
 <name><![CDATA[前久保谷]]></name>
</wpt>

<wpt lat="33.93836212158203" lon="135.87525939941406">
 <time>2015-12-06T02:24:46ZZ</time>
 <name><![CDATA[二の滝]]></name>
</wpt>

<wpt lat="33.93252944946289" lon="135.8780517578125">
 <time>2015-12-06T02:24:46ZZ</time>
 <name><![CDATA[大渡]]></name>
</wpt>

<wpt lat="33.916805267333984" lon="135.8817901611328">
 <time>2015-12-06T02:24:46ZZ</time>
 <name><![CDATA[田戸橋]]></name>
</wpt>

<wpt lat="33.91024398803711" lon="135.88153076171875">
 <time>2015-12-06T02:24:46ZZ</time>
 <name><![CDATA[瀞八丁]]></name>
</wpt>

<wpt lat="33.90886306762695" lon="135.86190795898438">
 <time>2015-12-06T02:24:46ZZ</time>
 <name><![CDATA[北又]]></name>
</wpt>

<wpt lat="33.90693664550781" lon="135.85333251953125">
 <time>2015-12-06T02:24:46ZZ</time>
 <name><![CDATA[玉置川下]]></name>
</wpt>

<wpt lat="33.905670166015625" lon="135.85006713867188">
 <time>2015-12-06T02:24:46ZZ</time>
 <name><![CDATA[玉置川]]></name>
</wpt>

<wpt lat="33.96603012084961" lon="135.79949951171875">
 <time>2015-12-06T02:24:46ZZ</time>
 <name><![CDATA[高滝口]]></name>
</wpt>

<wpt lat="33.95711135864258" lon="135.79800415039062">
 <time>2015-12-06T02:24:46ZZ</time>
 <name><![CDATA[今戸]]></name>
</wpt>

<wpt lat="33.952430725097656" lon="135.80113220214844">
 <time>2015-12-06T02:24:46ZZ</time>
 <name><![CDATA[折立口]]></name>
</wpt>

<wpt lat="33.948883056640625" lon="135.80352783203125">
 <time>2015-12-06T02:24:46ZZ</time>
 <name><![CDATA[折立]]></name>
</wpt>

<wpt lat="33.94560623168945" lon="135.8037109375">
 <time>2015-12-06T02:24:46ZZ</time>
 <name><![CDATA[折立山崎]]></name>
</wpt>

<wpt lat="33.94315719604492" lon="135.79454040527344">
 <time>2015-12-06T02:24:46ZZ</time>
 <name><![CDATA[込の上]]></name>
</wpt>

<wpt lat="33.945552825927734" lon="135.78990173339844">
 <time>2015-12-06T02:24:46ZZ</time>
 <name><![CDATA[下込の上]]></name>
</wpt>

<wpt lat="33.94585418701172" lon="135.7843017578125">
 <time>2015-12-06T02:24:46ZZ</time>
 <name><![CDATA[豆市]]></name>
</wpt>

<wpt lat="33.943058013916016" lon="135.7766876220703">
 <time>2015-12-06T02:24:46ZZ</time>
 <name><![CDATA[鈴入]]></name>
</wpt>

<wpt lat="33.94081115722656" lon="135.77244567871094">
 <time>2015-12-06T02:24:46ZZ</time>
 <name><![CDATA[平谷口]]></name>
</wpt>

<wpt lat="33.934539794921875" lon="135.76515197753906">
 <time>2015-12-06T02:24:46ZZ</time>
 <name><![CDATA[高森の郷]]></name>
</wpt>

<wpt lat="33.942264556884766" lon="135.78076171875">
 <time>2015-12-06T02:24:46ZZ</time>
 <name><![CDATA[上猿飼]]></name>
</wpt>

<wpt lat="33.93728256225586" lon="135.79446411132812">
 <time>2015-12-06T02:24:46ZZ</time>
 <name><![CDATA[山手谷]]></name>
</wpt>

<wpt lat="33.94146728515625" lon="135.7680206298828">
 <time>2015-12-06T02:24:46ZZ</time>
 <name><![CDATA[十津川温泉]]></name>
</wpt>

<wpt lat="33.94516372680664" lon="135.7638397216797">
 <time>2015-12-06T02:24:46ZZ</time>
 <name><![CDATA[孫入峰]]></name>
</wpt>

<wpt lat="33.9467887878418" lon="135.76368713378906">
 <time>2015-12-06T02:24:46ZZ</time>
 <name><![CDATA[古野向口]]></name>
</wpt>

<wpt lat="33.94932556152344" lon="135.76394653320312">
 <time>2015-12-06T02:24:46ZZ</time>
 <name><![CDATA[古野向]]></name>
</wpt>

<wpt lat="33.954952239990234" lon="135.76426696777344">
 <time>2015-12-06T02:24:46ZZ</time>
 <name><![CDATA[山手]]></name>
</wpt>

<wpt lat="33.957950592041016" lon="135.7638702392578">
 <time>2015-12-06T02:24:46ZZ</time>
 <name><![CDATA[殿井口]]></name>
</wpt>

<wpt lat="33.9603385925293" lon="135.76470947265625">
 <time>2015-12-06T02:24:46ZZ</time>
 <name><![CDATA[和田向]]></name>
</wpt>

<wpt lat="33.965763092041016" lon="135.76370239257812">
 <time>2015-12-06T02:24:46ZZ</time>
 <name><![CDATA[猪谷橋]]></name>
</wpt>

<wpt lat="33.96806335449219" lon="135.76393127441406">
 <time>2015-12-06T02:24:46ZZ</time>
 <name><![CDATA[谷垣内]]></name>
</wpt>

<wpt lat="33.97132873535156" lon="135.76344299316406">
 <time>2015-12-06T02:24:46ZZ</time>
 <name><![CDATA[峯切口]]></name>
</wpt>

<wpt lat="33.97306442260742" lon="135.7647247314453">
 <time>2015-12-06T02:24:46ZZ</time>
 <name><![CDATA[那知合]]></name>
</wpt>

<wpt lat="33.93998718261719" lon="135.76388549804688">
 <time>2015-12-06T02:24:46ZZ</time>
 <name><![CDATA[蕨尾口]]></name>
</wpt>

<wpt lat="33.9383430480957" lon="135.76112365722656">
 <time>2015-12-06T02:24:46ZZ</time>
 <name><![CDATA[蕨尾]]></name>
</wpt>

<wpt lat="33.931793212890625" lon="135.76214599609375">
 <time>2015-12-06T02:24:46ZZ</time>
 <name><![CDATA[檪砂古]]></name>
</wpt>

<wpt lat="33.93035125732422" lon="135.77435302734375">
 <time>2015-12-06T02:24:46ZZ</time>
 <name><![CDATA[桑畑小井]]></name>
</wpt>

<wpt lat="33.92451095581055" lon="135.77186584472656">
 <time>2015-12-06T02:24:46ZZ</time>
 <name><![CDATA[果無隧道口]]></name>
</wpt>

<wpt lat="33.91618347167969" lon="135.77635192871094">
 <time>2015-12-06T02:24:46ZZ</time>
 <name><![CDATA[桑畑]]></name>
</wpt>

<wpt lat="33.91508483886719" lon="135.77955627441406">
 <time>2015-12-06T02:24:46ZZ</time>
 <name><![CDATA[桑畑隧道口]]></name>
</wpt>

<wpt lat="33.904998779296875" lon="135.77597045898438">
 <time>2015-12-06T02:24:46ZZ</time>
 <name><![CDATA[二津野]]></name>
</wpt>

<wpt lat="33.915199279785156" lon="135.78871154785156">
 <time>2015-12-06T02:24:46ZZ</time>
 <name><![CDATA[本二津野]]></name>
</wpt>

<wpt lat="33.88971710205078" lon="135.7588653564453">
 <time>2015-12-06T02:24:46ZZ</time>
 <name><![CDATA[七色]]></name>
</wpt>

<wpt lat="33.93879318237305" lon="135.75717163085938">
 <time>2015-12-06T02:24:46ZZ</time>
 <name><![CDATA[西川出合]]></name>
</wpt>

<wpt lat="33.93345642089844" lon="135.7495880126953">
 <time>2015-12-06T02:24:46ZZ</time>
 <name><![CDATA[下湯口]]></name>
</wpt>

<wpt lat="33.93022155761719" lon="135.7493133544922">
 <time>2015-12-06T02:24:46ZZ</time>
 <name><![CDATA[下湯]]></name>
</wpt>

<wpt lat="33.93140411376953" lon="135.7327880859375">
 <time>2015-12-06T02:24:46ZZ</time>
 <name><![CDATA[上湯]]></name>
</wpt>

<wpt lat="33.93257522583008" lon="135.72727966308594">
 <time>2015-12-06T02:24:46ZZ</time>
 <name><![CDATA[小原口]]></name>
</wpt>

<wpt lat="33.931053161621094" lon="135.72325134277344">
 <time>2015-12-06T02:24:46ZZ</time>
 <name><![CDATA[出谷小原]]></name>
</wpt>

<wpt lat="33.92619323730469" lon="135.71432495117188">
 <time>2015-12-06T02:24:46ZZ</time>
 <name><![CDATA[殿井下]]></name>
</wpt>

<wpt lat="33.927425384521484" lon="135.71102905273438">
 <time>2015-12-06T02:24:46ZZ</time>
 <name><![CDATA[殿井]]></name>
</wpt>

<wpt lat="33.93134689331055" lon="135.69837951660156">
 <time>2015-12-06T02:24:46ZZ</time>
 <name><![CDATA[追野谷]]></name>
</wpt>

<wpt lat="33.928157806396484" lon="135.69650268554688">
 <time>2015-12-06T02:24:46ZZ</time>
 <name><![CDATA[小壁]]></name>
</wpt>

<wpt lat="33.9276123046875" lon="135.69252014160156">
 <time>2015-12-06T02:24:46ZZ</time>
 <name><![CDATA[本小壁]]></name>
</wpt>

<wpt lat="33.927982330322266" lon="135.68832397460938">
 <time>2015-12-06T02:24:46ZZ</time>
 <name><![CDATA[小壁上]]></name>
</wpt>

<wpt lat="33.93075180053711" lon="135.67771911621094">
 <time>2015-12-06T02:24:46ZZ</time>
 <name><![CDATA[入谷口]]></name>
</wpt>

<wpt lat="33.930397033691406" lon="135.6755828857422">
 <time>2015-12-06T02:24:46ZZ</time>
 <name><![CDATA[市原口]]></name>
</wpt>

<wpt lat="33.9300651550293" lon="135.6690216064453">
 <time>2015-12-06T02:24:46ZZ</time>
 <name><![CDATA[大檜曽]]></name>
</wpt>

<wpt lat="33.93175506591797" lon="135.65687561035156">
 <time>2015-12-06T02:24:46ZZ</time>
 <name><![CDATA[竹谷]]></name>
</wpt>

<wpt lat="33.931922912597656" lon="135.6548309326172">
 <time>2015-12-06T02:24:46ZZ</time>
 <name><![CDATA[仲谷口]]></name>
</wpt>

<wpt lat="33.93158721923828" lon="135.65325927734375">
 <time>2015-12-06T02:24:46ZZ</time>
 <name><![CDATA[垣内地]]></name>
</wpt>

<wpt lat="33.93423080444336" lon="135.64840698242188">
 <time>2015-12-06T02:24:46ZZ</time>
 <name><![CDATA[寺垣内]]></name>
</wpt>

<wpt lat="33.9390754699707" lon="135.754638671875">
 <time>2015-12-06T02:24:46ZZ</time>
 <name><![CDATA[昴の郷]]></name>
</wpt>

<wpt lat="33.94026184082031" lon="135.75169372558594">
 <time>2015-12-06T02:24:46ZZ</time>
 <name><![CDATA[真砂瀬]]></name>
</wpt>

<wpt lat="33.94281768798828" lon="135.74905395507812">
 <time>2015-12-06T02:24:46ZZ</time>
 <name><![CDATA[片谷橋]]></name>
</wpt>

<wpt lat="33.94420623779297" lon="135.74786376953125">
 <time>2015-12-06T02:24:46ZZ</time>
 <name><![CDATA[大津越]]></name>
</wpt>

<wpt lat="33.94701385498047" lon="135.7441864013672">
 <time>2015-12-06T02:24:46ZZ</time>
 <name><![CDATA[串崎]]></name>
</wpt>

<wpt lat="33.953372955322266" lon="135.738525390625">
 <time>2015-12-06T02:24:46ZZ</time>
 <name><![CDATA[椎平]]></name>
</wpt>

<wpt lat="33.94291687011719" lon="135.74256896972656">
 <time>2015-12-06T02:24:46ZZ</time>
 <name><![CDATA[本串崎]]></name>
</wpt>

<wpt lat="33.94968795776367" lon="135.72793579101562">
 <time>2015-12-06T02:24:46ZZ</time>
 <name><![CDATA[日浦]]></name>
</wpt>

<wpt lat="33.950950622558594" lon="135.7190399169922">
 <time>2015-12-06T02:24:46ZZ</time>
 <name><![CDATA[谷の口]]></name>
</wpt>

<wpt lat="33.94929122924805" lon="135.7151641845703">
 <time>2015-12-06T02:24:46ZZ</time>
 <name><![CDATA[菊屋前]]></name>
</wpt>

<wpt lat="33.95187759399414" lon="135.71026611328125">
 <time>2015-12-06T02:24:46ZZ</time>
 <name><![CDATA[松柱口]]></name>
</wpt>

<wpt lat="33.953861236572266" lon="135.70962524414062">
 <time>2015-12-06T02:24:46ZZ</time>
 <name><![CDATA[松柱]]></name>
</wpt>

<wpt lat="33.956851959228516" lon="135.7392120361328">
 <time>2015-12-06T02:24:46ZZ</time>
 <name><![CDATA[殿原]]></name>
</wpt>

<wpt lat="33.95848846435547" lon="135.73675537109375">
 <time>2015-12-06T02:24:46ZZ</time>
 <name><![CDATA[重里口]]></name>
</wpt>

<wpt lat="33.96260070800781" lon="135.7376708984375">
 <time>2015-12-06T02:24:46ZZ</time>
 <name><![CDATA[重里]]></name>
</wpt>

<wpt lat="33.965816497802734" lon="135.7392120361328">
 <time>2015-12-06T02:24:46ZZ</time>
 <name><![CDATA[久保谷]]></name>
</wpt>

<wpt lat="33.96749496459961" lon="135.73602294921875">
 <time>2015-12-06T02:24:46ZZ</time>
 <name><![CDATA[永井口]]></name>
</wpt>

<wpt lat="33.968135833740234" lon="135.73487854003906">
 <time>2015-12-06T02:24:46ZZ</time>
 <name><![CDATA[永井日裏]]></name>
</wpt>

<wpt lat="33.969581604003906" lon="135.73634338378906">
 <time>2015-12-06T02:24:46ZZ</time>
 <name><![CDATA[永井]]></name>
</wpt>

<wpt lat="33.97174835205078" lon="135.73785400390625">
 <time>2015-12-06T02:24:46ZZ</time>
 <name><![CDATA[玉垣内]]></name>
</wpt>

<wpt lat="33.9921760559082" lon="135.73983764648438">
 <time>2015-12-06T02:24:46ZZ</time>
 <name><![CDATA[今西口]]></name>
</wpt>

<wpt lat="33.99964141845703" lon="135.74188232421875">
 <time>2015-12-06T02:24:46ZZ</time>
 <name><![CDATA[今西]]></name>
</wpt>

<wpt lat="33.972373962402344" lon="135.7346649169922">
 <time>2015-12-06T02:24:46ZZ</time>
 <name><![CDATA[宮の平]]></name>
</wpt>

<wpt lat="33.972843170166016" lon="135.7305908203125">
 <time>2015-12-06T02:24:46ZZ</time>
 <name><![CDATA[西中口]]></name>
</wpt>

<wpt lat="33.97605895996094" lon="135.72654724121094">
 <time>2015-12-06T02:24:46ZZ</time>
 <name><![CDATA[西中]]></name>
</wpt>

<wpt lat="33.97846221923828" lon="135.726806640625">
 <time>2015-12-06T02:24:46ZZ</time>
 <name><![CDATA[西中大谷橋]]></name>
</wpt>

<wpt lat="33.97785949707031" lon="135.7214813232422">
 <time>2015-12-06T02:24:46ZZ</time>
 <name><![CDATA[光野垣内下]]></name>
</wpt>

<wpt lat="33.97917556762695" lon="135.7196807861328">
 <time>2015-12-06T02:24:46ZZ</time>
 <name><![CDATA[光野垣内]]></name>
</wpt>

<wpt lat="33.978538513183594" lon="135.71275329589844">
 <time>2015-12-06T02:24:46ZZ</time>
 <name><![CDATA[津越野橋]]></name>
</wpt>

<wpt lat="33.969669342041016" lon="135.71104431152344">
 <time>2015-12-06T02:24:46ZZ</time>
 <name><![CDATA[中串]]></name>
</wpt>

<wpt lat="33.972259521484375" lon="135.71017456054688">
 <time>2015-12-06T02:24:46ZZ</time>
 <name><![CDATA[小山手]]></name>
</wpt>

<wpt lat="33.972312927246094" lon="135.70559692382812">
 <time>2015-12-06T02:24:46ZZ</time>
 <name><![CDATA[下向]]></name>
</wpt>

<wpt lat="33.969120025634766" lon="135.7054443359375">
 <time>2015-12-06T02:24:46ZZ</time>
 <name><![CDATA[瀬戸]]></name>
</wpt>

<wpt lat="33.96540832519531" lon="135.70008850097656">
 <time>2015-12-06T02:24:46ZZ</time>
 <name><![CDATA[栃尾]]></name>
</wpt>

<wpt lat="33.96429443359375" lon="135.69537353515625">
 <time>2015-12-06T02:24:46ZZ</time>
 <name><![CDATA[田ノ岡]]></name>
</wpt>

<wpt lat="33.96641159057617" lon="135.69235229492188">
 <time>2015-12-06T02:24:46ZZ</time>
 <name><![CDATA[片川口]]></name>
</wpt>

<wpt lat="33.97013473510742" lon="135.691162109375">
 <time>2015-12-06T02:24:46ZZ</time>
 <name><![CDATA[片川]]></name>
</wpt>

<wpt lat="33.98058319091797" lon="135.69073486328125">
 <time>2015-12-06T02:24:46ZZ</time>
 <name><![CDATA[奥片川]]></name>
</wpt>

<wpt lat="33.9654541015625" lon="135.6865997314453">
 <time>2015-12-06T02:24:46ZZ</time>
 <name><![CDATA[下小坪瀬]]></name>
</wpt>

<wpt lat="33.96219253540039" lon="135.6844940185547">
 <time>2015-12-06T02:24:46ZZ</time>
 <name><![CDATA[小坪瀬]]></name>
</wpt>

<wpt lat="33.96107482910156" lon="135.66534423828125">
 <time>2015-12-06T02:24:46ZZ</time>
 <name><![CDATA[花屋下]]></name>
</wpt>

<wpt lat="33.96640396118164" lon="135.66519165039062">
 <time>2015-12-06T02:24:46ZZ</time>
 <name><![CDATA[湯之野橋]]></name>
</wpt>

<wpt lat="33.9771614074707" lon="135.65208435058594">
 <time>2015-12-06T02:24:46ZZ</time>
 <name><![CDATA[迫西川口]]></name>
</wpt>

<wpt lat="33.972198486328125" lon="135.6533203125">
 <time>2015-12-06T02:24:46ZZ</time>
 <name><![CDATA[迫西川]]></name>
</wpt>

<wpt lat="33.96529006958008" lon="135.65591430664062">
 <time>2015-12-06T02:24:46ZZ</time>
 <name><![CDATA[湯之野]]></name>
</wpt>

<wpt lat="34.26432418823242" lon="136.0370330810547">
 <time>2015-12-06T02:24:46ZZ</time>
 <name><![CDATA[入之波]]></name>
</wpt>

<wpt lat="34.273216247558594" lon="136.0115509033203">
 <time>2015-12-06T02:24:46ZZ</time>
 <name><![CDATA[大迫ダム]]></name>
</wpt>

<wpt lat="34.27590560913086" lon="136.00714111328125">
 <time>2015-12-06T02:24:46ZZ</time>
 <name><![CDATA[大迫口]]></name>
</wpt>

<wpt lat="34.281551361083984" lon="136.00338745117188">
 <time>2015-12-06T02:24:46ZZ</time>
 <name><![CDATA[不動窟]]></name>
</wpt>

<wpt lat="34.2883186340332" lon="136.00033569335938">
 <time>2015-12-06T02:24:46ZZ</time>
 <name><![CDATA[柏木]]></name>
</wpt>

<wpt lat="34.29073715209961" lon="135.99935913085938">
 <time>2015-12-06T02:24:46ZZ</time>
 <name><![CDATA[北和田口]]></name>
</wpt>

<wpt lat="34.292274475097656" lon="135.99917602539062">
 <time>2015-12-06T02:24:46ZZ</time>
 <name><![CDATA[上多古]]></name>
</wpt>

<wpt lat="34.29426574707031" lon="136.0016632080078">
 <time>2015-12-06T02:24:46ZZ</time>
 <name><![CDATA[上多古口]]></name>
</wpt>

<wpt lat="34.294864654541016" lon="136.00332641601562">
 <time>2015-12-06T02:24:46ZZ</time>
 <name><![CDATA[ふれあいセンター]]></name>
</wpt>

<wpt lat="34.299400329589844" lon="135.9993896484375">
 <time>2015-12-06T02:24:46ZZ</time>
 <name><![CDATA[白川渡]]></name>
</wpt>

<wpt lat="34.306724548339844" lon="135.9919891357422">
 <time>2015-12-06T02:24:46ZZ</time>
 <name><![CDATA[下多古]]></name>
</wpt>

<wpt lat="34.31353759765625" lon="135.98995971679688">
 <time>2015-12-06T02:24:46ZZ</time>
 <name><![CDATA[武木]]></name>
</wpt>

<wpt lat="34.31885528564453" lon="135.97561645507812">
 <time>2015-12-06T02:24:46ZZ</time>
 <name><![CDATA[中井戸]]></name>
</wpt>

<wpt lat="34.31876754760742" lon="135.97315979003906">
 <time>2015-12-06T02:24:46ZZ</time>
 <name><![CDATA[下井戸]]></name>
</wpt>

<wpt lat="34.331581115722656" lon="135.9680633544922">
 <time>2015-12-06T02:24:46ZZ</time>
 <name><![CDATA[人知]]></name>
</wpt>

<wpt lat="34.33063507080078" lon="135.96539306640625">
 <time>2015-12-06T02:24:46ZZ</time>
 <name><![CDATA[白屋]]></name>
</wpt>

<wpt lat="34.33417892456055" lon="135.9588623046875">
 <time>2015-12-06T02:24:46ZZ</time>
 <name><![CDATA[やまぶきホール]]></name>
</wpt>