<?xml version="1.0" encoding="UTF-8"?>
<kml xmlns="http://www.opengis.net/kml/2.2">
<Document>
<name><![CDATA[バス停 : 滋賀]]></name>
<Folder>
<name>Placemarks</name>
<Placemark>
<name>立命館大学</name>
<description></description>
<Point>
<coordinates>135.96243286132812,34.98270034790039,0</coordinates>
</Point>
</Placemark>
<Placemark>
<name>石山駅</name>
<description></description>
<Point>
<coordinates>135.90072631835938,34.97954559326172,0</coordinates>
</Point>
</Placemark>
<Placemark>
<name>土山バスストップ</name>
<description></description>
<Point>
<coordinates>136.2947235107422,34.91433334350586,0</coordinates>
</Point>
</Placemark>
<Placemark>
<name>名神多賀</name>
<description></description>
<Point>
<coordinates>136.2841033935547,35.21883010864258,0</coordinates>
</Point>
</Placemark>
<Placemark>
<name>百済寺</name>
<description></description>
<Point>
<coordinates>136.276123046875,35.131309509277344,0</coordinates>
</Point>
</Placemark>
<Placemark>
<name>名神八日市</name>
<description></description>
<Point>
<coordinates>136.2253875732422,35.095088958740234,0</coordinates>
</Point>
</Placemark>
<Placemark>
<name>菩提寺</name>
<description></description>
<Point>
<coordinates>136.059326171875,35.04245376586914,0</coordinates>
</Point>
</Placemark>
<Placemark>
<name>近江杉山</name>
<description></description>
<Point>
<coordinates>135.9333953857422,35.43269729614258,0</coordinates>
</Point>
</Placemark>
<Placemark>
<name>近江角川</name>
<description></description>
<Point>
<coordinates>135.94760131835938,35.423580169677734,0</coordinates>
</Point>
</Placemark>
<Placemark>
<name>保坂</name>
<description></description>
<Point>
<coordinates>135.94674682617188,35.411434173583984,0</coordinates>
</Point>
</Placemark>
<Placemark>
<name>近江追分</name>
<description></description>
<Point>
<coordinates>135.9485321044922,35.407447814941406,0</coordinates>
</Point>
</Placemark>
<Placemark>
<name>北生見</name>
<description></description>
<Point>
<coordinates>135.96835327148438,35.39997863769531,0</coordinates>
</Point>
</Placemark>
<Placemark>
<name>古野</name>
<description></description>
<Point>
<coordinates>135.97666931152344,35.40207290649414,0</coordinates>
</Point>
</Placemark>
<Placemark>
<name>上藺生</name>
<description></description>
<Point>
<coordinates>135.99014282226562,35.40831756591797,0</coordinates>
</Point>
</Placemark>
<Placemark>
<name>梅原口</name>
<description></description>
<Point>
<coordinates>135.99600219726562,35.407203674316406,0</coordinates>
</Point>
</Placemark>
<Placemark>
<name>上弘部</name>
<description></description>
<Point>
<coordinates>136.00347900390625,35.40728759765625,0</coordinates>
</Point>
</Placemark>
<Placemark>
<name>下弘部</name>
<description></description>
<Point>
<coordinates>136.01181030273438,35.40717315673828,0</coordinates>
</Point>
</Placemark>
<Placemark>
<name>ざぜん草前</name>
<description></description>
<Point>
<coordinates>136.01992797851562,35.40739822387695,0</coordinates>
</Point>
</Placemark>
<Placemark>
<name>今津西町</name>
<description></description>
<Point>
<coordinates>136.03065490722656,35.40091323852539,0</coordinates>
</Point>
</Placemark>
<Placemark>
<name>高島高校前</name>
<description></description>
<Point>
<coordinates>136.03135681152344,35.40431594848633,0</coordinates>
</Point>
</Placemark>
<Placemark>
<name>近江今津駅</name>
<description></description>
<Point>
<coordinates>136.0316925048828,35.39820861816406,0</coordinates>
</Point>
</Placemark>
<Placemark>
<name>今津支所前</name>
<description></description>
<Point>
<coordinates>136.02796936035156,35.4075927734375,0</coordinates>
</Point>
</Placemark>
<Placemark>
<name>弘川口</name>
<description></description>
<Point>
<coordinates>136.0269317626953,35.408111572265625,0</coordinates>
</Point>
</Placemark>
<Placemark>
<name>山中</name>
<description></description>
<Point>
<coordinates>135.81642150878906,35.041038513183594,0</coordinates>
</Point>
</Placemark>
<Placemark>
<name>山中上</name>
<description></description>
<Point>
<coordinates>135.82623291015625,35.04024887084961,0</coordinates>
</Point>
</Placemark>
<Placemark>
<name>夢見ヶ丘</name>
<description></description>
<Point>
<coordinates>135.83941650390625,35.051910400390625,0</coordinates>
</Point>
</Placemark>
<Placemark>
<name>無動寺</name>
<description></description>
<Point>
<coordinates>135.84249877929688,35.06651306152344,0</coordinates>
</Point>
</Placemark>
<Placemark>
<name>延暦寺バスセンター</name>
<description></description>
<Point>
<coordinates>135.83885192871094,35.070255279541016,0</coordinates>
</Point>
</Placemark>
<Placemark>
<name>田の谷峠</name>
<description></description>
<Point>
<coordinates>135.8362274169922,35.033512115478516,0</coordinates>
</Point>
</Placemark>
<Placemark>
<name>東塔</name>
<description></description>
<Point>
<coordinates>135.83934020996094,35.06851577758789,0</coordinates>
</Point>
</Placemark>
<Placemark>
<name>新道足尾谷橋</name>
<description></description>
<Point>
<coordinates>135.85679626464844,35.20918273925781,0</coordinates>
</Point>
</Placemark>
<Placemark>
<name>郵便局前</name>
<description></description>
<Point>
<coordinates>135.866943359375,35.2442741394043,0</coordinates>
</Point>
</Placemark>
<Placemark>
<name>葛川梅の木</name>
<description></description>
<Point>
<coordinates>135.87440490722656,35.26458740234375,0</coordinates>
</Point>
</Placemark>
<Placemark>
<name>下梅の木</name>
<description></description>
<Point>
<coordinates>135.87644958496094,35.26823043823242,0</coordinates>
</Point>
</Placemark>
<Placemark>
<name>平</name>
<description></description>
<Point>
<coordinates>135.86119079589844,35.197757720947266,0</coordinates>
</Point>
</Placemark>
<Placemark>
<name>下坂下</name>
<description></description>
<Point>
<coordinates>135.86160278320312,35.214969635009766,0</coordinates>
</Point>
</Placemark>
<Placemark>
<name>木戸口</name>
<description></description>
<Point>
<coordinates>135.8624267578125,35.22854995727539,0</coordinates>
</Point>
</Placemark>
<Placemark>
<name>葛川学校前</name>
<description></description>
<Point>
<coordinates>135.86302185058594,35.233646392822266,0</coordinates>
</Point>
</Placemark>
<Placemark>
<name>下中村</name>
<description></description>
<Point>
<coordinates>135.86520385742188,35.2406120300293,0</coordinates>
</Point>
</Placemark>
<Placemark>
<name>坊村</name>
<description></description>
<Point>
<coordinates>135.86758422851562,35.24692153930664,0</coordinates>
</Point>
</Placemark>
<Placemark>
<name>町居</name>
<description></description>
<Point>
<coordinates>135.8704376220703,35.2537727355957,0</coordinates>
</Point>
</Placemark>
<Placemark>
<name>岩瀬</name>
<description></description>
<Point>
<coordinates>135.910888671875,35.345863342285156,0</coordinates>
</Point>
</Placemark>
<Placemark>
<name>下古川</name>
<description></description>
<Point>
<coordinates>135.9029541015625,35.33538055419922,0</coordinates>
</Point>
</Placemark>
<Placemark>
<name>古川</name>
<description></description>
<Point>
<coordinates>135.9017333984375,35.333763122558594,0</coordinates>
</Point>
</Placemark>
<Placemark>
<name>桑ノ橋</name>
<description></description>
<Point>
<coordinates>135.89952087402344,35.32637405395508,0</coordinates>
</Point>
</Placemark>
<Placemark>
<name>途中</name>
<description></description>
<Point>
<coordinates>135.86119079589844,35.16697311401367,0</coordinates>
</Point>
</Placemark>
<Placemark>
<name>上の町</name>
<description></description>
<Point>
<coordinates>135.85833740234375,35.172691345214844,0</coordinates>
</Point>
</Placemark>
<Placemark>
<name>花折峠口</name>
<description></description>
<Point>
<coordinates>135.8585662841797,35.18043899536133,0</coordinates>
</Point>
</Placemark>
<Placemark>
<name>葛川中村</name>
<description></description>
<Point>
<coordinates>135.86349487304688,35.2353515625,0</coordinates>
</Point>
</Placemark>
<Placemark>
<name>下梅ノ木</name>
<description></description>
<Point>
<coordinates>135.87644958496094,35.26823043823242,0</coordinates>
</Point>
</Placemark>
<Placemark>
<name>上貫井</name>
<description></description>
<Point>
<coordinates>135.8778839111328,35.27112579345703,0</coordinates>
</Point>
</Placemark>
<Placemark>
<name>貫井</name>
<description></description>
<Point>
<coordinates>135.87803649902344,35.275352478027344,0</coordinates>
</Point>
</Placemark>
<Placemark>
<name>細川</name>
<description></description>
<Point>
<coordinates>135.8800506591797,35.282012939453125,0</coordinates>
</Point>
</Placemark>
<Placemark>
<name>野街道</name>
<description></description>
<Point>
<coordinates>135.8830108642578,35.28982162475586,0</coordinates>
</Point>
</Placemark>
<Placemark>
<name>朽木栃生</name>
<description></description>
<Point>
<coordinates>135.8853302001953,35.29279708862305,0</coordinates>
</Point>
</Placemark>
<Placemark>
<name>腰越</name>
<description></description>
<Point>
<coordinates>135.8866729736328,35.29817581176758,0</coordinates>
</Point>
</Placemark>
<Placemark>
<name>栃生口</name>
<description></description>
<Point>
<coordinates>135.88714599609375,35.30105209350586,0</coordinates>
</Point>
</Placemark>
<Placemark>
<name>村井</name>
<description></description>
<Point>
<coordinates>135.8944549560547,35.311737060546875,0</coordinates>
</Point>
</Placemark>
<Placemark>
<name>朽木大野</name>
<description></description>
<Point>
<coordinates>135.8966827392578,35.320777893066406,0</coordinates>
</Point>
</Placemark>
<Placemark>
<name>上古川</name>
<description></description>
<Point>
<coordinates>135.90061950683594,35.33153533935547,0</coordinates>
</Point>
</Placemark>
<Placemark>
<name>上岩瀬</name>
<description></description>
<Point>
<coordinates>135.90769958496094,35.34141540527344,0</coordinates>
</Point>
</Placemark>
<Placemark>
<name>朽木学校前</name>
<description></description>
<Point>
<coordinates>135.9145965576172,35.350685119628906,0</coordinates>
</Point>
</Placemark>
<Placemark>
<name>田ノ谷峠</name>
<description></description>
<Point>
<coordinates>135.8362274169922,35.033512115478516,0</coordinates>
</Point>
</Placemark>
<Placemark>
<name>東塔（坂本ケーブル口）</name>
<description></description>
<Point>
<coordinates>135.83921813964844,35.0688591003418,0</coordinates>
</Point>
</Placemark>
<Placemark>
<name>比叡平口</name>
<description></description>
<Point>
<coordinates>135.82827758789062,35.036293029785156,0</coordinates>
</Point>
</Placemark>
<Placemark>
<name>比叡平三丁目</name>
<description></description>
<Point>
<coordinates>135.82896423339844,35.03477478027344,0</coordinates>
</Point>
</Placemark>
<Placemark>
<name>三丁目東</name>
<description></description>
<Point>
<coordinates>135.83041381835938,35.03237533569336,0</coordinates>
</Point>
</Placemark>
<Placemark>
<name>比叡平</name>
<description></description>
<Point>
<coordinates>135.8300018310547,35.025238037109375,0</coordinates>
</Point>
</Placemark>
<Placemark>
<name>比叡平二丁目</name>
<description></description>
<Point>
<coordinates>135.83059692382812,35.0280647277832,0</coordinates>
</Point>
</Placemark>
<Placemark>
<name>一丁目南</name>
<description></description>
<Point>
<coordinates>135.83453369140625,35.02812576293945,0</coordinates>
</Point>
</Placemark>
<Placemark>
<name>比叡平一丁目</name>
<description></description>
<Point>
<coordinates>135.83511352539062,35.03150177001953,0</coordinates>
</Point>
</Placemark>
<Placemark>
<name>山中町</name>
<description></description>
<Point>
<coordinates>135.82077026367188,35.04023361206055,0</coordinates>
</Point>
</Placemark>
<Placemark>
<name>展望台前</name>
<description></description>
<Point>
<coordinates>135.84130859375,35.032440185546875,0</coordinates>
</Point>
</Placemark>
<Placemark>
<name>横川</name>
<description></description>
<Point>
<coordinates>135.84568786621094,35.09565353393555,0</coordinates>
</Point>
</Placemark>
<Placemark>
<name>峰道（大師像前）</name>
<description></description>
<Point>
<coordinates>135.83901977539062,35.07957077026367,0</coordinates>
</Point>
</Placemark>
<Placemark>
<name>西塔（釈迦堂）</name>
<description></description>
<Point>
<coordinates>135.8325958251953,35.07209777832031,0</coordinates>
</Point>
</Placemark>
<Placemark>
<name>緑ヶ丘</name>
<description></description>
<Point>
<coordinates>135.83132934570312,34.991355895996094,0</coordinates>
</Point>
</Placemark>
<Placemark>
<name>藤尾小学校</name>
<description></description>
<Point>
<coordinates>135.83380126953125,34.994834899902344,0</coordinates>
</Point>
</Placemark>
<Placemark>
<name>藤尾・小金塚</name>
<description></description>
<Point>
<coordinates>135.83480834960938,34.99836349487305,0</coordinates>
</Point>
</Placemark>
<Placemark>
<name>稲葉台</name>
<description></description>
<Point>
<coordinates>135.83477783203125,34.99602127075195,0</coordinates>
</Point>
</Placemark>
<Placemark>
<name>藤尾奥町</name>
<description></description>
<Point>
<coordinates>135.8376007080078,35.00386428833008,0</coordinates>
</Point>
</Placemark>
<Placemark>
<name>浜大津アーカス（琵琶湖ホテル）</name>
<description></description>
<Point>
<coordinates>135.86761474609375,35.01027297973633,0</coordinates>
</Point>
</Placemark>
<Placemark>
<name>ビアザ淡海</name>
<description></description>
<Point>
<coordinates>135.8786163330078,35.00693130493164,0</coordinates>
</Point>
</Placemark>
<Placemark>
<name>大津プリンスホテル</name>
<description></description>
<Point>
<coordinates>135.88990783691406,35.0046501159668,0</coordinates>
</Point>
</Placemark>
<Placemark>
<name>大津駅</name>
<description></description>
<Point>
<coordinates>135.8639373779297,35.003631591796875,0</coordinates>
</Point>
</Placemark>
<Placemark>
<name>県立体育館</name>
<description></description>
<Point>
<coordinates>135.8864288330078,35.00593185424805,0</coordinates>
</Point>
</Placemark>
<Placemark>
<name>なぎさのプロムナード</name>
<description></description>
<Point>
<coordinates>135.882080078125,35.0064811706543,0</coordinates>
</Point>
</Placemark>
<Placemark>
<name>中央大通り</name>
<description></description>
<Point>
<coordinates>135.86692810058594,35.00654602050781,0</coordinates>
</Point>
</Placemark>
<Placemark>
<name>びわ湖ホール</name>
<description></description>
<Point>
<coordinates>135.8759765625,35.00666427612305,0</coordinates>
</Point>
</Placemark>
<Placemark>
<name>大津市民会館</name>
<description></description>
<Point>
<coordinates>135.8697967529297,35.00994873046875,0</coordinates>
</Point>
</Placemark>
<Placemark>
<name>松ヶ枝町</name>
<description></description>
<Point>
<coordinates>135.87037658691406,35.00445556640625,0</coordinates>
</Point>
</Placemark>
<Placemark>
<name>湖城が丘</name>
<description></description>
<Point>
<coordinates>135.88453674316406,34.99393081665039,0</coordinates>
</Point>
</Placemark>
<Placemark>
<name>雲雀ヶ丘</name>
<description></description>
<Point>
<coordinates>135.8872833251953,34.989322662353516,0</coordinates>
</Point>
</Placemark>
<Placemark>
<name>上別保</name>
<description></description>
<Point>
<coordinates>135.88877868652344,34.98478317260742,0</coordinates>
</Point>
</Placemark>
<Placemark>
<name>三保ヶ崎</name>
<description></description>
<Point>
<coordinates>135.86041259765625,35.0131721496582,0</coordinates>
</Point>
</Placemark>
<Placemark>
<name>大門</name>
<description></description>
<Point>
<coordinates>135.85792541503906,35.01356887817383,0</coordinates>
</Point>
</Placemark>
<Placemark>
<name>三井寺</name>
<description></description>
<Point>
<coordinates>135.8560791015625,35.01350402832031,0</coordinates>
</Point>
</Placemark>
<Placemark>
<name>別所</name>
<description></description>
<Point>
<coordinates>135.85533142089844,35.015289306640625,0</coordinates>
</Point>
</Placemark>
<Placemark>
<name>山上町</name>
<description></description>
<Point>
<coordinates>135.8551788330078,35.0217399597168,0</coordinates>
</Point>
</Placemark>
<Placemark>
<name>大津京駅</name>
<description></description>
<Point>
<coordinates>135.85777282714844,35.02411651611328,0</coordinates>
</Point>
</Placemark>
<Placemark>
<name>東レ北門前</name>
<description></description>
<Point>
<coordinates>135.89405822753906,34.9813346862793,0</coordinates>
</Point>
</Placemark>
<Placemark>
<name>滋賀病院前</name>
<description></description>
<Point>
<coordinates>135.88818359375,34.98666000366211,0</coordinates>
</Point>
</Placemark>
<Placemark>
<name>国道膳所</name>
<description></description>
<Point>
<coordinates>135.88241577148438,34.996971130371094,0</coordinates>
</Point>
</Placemark>
<Placemark>
<name>滋賀マツダ前</name>
<description></description>
<Point>
<coordinates>135.8794403076172,34.999114990234375,0</coordinates>
</Point>
</Placemark>
<Placemark>
<name>大津市民病院</name>
<description></description>
<Point>
<coordinates>135.8763427734375,35.000701904296875,0</coordinates>
</Point>
</Placemark>
<Placemark>
<name>本宮町</name>
<description></description>
<Point>
<coordinates>135.87405395507812,35.00144958496094,0</coordinates>
</Point>
</Placemark>
<Placemark>
<name>浜町</name>
<description></description>
<Point>
<coordinates>135.8652801513672,35.0096321105957,0</coordinates>
</Point>
</Placemark>
<Placemark>
<name>浜大津</name>
<description></description>
<Point>
<coordinates>135.86434936523438,35.011756896972656,0</coordinates>
</Point>
</Placemark>
<Placemark>
<name>商工会議所前</name>
<description></description>
<Point>
<coordinates>135.87466430664062,35.005882263183594,0</coordinates>
</Point>
</Placemark>
<Placemark>
<name>義仲寺</name>
<description></description>
<Point>
<coordinates>135.88217163085938,35.00358200073242,0</coordinates>
</Point>
</Placemark>
<Placemark>
<name>馬場一丁目</name>
<description></description>
<Point>
<coordinates>135.88368225097656,35.0029296875,0</coordinates>
</Point>
</Placemark>
<Placemark>
<name>御殿ヶ浜</name>
<description></description>
<Point>
<coordinates>135.89857482910156,34.987220764160156,0</coordinates>
</Point>
</Placemark>
<Placemark>
<name>衛生科学センター前</name>
<description></description>
<Point>
<coordinates>135.89833068847656,34.985198974609375,0</coordinates>
</Point>
</Placemark>
<Placemark>
<name>NEC前</name>
<description></description>
<Point>
<coordinates>135.90110778808594,34.982601165771484,0</coordinates>
</Point>
</Placemark>
<Placemark>
<name>県庁前</name>
<description></description>
<Point>
<coordinates>135.8682861328125,35.00509262084961,0</coordinates>
</Point>
</Placemark>
<Placemark>
<name>中ノ庄</name>
<description></description>
<Point>
<coordinates>135.8961639404297,34.99033737182617,0</coordinates>
</Point>
</Placemark>
<Placemark>
<name>本丸町</name>
<description></description>
<Point>
<coordinates>135.89501953125,34.9921760559082,0</coordinates>
</Point>
</Placemark>
<Placemark>
<name>膳所公園</name>
<description></description>
<Point>
<coordinates>135.89439392089844,34.995426177978516,0</coordinates>
</Point>
</Placemark>
<Placemark>
<name>丸ノ内町</name>
<description></description>
<Point>
<coordinates>135.8928680419922,34.99912643432617,0</coordinates>
</Point>
</Placemark>
<Placemark>
<name>木ノ下町</name>
<description></description>
<Point>
<coordinates>135.89122009277344,35.00083541870117,0</coordinates>
</Point>
</Placemark>
<Placemark>
<name>西ノ庄</name>
<description></description>
<Point>
<coordinates>135.8877410888672,35.00224304199219,0</coordinates>
</Point>
</Placemark>
<Placemark>
<name>大津署前</name>
<description></description>
<Point>
<coordinates>135.87899780273438,35.004119873046875,0</coordinates>
</Point>
</Placemark>
<Placemark>
<name>京町通</name>
<description></description>
<Point>
<coordinates>135.86468505859375,35.0062370300293,0</coordinates>
</Point>
</Placemark>
<Placemark>
<name>石山寺山門前</name>
<description></description>
<Point>
<coordinates>135.9073028564453,34.961830139160156,0</coordinates>
</Point>
</Placemark>
<Placemark>
<name>大浜</name>
<description></description>
<Point>
<coordinates>135.90992736816406,34.95762634277344,0</coordinates>
</Point>
</Placemark>
<Placemark>
<name>石山小学校前</name>
<description></description>
<Point>
<coordinates>135.91000366210938,34.95576095581055,0</coordinates>
</Point>
</Placemark>
<Placemark>
<name>石山幼稚園前</name>
<description></description>
<Point>
<coordinates>135.90740966796875,34.95450210571289,0</coordinates>
</Point>
</Placemark>
<Placemark>
<name>野々宮</name>
<description></description>
<Point>
<coordinates>135.90440368652344,34.95415496826172,0</coordinates>
</Point>
</Placemark>
<Placemark>
<name>樋ノ口</name>
<description></description>
<Point>
<coordinates>135.9010467529297,34.95415496826172,0</coordinates>
</Point>
</Placemark>
<Placemark>
<name>石山団地口</name>
<description></description>
<Point>
<coordinates>135.8970947265625,34.95524215698242,0</coordinates>
</Point>
</Placemark>
<Placemark>
<name>石山団地中央</name>
<description></description>
<Point>
<coordinates>135.8964385986328,34.95277404785156,0</coordinates>
</Point>
</Placemark>
<Placemark>
<name>石山団地</name>
<description></description>
<Point>
<coordinates>135.89381408691406,34.95249938964844,0</coordinates>
</Point>
</Placemark>
<Placemark>
<name>栄町</name>
<description></description>
<Point>
<coordinates>136.0552520751953,34.87690353393555,0</coordinates>
</Point>
</Placemark>
<Placemark>
<name>京阪石山寺</name>
<description></description>
<Point>
<coordinates>135.90377807617188,34.96723175048828,0</coordinates>
</Point>
</Placemark>
<Placemark>
<name>唐橋前</name>
<description></description>
<Point>
<coordinates>135.9020233154297,34.974220275878906,0</coordinates>
</Point>
</Placemark>
<Placemark>
<name>松原</name>
<description></description>
<Point>
<coordinates>135.90203857421875,34.977638244628906,0</coordinates>
</Point>
</Placemark>
<Placemark>
<name>滋賀大前</name>
<description></description>
<Point>
<coordinates>135.9102020263672,34.951019287109375,0</coordinates>
</Point>
</Placemark>
<Placemark>
<name>平津</name>
<description></description>
<Point>
<coordinates>135.9106903076172,34.94843673706055,0</coordinates>
</Point>
</Placemark>
<Placemark>
<name>赤川</name>
<description></description>
<Point>
<coordinates>135.90928649902344,34.94548416137695,0</coordinates>
</Point>
</Placemark>
<Placemark>
<name>南郷一丁目</name>
<description></description>
<Point>
<coordinates>135.90847778320312,34.9424934387207,0</coordinates>
</Point>
</Placemark>
<Placemark>
<name>南郷洗堰</name>
<description></description>
<Point>
<coordinates>135.90921020507812,34.94048309326172,0</coordinates>
</Point>
</Placemark>
<Placemark>
<name>南郷</name>
<description></description>
<Point>
<coordinates>135.90921020507812,34.93680953979492,0</coordinates>
</Point>
</Placemark>
<Placemark>
<name>岡の平</name>
<description></description>
<Point>
<coordinates>135.9130401611328,34.93403244018555,0</coordinates>
</Point>
</Placemark>
<Placemark>
<name>新浜</name>
<description></description>
<Point>
<coordinates>135.9151153564453,34.929866790771484,0</coordinates>
</Point>
</Placemark>
<Placemark>
<name>蛙岩</name>
<description></description>
<Point>
<coordinates>135.91261291503906,34.92256546020508,0</coordinates>
</Point>
</Placemark>
<Placemark>
<name>立木観音前</name>
<description></description>
<Point>
<coordinates>135.91311645507812,34.917869567871094,0</coordinates>
</Point>
</Placemark>
<Placemark>
<name>鹿跳橋</name>
<description></description>
<Point>
<coordinates>135.91326904296875,34.91400909423828,0</coordinates>
</Point>
</Placemark>
<Placemark>
<name>宮前橋</name>
<description></description>
<Point>
<coordinates>135.91481018066406,34.912105560302734,0</coordinates>
</Point>
</Placemark>
<Placemark>
<name>大石小学校</name>
<description></description>
<Point>
<coordinates>135.9136199951172,34.91082763671875,0</coordinates>
</Point>
</Placemark>
<Placemark>
<name>滋賀大西門</name>
<description></description>
<Point>
<coordinates>135.90245056152344,34.95082092285156,0</coordinates>
</Point>
</Placemark>
<Placemark>
<name>北千町</name>
<description></description>
<Point>
<coordinates>135.9010772705078,34.94845962524414,0</coordinates>
</Point>
</Placemark>
<Placemark>
<name>中千町</name>
<description></description>
<Point>
<coordinates>135.89764404296875,34.946136474609375,0</coordinates>
</Point>
</Placemark>
<Placemark>
<name>上千町</name>
<description></description>
<Point>
<coordinates>135.89141845703125,34.9443359375,0</coordinates>
</Point>
</Placemark>
<Placemark>
<name>岩間寺</name>
<description></description>
<Point>
<coordinates>135.8807373046875,34.93242645263672,0</coordinates>
</Point>
</Placemark>
<Placemark>
<name>赤尾町</name>
<description></description>
<Point>
<coordinates>135.89768981933594,34.943443298339844,0</coordinates>
</Point>
</Placemark>
<Placemark>
<name>南郷中学校</name>
<description></description>
<Point>
<coordinates>135.8992919921875,34.94166564941406,0</coordinates>
</Point>
</Placemark>
<Placemark>
<name>南郷二丁目</name>
<description></description>
<Point>
<coordinates>135.90281677246094,34.94161605834961,0</coordinates>
</Point>
</Placemark>
<Placemark>
<name>南郷二丁目東</name>
<description></description>
<Point>
<coordinates>135.90692138671875,34.94285202026367,0</coordinates>
</Point>
</Placemark>
<Placemark>
<name>千寿の郷</name>
<description></description>
<Point>
<coordinates>135.8858642578125,34.94970703125,0</coordinates>
</Point>
</Placemark>
<Placemark>
<name>白州不動尊前</name>
<description></description>
<Point>
<coordinates>135.90353393554688,34.91169738769531,0</coordinates>
</Point>
</Placemark>
<Placemark>
<name>外畑</name>
<description></description>
<Point>
<coordinates>135.8990936279297,34.914588928222656,0</coordinates>
</Point>
</Placemark>
<Placemark>
<name>内畑</name>
<description></description>
<Point>
<coordinates>135.87820434570312,34.923824310302734,0</coordinates>
</Point>
</Placemark>
<Placemark>
<name>曽束</name>
<description></description>
<Point>
<coordinates>135.87374877929688,34.904754638671875,0</coordinates>
</Point>
</Placemark>
<Placemark>
<name>曽束中</name>
<description></description>
<Point>
<coordinates>135.87718200683594,34.90443801879883,0</coordinates>
</Point>
</Placemark>
<Placemark>
<name>曽束口</name>
<description></description>
<Point>
<coordinates>135.87994384765625,34.90335464477539,0</coordinates>
</Point>
</Placemark>
<Placemark>
<name>ゴルフ場前</name>
<description></description>
<Point>
<coordinates>135.8902587890625,34.90313720703125,0</coordinates>
</Point>
</Placemark>
<Placemark>
<name>西大石淀町</name>
<description></description>
<Point>
<coordinates>135.90476989746094,34.909759521484375,0</coordinates>
</Point>
</Placemark>
<Placemark>
<name>東大石淀町</name>
<description></description>
<Point>
<coordinates>135.90785217285156,34.908050537109375,0</coordinates>
</Point>
</Placemark>
<Placemark>
<name>桜谷口</name>
<description></description>
<Point>
<coordinates>135.91879272460938,34.912208557128906,0</coordinates>
</Point>
</Placemark>
<Placemark>
<name>桜谷中央</name>
<description></description>
<Point>
<coordinates>135.9234619140625,34.91297912597656,0</coordinates>
</Point>
</Placemark>
<Placemark>
<name>極楽橋</name>
<description></description>
<Point>
<coordinates>135.92269897460938,34.915245056152344,0</coordinates>
</Point>
</Placemark>
<Placemark>
<name>桜公園東</name>
<description></description>
<Point>
<coordinates>135.92575073242188,34.91605758666992,0</coordinates>
</Point>
</Placemark>
<Placemark>
<name>大石中</name>
<description></description>
<Point>
<coordinates>135.9119110107422,34.90546417236328,0</coordinates>
</Point>
</Placemark>
<Placemark>
<name>竜門</name>
<description></description>
<Point>
<coordinates>135.91282653808594,34.901100158691406,0</coordinates>
</Point>
</Placemark>
<Placemark>
<name>奥出</name>
<description></description>
<Point>
<coordinates>135.9139862060547,34.89659118652344,0</coordinates>
</Point>
</Placemark>
<Placemark>
<name>小田原口</name>
<description></description>
<Point>
<coordinates>135.9021453857422,34.885536193847656,0</coordinates>
</Point>
</Placemark>
<Placemark>
<name>小田原</name>
<description></description>
<Point>
<coordinates>135.89846801757812,34.88262176513672,0</coordinates>
</Point>
</Placemark>
<Placemark>
<name>宮ノ内</name>
<description></description>
<Point>
<coordinates>135.8977508544922,34.97432327270508,0</coordinates>
</Point>
</Placemark>
<Placemark>
<name>晴嵐小学校前</name>
<description></description>
<Point>
<coordinates>135.8968505859375,34.97271728515625,0</coordinates>
</Point>
</Placemark>
<Placemark>
<name>石山高校前</name>
<description></description>
<Point>
<coordinates>135.89569091796875,34.969940185546875,0</coordinates>
</Point>
</Placemark>
<Placemark>
<name>国分一丁目</name>
<description></description>
<Point>
<coordinates>135.8950653076172,34.96757888793945,0</coordinates>
</Point>
</Placemark>
<Placemark>
<name>仏神寺</name>
<description></description>
<Point>
<coordinates>135.8938751220703,34.96460723876953,0</coordinates>
</Point>
</Placemark>
<Placemark>
<name>大津車庫</name>
<description></description>
<Point>
<coordinates>135.89402770996094,34.96039581298828,0</coordinates>
</Point>
</Placemark>
<Placemark>
<name>南谷口（西武団地口）</name>
<description></description>
<Point>
<coordinates>135.89540100097656,34.95699691772461,0</coordinates>
</Point>
</Placemark>
<Placemark>
<name>東レ正門前（おりば専用）</name>
<description></description>
<Point>
<coordinates>135.89854431152344,34.97789001464844,0</coordinates>
</Point>
</Placemark>
<Placemark>
<name>泉福寺</name>
<description></description>
<Point>
<coordinates>135.8940887451172,34.96836471557617,0</coordinates>
</Point>
</Placemark>
<Placemark>
<name>国分町</name>
<description></description>
<Point>
<coordinates>135.89260864257812,34.965782165527344,0</coordinates>
</Point>
</Placemark>
<Placemark>
<name>幻住庵</name>
<description></description>
<Point>
<coordinates>135.8904571533203,34.96537399291992,0</coordinates>
</Point>
</Placemark>
<Placemark>
<name>国分団地</name>
<description></description>
<Point>
<coordinates>135.88787841796875,34.9627799987793,0</coordinates>
</Point>
</Placemark>
<Placemark>
<name>三保ヶ崎</name>
<description></description>
<Point>
<coordinates>135.86131286621094,35.0136833190918,0</coordinates>
</Point>
</Placemark>
<Placemark>
<name>競艇場前</name>
<description></description>
<Point>
<coordinates>135.86068725585938,35.01638412475586,0</coordinates>
</Point>
</Placemark>
<Placemark>
<name>皇子ヶ丘</name>
<description></description>
<Point>
<coordinates>135.85507202148438,35.026161193847656,0</coordinates>
</Point>
</Placemark>
<Placemark>
<name>錦織町</name>
<description></description>
<Point>
<coordinates>135.8548583984375,35.02786636352539,0</coordinates>
</Point>
</Placemark>
<Placemark>
<name>近江神宮前</name>
<description></description>
<Point>
<coordinates>135.8561553955078,35.031524658203125,0</coordinates>
</Point>
</Placemark>
<Placemark>
<name>榧尾</name>
<description></description>
<Point>
<coordinates>135.84490966796875,35.036109924316406,0</coordinates>
</Point>
</Placemark>
<Placemark>
<name>尾花川</name>
<description></description>
<Point>
<coordinates>135.85906982421875,35.019561767578125,0</coordinates>
</Point>
</Placemark>
<Placemark>
<name>皇子が丘公園</name>
<description></description>
<Point>
<coordinates>135.851318359375,35.025657653808594,0</coordinates>
</Point>
</Placemark>
<Placemark>
<name>滋賀大学</name>
<description></description>
<Point>
<coordinates>135.90408325195312,34.94965362548828,0</coordinates>
</Point>
</Placemark>
<Placemark>
<name>木之本駅</name>
<description></description>
<Point>
<coordinates>136.22213745117188,35.506011962890625,0</coordinates>
</Point>
</Placemark>
<Placemark>
<name>湖北総合病院前</name>
<description></description>
<Point>
<coordinates>136.21298217773438,35.503501892089844,0</coordinates>
</Point>
</Placemark>
<Placemark>
<name>賎ケ岳口</name>
<description></description>
<Point>
<coordinates>136.2074737548828,35.5006217956543,0</coordinates>
</Point>
</Placemark>
<Placemark>
<name>大音</name>
<description></description>
<Point>
<coordinates>136.19923400878906,35.49943923950195,0</coordinates>
</Point>
</Placemark>
<Placemark>
<name>近江山梨子</name>
<description></description>
<Point>
<coordinates>136.18820190429688,35.49965286254883,0</coordinates>
</Point>
</Placemark>
<Placemark>
<name>飯の浦</name>
<description></description>
<Point>
<coordinates>136.18458557128906,35.503299713134766,0</coordinates>
</Point>
</Placemark>
<Placemark>
<name>塩津南口</name>
<description></description>
<Point>
<coordinates>136.1664276123047,35.514854431152344,0</coordinates>
</Point>
</Placemark>
<Placemark>
<name>塩津浜</name>
<description></description>
<Point>
<coordinates>136.16416931152344,35.51791000366211,0</coordinates>
</Point>
</Placemark>
<Placemark>
<name>塩津北口</name>
<description></description>
<Point>
<coordinates>136.16273498535156,35.522701263427734,0</coordinates>
</Point>
</Placemark>
<Placemark>
<name>あじかまの里</name>
<description></description>
<Point>
<coordinates>136.15921020507812,35.52284622192383,0</coordinates>
</Point>
</Placemark>
<Placemark>
<name>岩熊口</name>
<description></description>
<Point>
<coordinates>136.1538848876953,35.51934051513672,0</coordinates>
</Point>
</Placemark>
<Placemark>
<name>岩熊</name>
<description></description>
<Point>
<coordinates>136.15037536621094,35.51485824584961,0</coordinates>
</Point>
</Placemark>
<Placemark>
<name>八田部口</name>
<description></description>
<Point>
<coordinates>136.14219665527344,35.506046295166016,0</coordinates>
</Point>
</Placemark>
<Placemark>
<name>小山口</name>
<description></description>
<Point>
<coordinates>136.13552856445312,35.503082275390625,0</coordinates>
</Point>
</Placemark>
<Placemark>
<name>栄橋</name>
<description></description>
<Point>
<coordinates>136.13137817382812,35.50346755981445,0</coordinates>
</Point>
</Placemark>
<Placemark>
<name>堂前</name>
<description></description>
<Point>
<coordinates>136.12646484375,35.502174377441406,0</coordinates>
</Point>
</Placemark>
<Placemark>
<name>稲田</name>
<description></description>
<Point>
<coordinates>136.12274169921875,35.50571823120117,0</coordinates>
</Point>
</Placemark>
<Placemark>
<name>殿村</name>
<description></description>
<Point>
<coordinates>136.12196350097656,35.51049041748047,0</coordinates>
</Point>
</Placemark>
<Placemark>
<name>山門</name>
<description></description>
<Point>
<coordinates>136.12364196777344,35.51845932006836,0</coordinates>
</Point>
</Placemark>
<Placemark>
<name>黒山口</name>
<description></description>
<Point>
<coordinates>136.12457275390625,35.49734115600586,0</coordinates>
</Point>
</Placemark>
<Placemark>
<name>西浅井町役場前</name>
<description></description>
<Point>
<coordinates>136.1236572265625,35.49782943725586,0</coordinates>
</Point>
</Placemark>
<Placemark>
<name>永原駅</name>
<description></description>
<Point>
<coordinates>136.1218719482422,35.497867584228516,0</coordinates>
</Point>
</Placemark>
<Placemark>
<name>丸子船の館</name>
<description></description>
<Point>
<coordinates>136.12368774414062,35.488494873046875,0</coordinates>
</Point>
</Placemark>
<Placemark>
<name>近江大浦</name>
<description></description>
<Point>
<coordinates>136.12222290039062,35.487945556640625,0</coordinates>
</Point>
</Placemark>
<Placemark>
<name>菅浦口</name>
<description></description>
<Point>
<coordinates>136.1353302001953,35.45786666870117,0</coordinates>
</Point>
</Placemark>
<Placemark>
<name>菅浦</name>
<description></description>
<Point>
<coordinates>136.1403350830078,35.45892333984375,0</coordinates>
</Point>
</Placemark>
<Placemark>
<name>県立伊吹運動場</name>
<description></description>
<Point>
<coordinates>136.3805389404297,35.3839225769043,0</coordinates>
</Point>
</Placemark>
<Placemark>
<name>伊吹庁舎前</name>
<description></description>
<Point>
<coordinates>136.37841796875,35.3863639831543,0</coordinates>
</Point>
</Placemark>
<Placemark>
<name>上野口</name>
<description></description>
<Point>
<coordinates>136.3797149658203,35.389339447021484,0</coordinates>
</Point>
</Placemark>
<Placemark>
<name>伊吹登山口</name>
<description></description>
<Point>
<coordinates>136.38259887695312,35.39391326904297,0</coordinates>
</Point>
</Placemark>
<Placemark>
<name>伊吹診療所前</name>
<description></description>
<Point>
<coordinates>136.3787078857422,35.39503479003906,0</coordinates>
</Point>
</Placemark>
<Placemark>
<name>長浜市立病院</name>
<description></description>
<Point>
<coordinates>136.2882080078125,35.3690299987793,0</coordinates>
</Point>
</Placemark>
<Placemark>
<name>市民体育館前</name>
<description></description>
<Point>
<coordinates>136.28623962402344,35.37900161743164,0</coordinates>
</Point>
</Placemark>
<Placemark>
<name>アルプラザ口</name>
<description></description>
<Point>
<coordinates>136.28379821777344,35.382328033447266,0</coordinates>
</Point>
</Placemark>
<Placemark>
<name>八幡泉町</name>
<description></description>
<Point>
<coordinates>136.28118896484375,35.38194274902344,0</coordinates>
</Point>
</Placemark>
<Placemark>
<name>八幡東</name>
<description></description>
<Point>
<coordinates>136.27806091308594,35.38143539428711,0</coordinates>
</Point>
</Placemark>
<Placemark>
<name>市役所前（長浜）</name>
<description></description>
<Point>
<coordinates>136.2758331298828,35.381011962890625,0</coordinates>
</Point>
</Placemark>
<Placemark>
<name>高田</name>
<description></description>
<Point>
<coordinates>136.2717742919922,35.380191802978516,0</coordinates>
</Point>
</Placemark>
<Placemark>
<name>長浜御坊前</name>
<description></description>
<Point>
<coordinates>136.26998901367188,35.37993240356445,0</coordinates>
</Point>
</Placemark>
<Placemark>
<name>信用金庫前</name>
<description></description>
<Point>
<coordinates>136.26837158203125,35.379783630371094,0</coordinates>
</Point>
</Placemark>
<Placemark>
<name>西本町</name>
<description></description>
<Point>
<coordinates>136.2675323486328,35.3796272277832,0</coordinates>
</Point>
</Placemark>
<Placemark>
<name>長浜駅</name>
<description></description>
<Point>
<coordinates>136.2655487060547,35.379150390625,0</coordinates>
</Point>
</Placemark>
<Placemark>
<name>大通寺</name>
<description></description>
<Point>
<coordinates>136.27139282226562,35.38345718383789,0</coordinates>
</Point>
</Placemark>
<Placemark>
<name>三の宮</name>
<description></description>
<Point>
<coordinates>136.270751953125,35.38538360595703,0</coordinates>
</Point>
</Placemark>
<Placemark>
<name>中山（長浜）</name>
<description></description>
<Point>
<coordinates>136.2698516845703,35.38809585571289,0</coordinates>
</Point>
</Placemark>
<Placemark>
<name>八幡中山西</name>
<description></description>
<Point>
<coordinates>136.2701416015625,35.39024353027344,0</coordinates>
</Point>
</Placemark>
<Placemark>
<name>八幡中山</name>
<description></description>
<Point>
<coordinates>136.27310180664062,35.390785217285156,0</coordinates>
</Point>
</Placemark>
<Placemark>
<name>八幡中山東</name>
<description></description>
<Point>
<coordinates>136.2754669189453,35.39121627807617,0</coordinates>
</Point>
</Placemark>
<Placemark>
<name>長浜警察署前</name>
<description></description>
<Point>
<coordinates>136.2801513671875,35.39195251464844,0</coordinates>
</Point>
</Placemark>
<Placemark>
<name>川崎</name>
<description></description>
<Point>
<coordinates>136.2835693359375,35.39304733276367,0</coordinates>
</Point>
</Placemark>
<Placemark>
<name>山階</name>
<description></description>
<Point>
<coordinates>136.2880859375,35.394535064697266,0</coordinates>
</Point>
</Placemark>
<Placemark>
<name>長浜ジャスコ</name>
<description></description>
<Point>
<coordinates>136.28964233398438,35.39780044555664,0</coordinates>
</Point>
</Placemark>
<Placemark>
<name>口分田郷</name>
<description></description>
<Point>
<coordinates>136.29319763183594,35.396236419677734,0</coordinates>
</Point>
</Placemark>
<Placemark>
<name>加納</name>
<description></description>
<Point>
<coordinates>136.29745483398438,35.39763641357422,0</coordinates>
</Point>
</Placemark>
<Placemark>
<name>新栄口</name>
<description></description>
<Point>
<coordinates>136.30445861816406,35.399959564208984,0</coordinates>
</Point>
</Placemark>
<Placemark>
<name>西上坂西</name>
<description></description>
<Point>
<coordinates>136.30787658691406,35.40373611450195,0</coordinates>
</Point>
</Placemark>
<Placemark>
<name>西上坂北</name>
<description></description>
<Point>
<coordinates>136.30758666992188,35.406829833984375,0</coordinates>
</Point>
</Placemark>
<Placemark>
<name>さくらんぼ保育園</name>
<description></description>
<Point>
<coordinates>136.31198120117188,35.407474517822266,0</coordinates>
</Point>
</Placemark>
<Placemark>
<name>千草東</name>
<description></description>
<Point>
<coordinates>136.31463623046875,35.40763473510742,0</coordinates>
</Point>
</Placemark>
<Placemark>
<name>東上坂口</name>
<description></description>
<Point>
<coordinates>136.3185272216797,35.40843200683594,0</coordinates>
</Point>
</Placemark>
<Placemark>
<name>野村橋</name>
<description></description>
<Point>
<coordinates>136.32322692871094,35.41148376464844,0</coordinates>
</Point>
</Placemark>
<Placemark>
<name>今庄橋</name>
<description></description>
<Point>
<coordinates>136.33126831054688,35.40859603881836,0</coordinates>
</Point>
</Placemark>
<Placemark>
<name>村居田</name>
<description></description>
<Point>
<coordinates>136.33802795410156,35.40225601196289,0</coordinates>
</Point>
</Placemark>
<Placemark>
<name>板戸</name>
<description></description>
<Point>
<coordinates>136.34336853027344,35.398521423339844,0</coordinates>
</Point>
</Placemark>
<Placemark>
<name>坂口（伊吹登山口線）</name>
<description></description>
<Point>
<coordinates>136.34735107421875,35.396217346191406,0</coordinates>
</Point>
</Placemark>
<Placemark>
<name>野一色</name>
<description></description>
<Point>
<coordinates>136.35670471191406,35.390804290771484,0</coordinates>
</Point>
</Placemark>
<Placemark>
<name>間田南</name>
<description></description>
<Point>
<coordinates>136.36550903320312,35.38570022583008,0</coordinates>
</Point>
</Placemark>
<Placemark>
<name>春照下</name>
<description></description>
<Point>
<coordinates>136.37265014648438,35.38152313232422,0</coordinates>
</Point>
</Placemark>
<Placemark>
<name>高番</name>
<description></description>
<Point>
<coordinates>136.38037109375,35.37684631347656,0</coordinates>
</Point>
</Placemark>
<Placemark>
<name>ジョイ伊吹口</name>
<description></description>
<Point>
<coordinates>136.38034057617188,35.37995147705078,0</coordinates>
</Point>
</Placemark>
<Placemark>
<name>宮司北</name>
<description></description>
<Point>
<coordinates>136.28994750976562,35.38326644897461,0</coordinates>
</Point>
</Placemark>
<Placemark>
<name>宮司東</name>
<description></description>
<Point>
<coordinates>136.29367065429688,35.383827209472656,0</coordinates>
</Point>
</Placemark>
<Placemark>
<name>今川</name>
<description></description>
<Point>
<coordinates>136.3017578125,35.384883880615234,0</coordinates>
</Point>
</Placemark>
<Placemark>
<name>小足口</name>
<description></description>
<Point>
<coordinates>136.3085479736328,35.38638687133789,0</coordinates>
</Point>
</Placemark>
<Placemark>
<name>七条西</name>
<description></description>
<Point>
<coordinates>136.31106567382812,35.38703536987305,0</coordinates>
</Point>
</Placemark>
<Placemark>
<name>七条</name>
<description></description>
<Point>
<coordinates>136.313232421875,35.387577056884766,0</coordinates>
</Point>
</Placemark>
<Placemark>
<name>東中前</name>
<description></description>
<Point>
<coordinates>136.31602478027344,35.388084411621094,0</coordinates>
</Point>
</Placemark>
<Placemark>
<name>七条東</name>
<description></description>
<Point>
<coordinates>136.31857299804688,35.387786865234375,0</coordinates>
</Point>
</Placemark>
<Placemark>
<name>石田（天満線）</name>
<description></description>
<Point>
<coordinates>136.32150268554688,35.38764953613281,0</coordinates>
</Point>
</Placemark>
<Placemark>
<name>坂下</name>
<description></description>
<Point>
<coordinates>136.32965087890625,35.386993408203125,0</coordinates>
</Point>
</Placemark>
<Placemark>
<name>観音寺前（米原市）</name>
<description></description>
<Point>
<coordinates>136.33885192871094,35.38569641113281,0</coordinates>
</Point>
</Placemark>
<Placemark>
<name>朝日</name>
<description></description>
<Point>
<coordinates>136.34588623046875,35.38406753540039,0</coordinates>
</Point>
</Placemark>
<Placemark>
<name>伊吹高校</name>
<description></description>
<Point>
<coordinates>136.35317993164062,35.38311767578125,0</coordinates>
</Point>
</Placemark>
<Placemark>
<name>大原生涯学習センター</name>
<description></description>
<Point>
<coordinates>136.3542938232422,35.38232421875,0</coordinates>
</Point>
</Placemark>
<Placemark>
<name>市場会議所</name>
<description></description>
<Point>
<coordinates>136.3565673828125,35.37900161743164,0</coordinates>
</Point>
</Placemark>
<Placemark>
<name>グリーンパーク北</name>
<description></description>
<Point>
<coordinates>136.36012268066406,35.378292083740234,0</coordinates>
</Point>
</Placemark>
<Placemark>
<name>グリーンドーム前</name>
<description></description>
<Point>
<coordinates>136.36209106445312,35.37522888183594,0</coordinates>
</Point>
</Placemark>
<Placemark>
<name>グリーンパーク山東</name>
<description></description>
<Point>
<coordinates>136.36187744140625,35.372005462646484,0</coordinates>
</Point>
</Placemark>
<Placemark>
<name>三島池ビジターセンター前</name>
<description></description>
<Point>
<coordinates>136.3594970703125,35.371917724609375,0</coordinates>
</Point>
</Placemark>
<Placemark>
<name>加勢野</name>
<description></description>
<Point>
<coordinates>136.36019897460938,35.36858367919922,0</coordinates>
</Point>
</Placemark>
<Placemark>
<name>山東公民館</name>
<description></description>
<Point>
<coordinates>136.36720275878906,35.36571502685547,0</coordinates>
</Point>
</Placemark>
<Placemark>
<name>ルッチプラザ</name>
<description></description>
<Point>
<coordinates>136.36813354492188,35.36478042602539,0</coordinates>
</Point>
</Placemark>
<Placemark>
<name>山東庁舎前</name>
<description></description>
<Point>
<coordinates>136.3709259033203,35.361759185791016,0</coordinates>
</Point>
</Placemark>
<Placemark>
<name>近江長岡駅</name>
<description></description>
<Point>
<coordinates>136.37294006347656,35.35921096801758,0</coordinates>
</Point>
</Placemark>
<Placemark>
<name>長浜赤十字病院</name>
<description></description>
<Point>
<coordinates>136.27342224121094,35.38294982910156,0</coordinates>
</Point>
</Placemark>
<Placemark>
<name>西友長浜楽市前</name>
<description></description>
<Point>
<coordinates>136.28248596191406,35.387611389160156,0</coordinates>
</Point>
</Placemark>
<Placemark>
<name>クリスタルプラザ</name>
<description></description>
<Point>
<coordinates>136.28091430664062,35.38726043701172,0</coordinates>
</Point>
</Placemark>
<Placemark>
<name>川崎南</name>
<description></description>
<Point>
<coordinates>136.2864227294922,35.3894157409668,0</coordinates>
</Point>
</Placemark>
<Placemark>
<name>長浜北高校前</name>
<description></description>
<Point>
<coordinates>136.29042053222656,35.39012908935547,0</coordinates>
</Point>
</Placemark>
<Placemark>
<name>東上坂</name>
<description></description>
<Point>
<coordinates>136.31993103027344,35.40501022338867,0</coordinates>
</Point>
</Placemark>
<Placemark>
<name>北郷里公民館前</name>
<description></description>
<Point>
<coordinates>136.3208770751953,35.40150451660156,0</coordinates>
</Point>
</Placemark>
<Placemark>
<name>春近</name>
<description></description>
<Point>
<coordinates>136.3209991455078,35.39894485473633,0</coordinates>
</Point>
</Placemark>
<Placemark>
<name>堀部</name>
<description></description>
<Point>
<coordinates>136.32156372070312,35.3945426940918,0</coordinates>
</Point>
</Placemark>
<Placemark>
<name>石田北</name>
<description></description>
<Point>
<coordinates>136.32167053222656,35.39020538330078,0</coordinates>
</Point>
</Placemark>
<Placemark>
<name>宮司南</name>
<description></description>
<Point>
<coordinates>136.29039001464844,35.37889862060547,0</coordinates>
</Point>
</Placemark>
<Placemark>
<name>永久寺</name>
<description></description>
<Point>
<coordinates>136.29476928710938,35.373809814453125,0</coordinates>
</Point>
</Placemark>
<Placemark>
<name>大辰巳</name>
<description></description>
<Point>
<coordinates>136.2920379638672,35.3730583190918,0</coordinates>
</Point>
</Placemark>
<Placemark>
<name>平方東</name>
<description></description>
<Point>
<coordinates>136.2856903076172,35.377864837646484,0</coordinates>
</Point>
</Placemark>
<Placemark>
<name>市民交流センター前</name>
<description></description>
<Point>
<coordinates>136.27890014648438,35.37652587890625,0</coordinates>
</Point>
</Placemark>
<Placemark>
<name>長浜北星高校前</name>
<description></description>
<Point>
<coordinates>136.27809143066406,35.377777099609375,0</coordinates>
</Point>
</Placemark>
<Placemark>
<name>室東</name>
<description></description>
<Point>
<coordinates>136.29483032226562,35.376007080078125,0</coordinates>
</Point>
</Placemark>
<Placemark>
<name>北中前</name>
<description></description>
<Point>
<coordinates>136.26808166503906,35.39358139038086,0</coordinates>
</Point>
</Placemark>
<Placemark>
<name>神照</name>
<description></description>
<Point>
<coordinates>136.27481079101562,35.3962516784668,0</coordinates>
</Point>
</Placemark>
<Placemark>
<name>神小前</name>
<description></description>
<Point>
<coordinates>136.27395629882812,35.39900588989258,0</coordinates>
</Point>
</Placemark>
<Placemark>
<name>神照寺前</name>
<description></description>
<Point>
<coordinates>136.27566528320312,35.40235137939453,0</coordinates>
</Point>
</Placemark>
<Placemark>
<name>泉町</name>
<description></description>
<Point>
<coordinates>136.28366088867188,35.40461730957031,0</coordinates>
</Point>
</Placemark>
<Placemark>
<name>国友鉄砲の里資料館前</name>
<description></description>
<Point>
<coordinates>136.28224182128906,35.409095764160156,0</coordinates>
</Point>
</Placemark>
<Placemark>
<name>国友北</name>
<description></description>
<Point>
<coordinates>136.28216552734375,35.410308837890625,0</coordinates>
</Point>
</Placemark>
<Placemark>
<name>今</name>
<description></description>
<Point>
<coordinates>136.29383850097656,35.409934997558594,0</coordinates>
</Point>
</Placemark>
<Placemark>
<name>長浜養護学校前</name>
<description></description>
<Point>
<coordinates>136.2987060546875,35.41301345825195,0</coordinates>
</Point>
</Placemark>
<Placemark>
<name>浅井支所前</name>
<description></description>
<Point>
<coordinates>136.2981719970703,35.42800521850586,0</coordinates>
</Point>
</Placemark>
<Placemark>
<name>国友</name>
<description></description>
<Point>
<coordinates>136.2832489013672,35.40768814086914,0</coordinates>
</Point>
</Placemark>
<Placemark>
<name>八幡中山口</name>
<description></description>
<Point>
<coordinates>136.27767944335938,35.39162063598633,0</coordinates>
</Point>
</Placemark>
<Placemark>
<name>長浜郵便局前</name>
<description></description>
<Point>
<coordinates>136.26609802246094,35.38925552368164,0</coordinates>
</Point>
</Placemark>
<Placemark>
<name>祇園</name>
<description></description>
<Point>
<coordinates>136.25962829589844,35.387760162353516,0</coordinates>
</Point>
</Placemark>
<Placemark>
<name>養蚕の館</name>
<description></description>
<Point>
<coordinates>136.2559814453125,35.38994598388672,0</coordinates>
</Point>
</Placemark>
<Placemark>
<name>相撲東</name>
<description></description>
<Point>
<coordinates>136.2512969970703,35.38888168334961,0</coordinates>
</Point>
</Placemark>
<Placemark>
<name>相撲中</name>
<description></description>
<Point>
<coordinates>136.24896240234375,35.38823699951172,0</coordinates>
</Point>
</Placemark>
<Placemark>
<name>相撲西</name>
<description></description>
<Point>
<coordinates>136.24734497070312,35.38773727416992,0</coordinates>
</Point>
</Placemark>
<Placemark>
<name>びわ工業団地</name>
<description></description>
<Point>
<coordinates>136.23562622070312,35.38913345336914,0</coordinates>
</Point>
</Placemark>
<Placemark>
<name>川道南</name>
<description></description>
<Point>
<coordinates>136.2344207763672,35.39707565307617,0</coordinates>
</Point>
</Placemark>
<Placemark>
<name>川道中</name>
<description></description>
<Point>
<coordinates>136.23468017578125,35.39886474609375,0</coordinates>
</Point>
</Placemark>
<Placemark>
<name>川道北</name>
<description></description>
<Point>
<coordinates>136.2342071533203,35.40113830566406,0</coordinates>
</Point>
</Placemark>
<Placemark>
<name>野寺橋</name>
<description></description>
<Point>
<coordinates>136.23329162597656,35.40442657470703,0</coordinates>
</Point>
</Placemark>
<Placemark>
<name>新居</name>
<description></description>
<Point>
<coordinates>136.23483276367188,35.407508850097656,0</coordinates>
</Point>
</Placemark>
<Placemark>
<name>びわ支所前</name>
<description></description>
<Point>
<coordinates>136.2336883544922,35.411476135253906,0</coordinates>
</Point>
</Placemark>
<Placemark>
<name>落合</name>
<description></description>
<Point>
<coordinates>136.23768615722656,35.41436767578125,0</coordinates>
</Point>
</Placemark>
<Placemark>
<name>虎姫南</name>
<description></description>
<Point>
<coordinates>136.24853515625,35.41576385498047,0</coordinates>
</Point>
</Placemark>
<Placemark>
<name>酢</name>
<description></description>
<Point>
<coordinates>136.25738525390625,35.418609619140625,0</coordinates>
</Point>
</Placemark>
<Placemark>
<name>五村東</name>
<description></description>
<Point>
<coordinates>136.2626953125,35.41981887817383,0</coordinates>
</Point>
</Placemark>
<Placemark>
<name>虎高前</name>
<description></description>
<Point>
<coordinates>136.26548767089844,35.42041015625,0</coordinates>
</Point>
</Placemark>
<Placemark>
<name>宮部西</name>
<description></description>
<Point>
<coordinates>136.27391052246094,35.42235565185547,0</coordinates>
</Point>
</Placemark>
<Placemark>
<name>宮部</name>
<description></description>
<Point>
<coordinates>136.27761840820312,35.42316436767578,0</coordinates>
</Point>
</Placemark>
<Placemark>
<name>湯次</name>
<description></description>
<Point>
<coordinates>136.2846221923828,35.42496871948242,0</coordinates>
</Point>
</Placemark>
<Placemark>
<name>内保西</name>
<description></description>
<Point>
<coordinates>136.29151916503906,35.42705154418945,0</coordinates>
</Point>
</Placemark>
<Placemark>
<name>内保</name>
<description></description>
<Point>
<coordinates>136.2949676513672,35.427589416503906,0</coordinates>
</Point>
</Placemark>
<Placemark>
<name>プラザ福良の森前</name>
<description></description>
<Point>
<coordinates>136.30540466308594,35.428836822509766,0</coordinates>
</Point>
</Placemark>
<Placemark>
<name>消防局浅井出張所前</name>
<description></description>
<Point>
<coordinates>136.31117248535156,35.42772674560547,0</coordinates>
</Point>
</Placemark>
<Placemark>
<name>西主計</name>
<description></description>
<Point>
<coordinates>136.31594848632812,35.42909240722656,0</coordinates>
</Point>
</Placemark>
<Placemark>
<name>乗倉口</name>
<description></description>
<Point>
<coordinates>136.3211212158203,35.430450439453125,0</coordinates>
</Point>
</Placemark>
<Placemark>
<name>東主計</name>
<description></description>
<Point>
<coordinates>136.32302856445312,35.430965423583984,0</coordinates>
</Point>
</Placemark>
<Placemark>
<name>中部診療所</name>
<description></description>
<Point>
<coordinates>136.32591247558594,35.43279266357422,0</coordinates>
</Point>
</Placemark>
<Placemark>
<name>南郷</name>
<description></description>
<Point>
<coordinates>136.32803344726562,35.4332389831543,0</coordinates>
</Point>
</Placemark>
<Placemark>
<name>北の郷</name>
<description></description>
<Point>
<coordinates>136.33132934570312,35.43395233154297,0</coordinates>
</Point>
</Placemark>
<Placemark>
<name>東野（高山線）</name>
<description></description>
<Point>
<coordinates>136.33338928222656,35.43511962890625,0</coordinates>
</Point>
</Placemark>
<Placemark>
<name>飯山口</name>
<description></description>
<Point>
<coordinates>136.3338165283203,35.43893814086914,0</coordinates>
</Point>
</Placemark>
<Placemark>
<name>徳山</name>
<description></description>
<Point>
<coordinates>136.33482360839844,35.44123077392578,0</coordinates>
</Point>
</Placemark>
<Placemark>
<name>岡谷</name>
<description></description>
<Point>
<coordinates>136.33505249023438,35.450130462646484,0</coordinates>
</Point>
</Placemark>
<Placemark>
<name>追分（高山線）</name>
<description></description>
<Point>
<coordinates>136.33468627929688,35.4530029296875,0</coordinates>
</Point>
</Placemark>
<Placemark>
<name>鍛冶屋</name>
<description></description>
<Point>
<coordinates>136.3316192626953,35.45651626586914,0</coordinates>
</Point>
</Placemark>
<Placemark>
<name>鍛冶屋北</name>
<description></description>
<Point>
<coordinates>136.32994079589844,35.458194732666016,0</coordinates>
</Point>
</Placemark>
<Placemark>
<name>郷野</name>
<description></description>
<Point>
<coordinates>136.32406616210938,35.46135330200195,0</coordinates>
</Point>
</Placemark>
<Placemark>
<name>野瀬南</name>
<description></description>
<Point>
<coordinates>136.3221435546875,35.46431350708008,0</coordinates>
</Point>
</Placemark>
<Placemark>
<name>野瀬</name>
<description></description>
<Point>
<coordinates>136.3203887939453,35.465885162353516,0</coordinates>
</Point>
</Placemark>
<Placemark>
<name>野瀬北</name>
<description></description>
<Point>
<coordinates>136.31915283203125,35.467220306396484,0</coordinates>
</Point>
</Placemark>
<Placemark>
<name>草野南</name>
<description></description>
<Point>
<coordinates>136.32077026367188,35.46660614013672,0</coordinates>
</Point>
</Placemark>
<Placemark>
<name>草野</name>
<description></description>
<Point>
<coordinates>136.31735229492188,35.472938537597656,0</coordinates>
</Point>
</Placemark>
<Placemark>
<name>高山南</name>
<description></description>
<Point>
<coordinates>136.31556701660156,35.47923278808594,0</coordinates>
</Point>
</Placemark>
<Placemark>
<name>近江高山</name>
<description></description>
<Point>
<coordinates>136.31405639648438,35.48070526123047,0</coordinates>
</Point>
</Placemark>
<Placemark>
<name>寺師北</name>
<description></description>
<Point>
<coordinates>136.31451416015625,35.47964096069336,0</coordinates>
</Point>
</Placemark>
<Placemark>
<name>寺師</name>
<description></description>
<Point>
<coordinates>136.3134307861328,35.47450256347656,0</coordinates>
</Point>
</Placemark>
<Placemark>
<name>西村</name>
<description></description>
<Point>
<coordinates>136.31411743164062,35.471675872802734,0</coordinates>
</Point>
</Placemark>
<Placemark>
<name>太田</name>
<description></description>
<Point>
<coordinates>136.31521606445312,35.468345642089844,0</coordinates>
</Point>
</Placemark>
<Placemark>
<name>健康パークあざい</name>
<description></description>
<Point>
<coordinates>136.3192596435547,35.46369552612305,0</coordinates>
</Point>
</Placemark>
<Placemark>
<name>米原高校前</name>
<description></description>
<Point>
<coordinates>136.2972412109375,35.31907272338867,0</coordinates>
</Point>
</Placemark>
<Placemark>
<name>さくらが丘</name>
<description></description>
<Point>
<coordinates>136.295166015625,35.32044219970703,0</coordinates>
</Point>
</Placemark>
<Placemark>
<name>岩脇</name>
<description></description>
<Point>
<coordinates>136.29750061035156,35.32960510253906,0</coordinates>
</Point>
</Placemark>
<Placemark>
<name>中多良</name>
<description></description>
<Point>
<coordinates>136.2861328125,35.32073211669922,0</coordinates>
</Point>
</Placemark>
<Placemark>
<name>近江高等技術専門校</name>
<description></description>
<Point>
<coordinates>136.29161071777344,35.324424743652344,0</coordinates>
</Point>
</Placemark>
<Placemark>
<name>多良口</name>
<description></description>
<Point>
<coordinates>136.290771484375,35.327476501464844,0</coordinates>
</Point>
</Placemark>
<Placemark>
<name>飯村</name>
<description></description>
<Point>
<coordinates>136.29103088378906,35.33169174194336,0</coordinates>
</Point>
</Placemark>
<Placemark>
<name>坂田駅</name>
<description></description>
<Point>
<coordinates>136.28793334960938,35.33592224121094,0</coordinates>
</Point>
</Placemark>
<Placemark>
<name>宇賀野</name>
<description></description>
<Point>
<coordinates>136.29135131835938,35.338233947753906,0</coordinates>
</Point>
</Placemark>
<Placemark>
<name>碇</name>
<description></description>
<Point>
<coordinates>136.2895965576172,35.343597412109375,0</coordinates>
</Point>
</Placemark>
<Placemark>
<name>長沢御坊野</name>
<description></description>
<Point>
<coordinates>136.28729248046875,35.35135269165039,0</coordinates>
</Point>
</Placemark>
<Placemark>
<name>田村駅</name>
<description></description>
<Point>
<coordinates>136.28224182128906,35.355892181396484,0</coordinates>
</Point>
</Placemark>
<Placemark>
<name>田村</name>
<description></description>
<Point>
<coordinates>136.28573608398438,35.356754302978516,0</coordinates>
</Point>
</Placemark>
<Placemark>
<name>高橋</name>
<description></description>
<Point>
<coordinates>136.2835235595703,35.363975524902344,0</coordinates>
</Point>
</Placemark>
<Placemark>
<name>戌亥口</name>
<description></description>
<Point>
<coordinates>136.2816162109375,35.36679458618164,0</coordinates>
</Point>
</Placemark>
<Placemark>
<name>戌亥西</name>
<description></description>
<Point>
<coordinates>136.28147888183594,35.368873596191406,0</coordinates>
</Point>
</Placemark>
<Placemark>
<name>戌亥東</name>
<description></description>
<Point>
<coordinates>136.28457641601562,35.36944580078125,0</coordinates>
</Point>
</Placemark>
<Placemark>
<name>長浜病院西</name>
<description></description>
<Point>
<coordinates>136.28582763671875,35.36874771118164,0</coordinates>
</Point>
</Placemark>
<Placemark>
<name>長浜高校前</name>
<description></description>
<Point>
<coordinates>136.2791748046875,35.370147705078125,0</coordinates>
</Point>
</Placemark>
<Placemark>
<name>国道平方</name>
<description></description>
<Point>
<coordinates>136.2750244140625,35.37379455566406,0</coordinates>
</Point>
</Placemark>
<Placemark>
<name>神社前</name>
<description></description>
<Point>
<coordinates>136.27317810058594,35.377723693847656,0</coordinates>
</Point>
</Placemark>
<Placemark>
<name>北新町</name>
<description></description>
<Point>
<coordinates>136.26727294921875,35.39599609375,0</coordinates>
</Point>
</Placemark>
<Placemark>
<name>細江南</name>
<description></description>
<Point>
<coordinates>136.25396728515625,35.398311614990234,0</coordinates>
</Point>
</Placemark>
<Placemark>
<name>曽根口</name>
<description></description>
<Point>
<coordinates>136.25267028808594,35.40095901489258,0</coordinates>
</Point>
</Placemark>
<Placemark>
<name>曽根（米原木之本線）</name>
<description></description>
<Point>
<coordinates>136.25076293945312,35.406742095947266,0</coordinates>
</Point>
</Placemark>
<Placemark>
<name>旭町</name>
<description></description>
<Point>
<coordinates>136.2469482421875,35.421173095703125,0</coordinates>
</Point>
</Placemark>
<Placemark>
<name>国道虎姫</name>
<description></description>
<Point>
<coordinates>136.24588012695312,35.42643356323242,0</coordinates>
</Point>
</Placemark>
<Placemark>
<name>馬渡橋</name>
<description></description>
<Point>
<coordinates>136.24526977539062,35.43135452270508,0</coordinates>
</Point>
</Placemark>
<Placemark>
<name>小倉（米原木之本線）</name>
<description></description>
<Point>
<coordinates>136.24180603027344,35.4375114440918,0</coordinates>
</Point>
</Placemark>
<Placemark>
<name>速水高田</name>
<description></description>
<Point>
<coordinates>136.24124145507812,35.44212341308594,0</coordinates>
</Point>
</Placemark>
<Placemark>
<name>速水</name>
<description></description>
<Point>
<coordinates>136.240966796875,35.44588088989258,0</coordinates>
</Point>
</Placemark>
<Placemark>
<name>国道八日市</name>
<description></description>
<Point>
<coordinates>136.23818969726562,35.45624542236328,0</coordinates>
</Point>
</Placemark>
<Placemark>
<name>宇根</name>
<description></description>
<Point>
<coordinates>136.237060546875,35.46059799194336,0</coordinates>
</Point>
</Placemark>
<Placemark>
<name>日電高月工場口</name>
<description></description>
<Point>
<coordinates>136.2357940673828,35.463462829589844,0</coordinates>
</Point>
</Placemark>
<Placemark>
<name>国道高月</name>
<description></description>
<Point>
<coordinates>136.23440551757812,35.467891693115234,0</coordinates>
</Point>
</Placemark>
<Placemark>
<name>高月町役場</name>
<description></description>
<Point>
<coordinates>136.23472595214844,35.473846435546875,0</coordinates>
</Point>
</Placemark>
<Placemark>
<name>物部</name>
<description></description>
<Point>
<coordinates>136.23098754882812,35.480934143066406,0</coordinates>
</Point>
</Placemark>
<Placemark>
<name>横山</name>
<description></description>
<Point>
<coordinates>136.22898864746094,35.485633850097656,0</coordinates>
</Point>
</Placemark>
<Placemark>
<name>千田</name>
<description></description>
<Point>
<coordinates>136.2262725830078,35.49201202392578,0</coordinates>
</Point>
</Placemark>
<Placemark>
<name>廣瀬西口</name>
<description></description>
<Point>
<coordinates>136.2234344482422,35.498653411865234,0</coordinates>
</Point>
</Placemark>
<Placemark>
<name>木之本町役場</name>
<description></description>
<Point>
<coordinates>136.22207641601562,35.50178527832031,0</coordinates>
</Point>
</Placemark>
<Placemark>
<name>木之本口</name>
<description></description>
<Point>
<coordinates>136.22137451171875,35.503414154052734,0</coordinates>
</Point>
</Placemark>
<Placemark>
<name>木之本バスターミナル</name>
<description></description>
<Point>
<coordinates>136.22171020507812,35.50469207763672,0</coordinates>
</Point>
</Placemark>
<Placemark>
<name>尾山</name>
<description></description>
<Point>
<coordinates>136.24513244628906,35.49727249145508,0</coordinates>
</Point>
</Placemark>
<Placemark>
<name>洞戸</name>
<description></description>
<Point>
<coordinates>136.24130249023438,35.496726989746094,0</coordinates>
</Point>
</Placemark>
<Placemark>
<name>町民プール</name>
<description></description>
<Point>
<coordinates>136.2130126953125,35.49818420410156,0</coordinates>
</Point>
</Placemark>
<Placemark>
<name>さわやかセンター</name>
<description></description>
<Point>
<coordinates>136.22872924804688,35.497947692871094,0</coordinates>
</Point>
</Placemark>
<Placemark>
<name>千田口</name>
<description></description>
<Point>
<coordinates>136.2300567626953,35.49484634399414,0</coordinates>
</Point>
</Placemark>
<Placemark>
<name>田部</name>
<description></description>
<Point>
<coordinates>136.23313903808594,35.49551010131836,0</coordinates>
</Point>
</Placemark>
<Placemark>
<name>井明神</name>
<description></description>
<Point>
<coordinates>136.2503662109375,35.500091552734375,0</coordinates>
</Point>
</Placemark>
<Placemark>
<name>古橋</name>
<description></description>
<Point>
<coordinates>136.25096130371094,35.505409240722656,0</coordinates>
</Point>
</Placemark>
<Placemark>
<name>高時保育園</name>
<description></description>
<Point>
<coordinates>136.2495880126953,35.51419448852539,0</coordinates>
</Point>
</Placemark>
<Placemark>
<name>川合（金居原線）</name>
<description></description>
<Point>
<coordinates>136.2496795654297,35.516822814941406,0</coordinates>
</Point>
</Placemark>
<Placemark>
<name>音羽（金居原線）</name>
<description></description>
<Point>
<coordinates>136.25364685058594,35.54385757446289,0</coordinates>
</Point>
</Placemark>
<Placemark>
<name>杉本</name>
<description></description>
<Point>
<coordinates>136.25155639648438,35.55687713623047,0</coordinates>
</Point>
</Placemark>
<Placemark>
<name>杉野農協前</name>
<description></description>
<Point>
<coordinates>136.2604522705078,35.56266784667969,0</coordinates>
</Point>
</Placemark>
<Placemark>
<name>杉野</name>
<description></description>
<Point>
<coordinates>136.262451171875,35.56324768066406,0</coordinates>
</Point>
</Placemark>
<Placemark>
<name>杉野学校前</name>
<description></description>
<Point>
<coordinates>136.2675018310547,35.56932830810547,0</coordinates>
</Point>
</Placemark>
<Placemark>
<name>サソラ口</name>
<description></description>
<Point>
<coordinates>136.28042602539062,35.572242736816406,0</coordinates>
</Point>
</Placemark>
<Placemark>
<name>金居原口</name>
<description></description>
<Point>
<coordinates>136.2843017578125,35.57463455200195,0</coordinates>
</Point>
</Placemark>
<Placemark>
<name>金居原中</name>
<description></description>
<Point>
<coordinates>136.28466796875,35.576377868652344,0</coordinates>
</Point>
</Placemark>
<Placemark>
<name>金居原</name>
<description></description>
<Point>
<coordinates>136.2852020263672,35.57717514038086,0</coordinates>
</Point>
</Placemark>
<Placemark>
<name>野坂口</name>
<description></description>
<Point>
<coordinates>136.1568145751953,35.52885437011719,0</coordinates>
</Point>
</Placemark>
<Placemark>
<name>塩津学校前</name>
<description></description>
<Point>
<coordinates>136.1555633544922,35.53063201904297,0</coordinates>
</Point>
</Placemark>
<Placemark>
<name>塩津駅前</name>
<description></description>
<Point>
<coordinates>136.15061950683594,35.5397834777832,0</coordinates>
</Point>
</Placemark>
<Placemark>
<name>集福寺</name>
<description></description>
<Point>
<coordinates>136.14710998535156,35.55034637451172,0</coordinates>
</Point>
</Placemark>
<Placemark>
<name>下沓掛</name>
<description></description>
<Point>
<coordinates>136.14077758789062,35.55317687988281,0</coordinates>
</Point>
</Placemark>
<Placemark>
<name>沓掛</name>
<description></description>
<Point>
<coordinates>136.13580322265625,35.556175231933594,0</coordinates>
</Point>
</Placemark>
<Placemark>
<name>上沓掛</name>
<description></description>
<Point>
<coordinates>136.1287384033203,35.56219482421875,0</coordinates>
</Point>
</Placemark>
<Placemark>
<name>近江鶴ケ丘</name>
<description></description>
<Point>
<coordinates>136.12281799316406,35.57493591308594,0</coordinates>
</Point>
</Placemark>
<Placemark>
<name>河毛駅</name>
<description></description>
<Point>
<coordinates>136.25009155273438,35.44809341430664,0</coordinates>
</Point>
</Placemark>
<Placemark>
<name>湖北町役場前</name>
<description></description>
<Point>
<coordinates>136.24302673339844,35.44707489013672,0</coordinates>
</Point>
</Placemark>
<Placemark>
<name>速水北</name>
<description></description>
<Point>
<coordinates>136.24168395996094,35.44921875,0</coordinates>
</Point>
</Placemark>
<Placemark>
<name>湖北郵便局前</name>
<description></description>
<Point>
<coordinates>136.23805236816406,35.44904708862305,0</coordinates>
</Point>
</Placemark>
<Placemark>
<name>八日市</name>
<description></description>
<Point>
<coordinates>136.24212646484375,35.455421447753906,0</coordinates>
</Point>
</Placemark>
<Placemark>
<name>平和堂前</name>
<description></description>
<Point>
<coordinates>136.23866271972656,35.45750045776367,0</coordinates>
</Point>
</Placemark>
<Placemark>
<name>猫口</name>
<description></description>
<Point>
<coordinates>136.2322998046875,35.45610046386719,0</coordinates>
</Point>
</Placemark>
<Placemark>
<name>沢</name>
<description></description>
<Point>
<coordinates>136.23008728027344,35.45333480834961,0</coordinates>
</Point>
</Placemark>
<Placemark>
<name>今</name>
<description></description>
<Point>
<coordinates>136.22866821289062,35.450252532958984,0</coordinates>
</Point>
</Placemark>
<Placemark>
<name>年久</name>
<description></description>
<Point>
<coordinates>136.2294158935547,35.447208404541016,0</coordinates>
</Point>
</Placemark>
<Placemark>
<name>大光寺口</name>
<description></description>
<Point>
<coordinates>136.22547912597656,35.446372985839844,0</coordinates>
</Point>
</Placemark>
<Placemark>
<name>五坪</name>
<description></description>
<Point>
<coordinates>136.22091674804688,35.44533157348633,0</coordinates>
</Point>
</Placemark>
<Placemark>
<name>山本三条橋</name>
<description></description>
<Point>
<coordinates>136.21449279785156,35.44340133666992,0</coordinates>
</Point>
</Placemark>
<Placemark>
<name>山本五条橋</name>
<description></description>
<Point>
<coordinates>136.2124481201172,35.44293975830078,0</coordinates>
</Point>
</Placemark>
<Placemark>
<name>山本山登山口</name>
<description></description>
<Point>
<coordinates>136.2035675048828,35.444427490234375,0</coordinates>
</Point>
</Placemark>
<Placemark>
<name>石川</name>
<description></description>
<Point>
<coordinates>136.19969177246094,35.45367431640625,0</coordinates>
</Point>
</Placemark>
<Placemark>
<name>東尾上</name>
<description></description>
<Point>
<coordinates>136.193115234375,35.44984436035156,0</coordinates>
</Point>
</Placemark>
<Placemark>
<name>尾上</name>
<description></description>
<Point>
<coordinates>136.1908721923828,35.44895935058594,0</coordinates>
</Point>
</Placemark>
<Placemark>
<name>水鳥ステーション</name>
<description></description>
<Point>
<coordinates>136.19082641601562,35.44533157348633,0</coordinates>
</Point>
</Placemark>
<Placemark>
<name>湖北野鳥センター</name>
<description></description>
<Point>
<coordinates>136.19044494628906,35.44697570800781,0</coordinates>
</Point>
</Placemark>
<Placemark>
<name>津里</name>
<description></description>
<Point>
<coordinates>136.20181274414062,35.4437255859375,0</coordinates>
</Point>
</Placemark>
<Placemark>
<name>今西</name>
<description></description>
<Point>
<coordinates>136.20562744140625,35.44035339355469,0</coordinates>
</Point>
</Placemark>
<Placemark>
<name>延勝寺口</name>
<description></description>
<Point>
<coordinates>136.20643615722656,35.43778991699219,0</coordinates>
</Point>
</Placemark>
<Placemark>
<name>海老江口</name>
<description></description>
<Point>
<coordinates>136.2090301513672,35.43093490600586,0</coordinates>
</Point>
</Placemark>
<Placemark>
<name>田中口</name>
<description></description>
<Point>
<coordinates>136.2209930419922,35.43305206298828,0</coordinates>
</Point>
</Placemark>
<Placemark>
<name>南速水</name>
<description></description>
<Point>
<coordinates>136.23297119140625,35.43464279174805,0</coordinates>
</Point>
</Placemark>
<Placemark>
<name>小倉</name>
<description></description>
<Point>
<coordinates>136.24180603027344,35.4375114440918,0</coordinates>
</Point>
</Placemark>
<Placemark>
<name>国道小倉</name>
<description></description>
<Point>
<coordinates>136.24180603027344,35.4375114440918,0</coordinates>
</Point>
</Placemark>
<Placemark>
<name>国道速水</name>
<description></description>
<Point>
<coordinates>136.240966796875,35.44588088989258,0</coordinates>
</Point>
</Placemark>
<Placemark>
<name>八日市</name>
<description></description>
<Point>
<coordinates>136.2365264892578,35.45701217651367,0</coordinates>
</Point>
</Placemark>
<Placemark>
<name>青名</name>
<description></description>
<Point>
<coordinates>136.23890686035156,35.45336151123047,0</coordinates>
</Point>
</Placemark>
<Placemark>
<name>大光寺</name>
<description></description>
<Point>
<coordinates>136.22547912597656,35.446372985839844,0</coordinates>
</Point>
</Placemark>
<Placemark>
<name>山本</name>
<description></description>
<Point>
<coordinates>136.21449279785156,35.44340133666992,0</coordinates>
</Point>
</Placemark>
<Placemark>
<name>延勝寺</name>
<description></description>
<Point>
<coordinates>136.20396423339844,35.43766403198242,0</coordinates>
</Point>
</Placemark>
<Placemark>
<name>海老江</name>
<description></description>
<Point>
<coordinates>136.2090301513672,35.43093490600586,0</coordinates>
</Point>
</Placemark>
<Placemark>
<name>田中</name>
<description></description>
<Point>
<coordinates>136.2209930419922,35.43305206298828,0</coordinates>
</Point>
</Placemark>
<Placemark>
<name>大安寺</name>
<description></description>
<Point>
<coordinates>136.2335205078125,35.43184280395508,0</coordinates>
</Point>
</Placemark>
<Placemark>
<name>高田</name>
<description></description>
<Point>
<coordinates>136.24124145507812,35.44212341308594,0</coordinates>
</Point>
</Placemark>
<Placemark>
<name>湖北町役場</name>
<description></description>
<Point>
<coordinates>136.24302673339844,35.44707489013672,0</coordinates>
</Point>
</Placemark>
<Placemark>
<name>丁野中</name>
<description></description>
<Point>
<coordinates>136.25338745117188,35.460689544677734,0</coordinates>
</Point>
</Placemark>
<Placemark>
<name>丁野南</name>
<description></description>
<Point>
<coordinates>136.25474548339844,35.457763671875,0</coordinates>
</Point>
</Placemark>
<Placemark>
<name>丁野茶屋</name>
<description></description>
<Point>
<coordinates>136.2576446533203,35.461605072021484,0</coordinates>
</Point>
</Placemark>
<Placemark>
<name>上山田</name>
<description></description>
<Point>
<coordinates>136.2664031982422,35.4747314453125,0</coordinates>
</Point>
</Placemark>
<Placemark>
<name>下山田</name>
<description></description>
<Point>
<coordinates>136.2587432861328,35.47018051147461,0</coordinates>
</Point>
</Placemark>
<Placemark>
<name>美濃山</name>
<description></description>
<Point>
<coordinates>136.2628936767578,35.45635223388672,0</coordinates>
</Point>
</Placemark>
<Placemark>
<name>郡上</name>
<description></description>
<Point>
<coordinates>136.26551818847656,35.45220947265625,0</coordinates>
</Point>
</Placemark>
<Placemark>
<name>歴史資料館</name>
<description></description>
<Point>
<coordinates>136.26980590820312,35.45257568359375,0</coordinates>
</Point>
</Placemark>
<Placemark>
<name>留目口</name>
<description></description>
<Point>
<coordinates>136.27073669433594,35.44459533691406,0</coordinates>
</Point>
</Placemark>
<Placemark>
<name>伊部</name>
<description></description>
<Point>
<coordinates>136.27383422851562,35.445194244384766,0</coordinates>
</Point>
</Placemark>
<Placemark>
<name>小谷城址口</name>
<description></description>
<Point>
<coordinates>136.27349853515625,35.447505950927734,0</coordinates>
</Point>
</Placemark>
<Placemark>
<name>国道馬渡</name>
<description></description>
<Point>
<coordinates>136.2447967529297,35.429779052734375,0</coordinates>
</Point>
</Placemark>
<Placemark>
<name>小今</name>
<description></description>
<Point>
<coordinates>136.2494659423828,35.43224334716797,0</coordinates>
</Point>
</Placemark>
<Placemark>
<name>賀</name>
<description></description>
<Point>
<coordinates>136.24777221679688,35.43626403808594,0</coordinates>
</Point>
</Placemark>
<Placemark>
<name>伊部</name>
<description></description>
<Point>
<coordinates>136.27406311035156,35.44585418701172,0</coordinates>
</Point>
</Placemark>
<Placemark>
<name>馬渡</name>
<description></description>
<Point>
<coordinates>136.24185180664062,35.431400299072266,0</coordinates>
</Point>
</Placemark>
<Placemark>
<name>別所</name>
<description></description>
<Point>
<coordinates>136.26837158203125,35.442440032958984,0</coordinates>
</Point>
</Placemark>
<Placemark>
<name>留目</name>
<description></description>
<Point>
<coordinates>136.27122497558594,35.442779541015625,0</coordinates>
</Point>
</Placemark>
<Placemark>
<name>湖北郵便局</name>
<description></description>
<Point>
<coordinates>136.23805236816406,35.44904708862305,0</coordinates>
</Point>
</Placemark>
<Placemark>
<name>永原駅・西浅井支所・永原診療所</name>
<description></description>
<Point>
<coordinates>136.1224365234375,35.49677276611328,0</coordinates>
</Point>
</Placemark>
<Placemark>
<name>月出会館</name>
<description></description>
<Point>
<coordinates>136.15896606445312,35.495704650878906,0</coordinates>
</Point>
</Placemark>
<Placemark>
<name>保健センター・塩津診療所</name>
<description></description>
<Point>
<coordinates>136.1607208251953,35.5245361328125,0</coordinates>
</Point>
</Placemark>
<Placemark>
<name>八田部センター</name>
<description></description>
<Point>
<coordinates>136.146484375,35.50322341918945,0</coordinates>
</Point>
</Placemark>
<Placemark>
<name>山田公民館</name>
<description></description>
<Point>
<coordinates>136.1450958251953,35.49373245239258,0</coordinates>
</Point>
</Placemark>
<Placemark>
<name>小山会館</name>
<description></description>
<Point>
<coordinates>136.1351776123047,35.496604919433594,0</coordinates>
</Point>
</Placemark>
<Placemark>
<name>大浦地区公民館</name>
<description></description>
<Point>
<coordinates>136.12222290039062,35.487945556640625,0</coordinates>
</Point>
</Placemark>
<Placemark>
<name>山門地区公民館</name>
<description></description>
<Point>
<coordinates>136.12240600585938,35.52069854736328,0</coordinates>
</Point>
</Placemark>
<Placemark>
<name>庄センター</name>
<description></description>
<Point>
<coordinates>136.1201934814453,35.511436462402344,0</coordinates>
</Point>
</Placemark>
<Placemark>
<name>黒山会館</name>
<description></description>
<Point>
<coordinates>136.1132354736328,35.49958801269531,0</coordinates>
</Point>
</Placemark>
<Placemark>
<name>山門水源の森</name>
<description></description>
<Point>
<coordinates>136.12684631347656,35.55563735961914,0</coordinates>
</Point>
</Placemark>
<Placemark>
<name>沓掛会館</name>
<description></description>
<Point>
<coordinates>136.13580322265625,35.556175231933594,0</coordinates>
</Point>
</Placemark>
<Placemark>
<name>集福寺会館</name>
<description></description>
<Point>
<coordinates>136.14710998535156,35.55034637451172,0</coordinates>
</Point>
</Placemark>
<Placemark>
<name>近江塩津駅</name>
<description></description>
<Point>
<coordinates>136.15061950683594,35.5397834777832,0</coordinates>
</Point>
</Placemark>
<Placemark>
<name>余南自治会</name>
<description></description>
<Point>
<coordinates>136.1525421142578,35.53502655029297,0</coordinates>
</Point>
</Placemark>
<Placemark>
<name>横波公民館</name>
<description></description>
<Point>
<coordinates>136.14486694335938,35.5306510925293,0</coordinates>
</Point>
</Placemark>
<Placemark>
<name>岩熊センター</name>
<description></description>
<Point>
<coordinates>136.1522979736328,35.515541076660156,0</coordinates>
</Point>
</Placemark>
<Placemark>
<name>塩津浜地区公民館</name>
<description></description>
<Point>
<coordinates>136.1664276123047,35.514854431152344,0</coordinates>
</Point>
</Placemark>
<Placemark>
<name>西浅井郵便局</name>
<description></description>
<Point>
<coordinates>136.16314697265625,35.521461486816406,0</coordinates>
</Point>
</Placemark>
<Placemark>
<name>塩津小学校前バス停</name>
<description></description>
<Point>
<coordinates>136.1555633544922,35.53063201904297,0</coordinates>
</Point>
</Placemark>
<Placemark>
<name>野坂作業所前</name>
<description></description>
<Point>
<coordinates>136.1619110107422,35.528995513916016,0</coordinates>
</Point>
</Placemark>
<Placemark>
<name>祝山会館</name>
<description></description>
<Point>
<coordinates>136.1657257080078,35.52677536010742,0</coordinates>
</Point>
</Placemark>
<Placemark>
<name>高月駅西口</name>
<description></description>
<Point>
<coordinates>136.2367401123047,35.47199249267578,0</coordinates>
</Point>
</Placemark>
<Placemark>
<name>国道物部</name>
<description></description>
<Point>
<coordinates>136.23098754882812,35.480934143066406,0</coordinates>
</Point>
</Placemark>
<Placemark>
<name>北近江リゾート</name>
<description></description>
<Point>
<coordinates>136.22647094726562,35.48516082763672,0</coordinates>
</Point>
</Placemark>
<Placemark>
<name>池原</name>
<description></description>
<Point>
<coordinates>136.18304443359375,35.55796432495117,0</coordinates>
</Point>
</Placemark>
<Placemark>
<name>新堂</name>
<description></description>
<Point>
<coordinates>136.19268798828125,35.56040573120117,0</coordinates>
</Point>
</Placemark>
<Placemark>
<name>国安</name>
<description></description>
<Point>
<coordinates>136.19004821777344,35.55091094970703,0</coordinates>
</Point>
</Placemark>
<Placemark>
<name>文室</name>
<description></description>
<Point>
<coordinates>136.1778564453125,35.53731155395508,0</coordinates>
</Point>
</Placemark>
<Placemark>
<name>八戸</name>
<description></description>
<Point>
<coordinates>136.19332885742188,35.53539276123047,0</coordinates>
</Point>
</Placemark>
<Placemark>
<name>川並</name>
<description></description>
<Point>
<coordinates>136.18658447265625,35.52742385864258,0</coordinates>
</Point>
</Placemark>
<Placemark>
<name>余呉駅</name>
<description></description>
<Point>
<coordinates>136.19781494140625,35.53201675415039,0</coordinates>
</Point>
</Placemark>
<Placemark>
<name>中之郷</name>
<description></description>
<Point>
<coordinates>136.20608520507812,35.5419921875,0</coordinates>
</Point>
</Placemark>
<Placemark>
<name>今市</name>
<description></description>
<Point>
<coordinates>136.195068359375,35.560733795166016,0</coordinates>
</Point>
</Placemark>
<Placemark>
<name>旧片岡小学校</name>
<description></description>
<Point>
<coordinates>136.19635009765625,35.556880950927734,0</coordinates>
</Point>
</Placemark>
<Placemark>
<name>東野</name>
<description></description>
<Point>
<coordinates>136.19857788085938,35.55349349975586,0</coordinates>
</Point>
</Placemark>
<Placemark>
<name>余呉幼児園</name>
<description></description>
<Point>
<coordinates>136.2007598876953,35.5502815246582,0</coordinates>
</Point>
</Placemark>
<Placemark>
<name>鏡岡中学校</name>
<description></description>
<Point>
<coordinates>136.2039794921875,35.545501708984375,0</coordinates>
</Point>
</Placemark>
<Placemark>
<name>下余呉</name>
<description></description>
<Point>
<coordinates>136.20809936523438,35.53319549560547,0</coordinates>
</Point>
</Placemark>
<Placemark>
<name>下余呉南</name>
<description></description>
<Point>
<coordinates>136.21041870117188,35.530487060546875,0</coordinates>
</Point>
</Placemark>
<Placemark>
<name>坂口</name>
<description></description>
<Point>
<coordinates>136.2138214111328,35.52552032470703,0</coordinates>
</Point>
</Placemark>
<Placemark>
<name>ビジターセンター</name>
<description></description>
<Point>
<coordinates>136.1914825439453,35.5330696105957,0</coordinates>
</Point>
</Placemark>
<Placemark>
<name>摺墨</name>
<description></description>
<Point>
<coordinates>136.2193145751953,35.567115783691406,0</coordinates>
</Point>
</Placemark>
<Placemark>
<name>茶碗祭りの館</name>
<description></description>
<Point>
<coordinates>136.2301025390625,35.565269470214844,0</coordinates>
</Point>
</Placemark>
<Placemark>
<name>上丹生</name>
<description></description>
<Point>
<coordinates>136.2286834716797,35.567264556884766,0</coordinates>
</Point>
</Placemark>
<Placemark>
<name>橋本</name>
<description></description>
<Point>
<coordinates>136.23138427734375,35.563358306884766,0</coordinates>
</Point>
</Placemark>
<Placemark>
<name>下丹生</name>
<description></description>
<Point>
<coordinates>136.22787475585938,35.55500793457031,0</coordinates>
</Point>
</Placemark>
<Placemark>
<name>ウッディパル</name>
<description></description>
<Point>
<coordinates>136.21949768066406,35.54777526855469,0</coordinates>
</Point>
</Placemark>
<Placemark>
<name>中河内</name>
<description></description>
<Point>
<coordinates>136.1586456298828,35.6654052734375,0</coordinates>
</Point>
</Placemark>
<Placemark>
<name>椿坂</name>
<description></description>
<Point>
<coordinates>136.173583984375,35.613555908203125,0</coordinates>
</Point>
</Placemark>
<Placemark>
<name>雁ヶ谷</name>
<description></description>
<Point>
<coordinates>136.1807861328125,35.60116195678711,0</coordinates>
</Point>
</Placemark>
<Placemark>
<name>柳ヶ瀬</name>
<description></description>
<Point>
<coordinates>136.18907165527344,35.583805084228516,0</coordinates>
</Point>
</Placemark>
<Placemark>
<name>小谷</name>
<description></description>
<Point>
<coordinates>136.19241333007812,35.573814392089844,0</coordinates>
</Point>
</Placemark>
<Placemark>
<name>余呉小学校</name>
<description></description>
<Point>
<coordinates>136.20252990722656,35.55009078979492,0</coordinates>
</Point>
</Placemark>
<Placemark>
<name>中之郷銀行前</name>
<description></description>
<Point>
<coordinates>136.20599365234375,35.541297912597656,0</coordinates>
</Point>
</Placemark>
<Placemark>
<name>やまなみセンター</name>
<description></description>
<Point>
<coordinates>136.20562744140625,35.54294967651367,0</coordinates>
</Point>
</Placemark>
<Placemark>
<name>鏡岡中</name>
<description></description>
<Point>
<coordinates>136.2039794921875,35.545501708984375,0</coordinates>
</Point>
</Placemark>
<Placemark>
<name>JA下余呉支店</name>
<description></description>
<Point>
<coordinates>136.21060180664062,35.53413009643555,0</coordinates>
</Point>
</Placemark>
<Placemark>
<name>新堂草の根会館</name>
<description></description>
<Point>
<coordinates>136.19268798828125,35.56040573120117,0</coordinates>
</Point>
</Placemark>
<Placemark>
<name>洞寿院</name>
<description></description>
<Point>
<coordinates>136.22569274902344,35.59754180908203,0</coordinates>
</Point>
</Placemark>
<Placemark>
<name>菅並</name>
<description></description>
<Point>
<coordinates>136.22959899902344,35.595096588134766,0</coordinates>
</Point>
</Placemark>
<Placemark>
<name>菅並東</name>
<description></description>
<Point>
<coordinates>136.2332000732422,35.592689514160156,0</coordinates>
</Point>
</Placemark>
<Placemark>
<name>上丹生茶碗祭りの館</name>
<description></description>
<Point>
<coordinates>136.2286834716797,35.567264556884766,0</coordinates>
</Point>
</Placemark>
<Placemark>
<name>中之郷東</name>
<description></description>
<Point>
<coordinates>136.2079315185547,35.54329299926758,0</coordinates>
</Point>
</Placemark>
<Placemark>
<name>茶わん祭の館</name>
<description></description>
<Point>
<coordinates>136.2301025390625,35.565269470214844,0</coordinates>
</Point>
</Placemark>
<Placemark>
<name>浅井町役場前</name>
<description></description>
<Point>
<coordinates>136.2981719970703,35.42800521850586,0</coordinates>
</Point>
</Placemark>
<Placemark>
<name>嶋田ファミリークリニック</name>
<description></description>
<Point>
<coordinates>136.30084228515625,35.42827606201172,0</coordinates>
</Point>
</Placemark>
<Placemark>
<name>小山内歯科医院</name>
<description></description>
<Point>
<coordinates>136.30422973632812,35.42870330810547,0</coordinates>
</Point>
</Placemark>
<Placemark>
<name>プラザふくらの森</name>
<description></description>
<Point>
<coordinates>136.30499267578125,35.42972183227539,0</coordinates>
</Point>
</Placemark>
<Placemark>
<name>総合福祉センター</name>
<description></description>
<Point>
<coordinates>136.30027770996094,35.43208694458008,0</coordinates>
</Point>
</Placemark>
<Placemark>
<name>野上</name>
<description></description>
<Point>
<coordinates>136.3010711669922,35.433570861816406,0</coordinates>
</Point>
</Placemark>
<Placemark>
<name>湯田公民館</name>
<description></description>
<Point>
<coordinates>136.2955780029297,35.43204116821289,0</coordinates>
</Point>
</Placemark>
<Placemark>
<name>おしたにクリニック</name>
<description></description>
<Point>
<coordinates>136.2945556640625,35.429229736328125,0</coordinates>
</Point>
</Placemark>
<Placemark>
<name>浅井西郵便局</name>
<description></description>
<Point>
<coordinates>136.29563903808594,35.42765808105469,0</coordinates>
</Point>
</Placemark>
<Placemark>
<name>浅井歯科医院</name>
<description></description>
<Point>
<coordinates>136.29151916503906,35.42705154418945,0</coordinates>
</Point>
</Placemark>
<Placemark>
<name>内保南</name>
<description></description>
<Point>
<coordinates>136.29454040527344,35.427528381347656,0</coordinates>
</Point>
</Placemark>
<Placemark>
<name>内保西</name>
<description></description>
<Point>
<coordinates>136.28903198242188,35.42668151855469,0</coordinates>
</Point>
</Placemark>
<Placemark>
<name>尊野</name>
<description></description>
<Point>
<coordinates>136.28465270996094,35.43178176879883,0</coordinates>
</Point>
</Placemark>
<Placemark>
<name>平塚</name>
<description></description>
<Point>
<coordinates>136.2876434326172,35.43473815917969,0</coordinates>
</Point>
</Placemark>
<Placemark>
<name>西野</name>
<description></description>
<Point>
<coordinates>136.27597045898438,35.43610382080078,0</coordinates>
</Point>
</Placemark>
<Placemark>
<name>尊勝寺</name>
<description></description>
<Point>
<coordinates>136.28561401367188,35.43900680541992,0</coordinates>
</Point>
</Placemark>
<Placemark>
<name>山ノ前</name>
<description></description>
<Point>
<coordinates>136.27940368652344,35.441001892089844,0</coordinates>
</Point>
</Placemark>
<Placemark>
<name>須賀谷</name>
<description></description>
<Point>
<coordinates>136.28115844726562,35.45477294921875,0</coordinates>
</Point>
</Placemark>
<Placemark>
<name>田川</name>
<description></description>
<Point>
<coordinates>136.2858428955078,35.44450759887695,0</coordinates>
</Point>
</Placemark>
<Placemark>
<name>瓜生</name>
<description></description>
<Point>
<coordinates>136.28904724121094,35.45029830932617,0</coordinates>
</Point>
</Placemark>
<Placemark>
<name>田根公民館</name>
<description></description>
<Point>
<coordinates>136.29153442382812,35.45445251464844,0</coordinates>
</Point>
</Placemark>
<Placemark>
<name>高畑（浅井北郵便局）</name>
<description></description>
<Point>
<coordinates>136.29510498046875,35.45490646362305,0</coordinates>
</Point>
</Placemark>
<Placemark>
<name>浅井歯科診療所</name>
<description></description>
<Point>
<coordinates>136.29718017578125,35.4546012878418,0</coordinates>
</Point>
</Placemark>
<Placemark>
<name>池奥</name>
<description></description>
<Point>
<coordinates>136.286865234375,35.462257385253906,0</coordinates>
</Point>
</Placemark>
<Placemark>
<name>五先賢の館</name>
<description></description>
<Point>
<coordinates>136.29046630859375,35.45714569091797,0</coordinates>
</Point>
</Placemark>
<Placemark>
<name>谷口</name>
<description></description>
<Point>
<coordinates>136.2897186279297,35.4737434387207,0</coordinates>
</Point>
</Placemark>
<Placemark>
<name>北野</name>
<description></description>
<Point>
<coordinates>136.29393005371094,35.461177825927734,0</coordinates>
</Point>
</Placemark>
<Placemark>
<name>力丸</name>
<description></description>
<Point>
<coordinates>136.296630859375,35.45718002319336,0</coordinates>
</Point>
</Placemark>
<Placemark>
<name>野田</name>
<description></description>
<Point>
<coordinates>136.29969787597656,35.45549011230469,0</coordinates>
</Point>
</Placemark>
<Placemark>
<name>黒部</name>
<description></description>
<Point>
<coordinates>136.3001251220703,35.459693908691406,0</coordinates>
</Point>
</Placemark>
<Placemark>
<name>小室</name>
<description></description>
<Point>
<coordinates>136.30319213867188,35.456783294677734,0</coordinates>
</Point>
</Placemark>
<Placemark>
<name>健康パーク</name>
<description></description>
<Point>
<coordinates>136.3192596435547,35.46369552612305,0</coordinates>
</Point>
</Placemark>
<Placemark>
<name>上野</name>
<description></description>
<Point>
<coordinates>136.30722045898438,35.45347213745117,0</coordinates>
</Point>
</Placemark>
<Placemark>
<name>木尾</name>
<description></description>
<Point>
<coordinates>136.3064422607422,35.44634246826172,0</coordinates>
</Point>
</Placemark>
<Placemark>
<name>南木尾</name>
<description></description>
<Point>
<coordinates>136.29977416992188,35.439273834228516,0</coordinates>
</Point>
</Placemark>
<Placemark>
<name>八島北</name>
<description></description>
<Point>
<coordinates>136.293701171875,35.43657684326172,0</coordinates>
</Point>
</Placemark>
<Placemark>
<name>八島南</name>
<description></description>
<Point>
<coordinates>136.29466247558594,35.43483352661133,0</coordinates>
</Point>
</Placemark>
<Placemark>
<name>大依</name>
<description></description>
<Point>
<coordinates>136.30630493164062,35.43346405029297,0</coordinates>
</Point>
</Placemark>
<Placemark>
<name>文化スポーツ公園</name>
<description></description>
<Point>
<coordinates>136.31150817871094,35.43366241455078,0</coordinates>
</Point>
</Placemark>
<Placemark>
<name>乗倉</name>
<description></description>
<Point>
<coordinates>136.31851196289062,35.43955612182617,0</coordinates>
</Point>
</Placemark>
<Placemark>
<name>大門</name>
<description></description>
<Point>
<coordinates>136.3242645263672,35.43812561035156,0</coordinates>
</Point>
</Placemark>
<Placemark>
<name>当目</name>
<description></description>
<Point>
<coordinates>136.3277587890625,35.44050979614258,0</coordinates>
</Point>
</Placemark>
<Placemark>
<name>飯山</name>
<description></description>
<Point>
<coordinates>136.33180236816406,35.44118881225586,0</coordinates>
</Point>
</Placemark>
<Placemark>
<name>東野</name>
<description></description>
<Point>
<coordinates>136.33338928222656,35.43511962890625,0</coordinates>
</Point>
</Placemark>
<Placemark>
<name>小野寺</name>
<description></description>
<Point>
<coordinates>136.33538818359375,35.43095397949219,0</coordinates>
</Point>
</Placemark>
<Placemark>
<name>浅井高原</name>
<description></description>
<Point>
<coordinates>136.3326873779297,35.42697525024414,0</coordinates>
</Point>
</Placemark>
<Placemark>
<name>法楽寺</name>
<description></description>
<Point>
<coordinates>136.33253479003906,35.42381286621094,0</coordinates>
</Point>
</Placemark>
<Placemark>
<name>北池</name>
<description></description>
<Point>
<coordinates>136.33494567871094,35.421409606933594,0</coordinates>
</Point>
</Placemark>
<Placemark>
<name>南池</name>
<description></description>
<Point>
<coordinates>136.3331756591797,35.41682434082031,0</coordinates>
</Point>
</Placemark>
<Placemark>
<name>デイサービスセンター</name>
<description></description>
<Point>
<coordinates>136.33897399902344,35.41465377807617,0</coordinates>
</Point>
</Placemark>
<Placemark>
<name>相撲庭東</name>
<description></description>
<Point>
<coordinates>136.34088134765625,35.40827178955078,0</coordinates>
</Point>
</Placemark>
<Placemark>
<name>相撲庭西</name>
<description></description>
<Point>
<coordinates>136.3378448486328,35.40925598144531,0</coordinates>
</Point>
</Placemark>
<Placemark>
<name>今荘</name>
<description></description>
<Point>
<coordinates>136.33554077148438,35.41090774536133,0</coordinates>
</Point>
</Placemark>
<Placemark>
<name>今庄橋口</name>
<description></description>
<Point>
<coordinates>136.33126831054688,35.40859603881836,0</coordinates>
</Point>
</Placemark>
<Placemark>
<name>小学校口</name>
<description></description>
<Point>
<coordinates>136.33323669433594,35.413814544677734,0</coordinates>
</Point>
</Placemark>
<Placemark>
<name>七尾公民館</name>
<description></description>
<Point>
<coordinates>136.33192443847656,35.41516876220703,0</coordinates>
</Point>
</Placemark>
<Placemark>
<name>野村南</name>
<description></description>
<Point>
<coordinates>136.3210906982422,35.41807174682617,0</coordinates>
</Point>
</Placemark>
<Placemark>
<name>浅井郵便局</name>
<description></description>
<Point>
<coordinates>136.3205108642578,35.4202880859375,0</coordinates>
</Point>
</Placemark>
<Placemark>
<name>三田南</name>
<description></description>
<Point>
<coordinates>136.30950927734375,35.41549301147461,0</coordinates>
</Point>
</Placemark>
<Placemark>
<name>三田北</name>
<description></description>
<Point>
<coordinates>136.30723571777344,35.41907501220703,0</coordinates>
</Point>
</Placemark>
<Placemark>
<name>養護学校</name>
<description></description>
<Point>
<coordinates>136.2987060546875,35.41301345825195,0</coordinates>
</Point>
</Placemark>
<Placemark>
<name>大路南</name>
<description></description>
<Point>
<coordinates>136.30364990234375,35.41865158081055,0</coordinates>
</Point>
</Placemark>
<Placemark>
<name>大路北</name>
<description></description>
<Point>
<coordinates>136.29910278320312,35.4243049621582,0</coordinates>
</Point>
</Placemark>
<Placemark>
<name>中瀬</name>
<description></description>
<Point>
<coordinates>136.29827880859375,35.425594329833984,0</coordinates>
</Point>
</Placemark>
<Placemark>
<name>城山歯科医院</name>
<description></description>
<Point>
<coordinates>136.31175231933594,35.426578521728516,0</coordinates>
</Point>
</Placemark>
<Placemark>
<name>浅井診療所</name>
<description></description>
<Point>
<coordinates>136.32591247558594,35.43279266357422,0</coordinates>
</Point>
</Placemark>
<Placemark>
<name>下草野公民館</name>
<description></description>
<Point>
<coordinates>136.32974243164062,35.43362045288086,0</coordinates>
</Point>
</Placemark>
<Placemark>
<name>浅井高原上</name>
<description></description>
<Point>
<coordinates>136.3368682861328,35.42698669433594,0</coordinates>
</Point>
</Placemark>
<Placemark>
<name>保健センター</name>
<description></description>
<Point>
<coordinates>136.22137451171875,35.503414154052734,0</coordinates>
</Point>
</Placemark>
<Placemark>
<name>黒田</name>
<description></description>
<Point>
<coordinates>136.21627807617188,35.51271438598633,0</coordinates>
</Point>
</Placemark>
<Placemark>
<name>大沢</name>
<description></description>
<Point>
<coordinates>136.2106170654297,35.512969970703125,0</coordinates>
</Point>
</Placemark>
<Placemark>
<name>西黒田</name>
<description></description>
<Point>
<coordinates>136.2088165283203,35.50876998901367,0</coordinates>
</Point>
</Placemark>
<Placemark>
<name>北布施</name>
<description></description>
<Point>
<coordinates>136.2033233642578,35.49025344848633,0</coordinates>
</Point>
</Placemark>
<Placemark>
<name>赤尾</name>
<description></description>
<Point>
<coordinates>136.20388793945312,35.48619842529297,0</coordinates>
</Point>
</Placemark>
<Placemark>
<name>大見いこいの広場</name>
<description></description>
<Point>
<coordinates>136.23825073242188,35.533721923828125,0</coordinates>
</Point>
</Placemark>
<Placemark>
<name>大見口</name>
<description></description>
<Point>
<coordinates>136.2429962158203,35.52959442138672,0</coordinates>
</Point>
</Placemark>
<Placemark>
<name>西黒田公民館</name>
<description></description>
<Point>
<coordinates>136.31427001953125,35.36997604370117,0</coordinates>
</Point>
</Placemark>
<Placemark>
<name>八条</name>
<description></description>
<Point>
<coordinates>136.31739807128906,35.383487701416016,0</coordinates>
</Point>
</Placemark>
<Placemark>
<name>鳥羽上北</name>
<description></description>
<Point>
<coordinates>136.32858276367188,35.37433624267578,0</coordinates>
</Point>
</Placemark>
<Placemark>
<name>鳥羽上南</name>
<description></description>
<Point>
<coordinates>136.3267822265625,35.37007141113281,0</coordinates>
</Point>
</Placemark>
<Placemark>
<name>常喜新</name>
<description></description>
<Point>
<coordinates>136.3163299560547,35.37065505981445,0</coordinates>
</Point>
</Placemark>
<Placemark>
<name>本庄新</name>
<description></description>
<Point>
<coordinates>136.3116912841797,35.37221908569336,0</coordinates>
</Point>
</Placemark>
<Placemark>
<name>本庄</name>
<description></description>
<Point>
<coordinates>136.30880737304688,35.37210464477539,0</coordinates>
</Point>
</Placemark>
<Placemark>
<name>常喜</name>
<description></description>
<Point>
<coordinates>136.31248474121094,35.36929702758789,0</coordinates>
</Point>
</Placemark>