<?xml version="1.0" encoding="UTF-8"?>
<kml xmlns="http://www.opengis.net/kml/2.2">
<Document>
<name><![CDATA[バス停 : 福岡]]></name>
<Folder>
<name>Placemarks</name>
<Placemark>
<name>黒崎IC（引野口）</name>
<description></description>
<Point>
<coordinates>130.75894165039062,33.841651916503906,0</coordinates>
</Point>
</Placemark>
<Placemark>
<name>小倉（砂津）</name>
<description></description>
<Point>
<coordinates>130.88888549804688,33.88264846801758,0</coordinates>
</Point>
</Placemark>
<Placemark>
<name>小倉駅前</name>
<description></description>
<Point>
<coordinates>130.88330078125,33.883644104003906,0</coordinates>
</Point>
</Placemark>
<Placemark>
<name>高速門司港</name>
<description></description>
<Point>
<coordinates>130.9781036376953,33.95479202270508,0</coordinates>
</Point>
</Placemark>
<Placemark>
<name>小倉駅</name>
<description></description>
<Point>
<coordinates>130.8737030029297,33.88823318481445,0</coordinates>
</Point>
</Placemark>
<Placemark>
<name>博多駅</name>
<description></description>
<Point>
<coordinates>130.41888427734375,33.590057373046875,0</coordinates>
</Point>
</Placemark>
<Placemark>
<name>高速門司港</name>
<description></description>
<Point>
<coordinates>130.9639434814453,33.958953857421875,0</coordinates>
</Point>
</Placemark>
<Placemark>
<name>高速門司港（高速道）</name>
<description></description>
<Point>
<coordinates>130.97579956054688,33.954105377197266,0</coordinates>
</Point>
</Placemark>
<Placemark>
<name>小倉駅前</name>
<description></description>
<Point>
<coordinates>130.87338256835938,33.88692092895508,0</coordinates>
</Point>
</Placemark>
<Placemark>
<name>博多ターミナル</name>
<description></description>
<Point>
<coordinates>130.41888427734375,33.590057373046875,0</coordinates>
</Point>
</Placemark>
<Placemark>
<name>役場</name>
<description></description>
<Point>
<coordinates>130.85450744628906,33.57206726074219,0</coordinates>
</Point>
</Placemark>
<Placemark>
<name>郵便局横</name>
<description></description>
<Point>
<coordinates>130.85789489746094,33.57157897949219,0</coordinates>
</Point>
</Placemark>
<Placemark>
<name>添田小学校口</name>
<description></description>
<Point>
<coordinates>130.85984802246094,33.568058013916016,0</coordinates>
</Point>
</Placemark>
<Placemark>
<name>中鶴橋</name>
<description></description>
<Point>
<coordinates>130.85585021972656,33.56313705444336,0</coordinates>
</Point>
</Placemark>
<Placemark>
<name>上庄</name>
<description></description>
<Point>
<coordinates>130.8508758544922,33.55508804321289,0</coordinates>
</Point>
</Placemark>
<Placemark>
<name>奥の迫口</name>
<description></description>
<Point>
<coordinates>130.84210205078125,33.55177688598633,0</coordinates>
</Point>
</Placemark>
<Placemark>
<name>中津橋</name>
<description></description>
<Point>
<coordinates>130.83901977539062,33.5570182800293,0</coordinates>
</Point>
</Placemark>
<Placemark>
<name>猿渡</name>
<description></description>
<Point>
<coordinates>130.83563232421875,33.56165313720703,0</coordinates>
</Point>
</Placemark>
<Placemark>
<name>馬場</name>
<description></description>
<Point>
<coordinates>130.84803771972656,33.54271697998047,0</coordinates>
</Point>
</Placemark>
<Placemark>
<name>英彦山病院口</name>
<description></description>
<Point>
<coordinates>130.8588409423828,33.539859771728516,0</coordinates>
</Point>
</Placemark>
<Placemark>
<name>上添田</name>
<description></description>
<Point>
<coordinates>130.8617401123047,33.565025329589844,0</coordinates>
</Point>
</Placemark>
<Placemark>
<name>山の神</name>
<description></description>
<Point>
<coordinates>130.8786163330078,33.548011779785156,0</coordinates>
</Point>
</Placemark>
<Placemark>
<name>牟田口</name>
<description></description>
<Point>
<coordinates>130.89114379882812,33.5346794128418,0</coordinates>
</Point>
</Placemark>
<Placemark>
<name>神田</name>
<description></description>
<Point>
<coordinates>130.89593505859375,33.52992630004883,0</coordinates>
</Point>
</Placemark>
<Placemark>
<name>惣仏口</name>
<description></description>
<Point>
<coordinates>130.9106903076172,33.51338195800781,0</coordinates>
</Point>
</Placemark>
<Placemark>
<name>山口</name>
<description></description>
<Point>
<coordinates>130.9217071533203,33.512271881103516,0</coordinates>
</Point>
</Placemark>
<Placemark>
<name>津野学校前</name>
<description></description>
<Point>
<coordinates>130.90240478515625,33.53746032714844,0</coordinates>
</Point>
</Placemark>
<Placemark>
<name>津野支所</name>
<description></description>
<Point>
<coordinates>130.9029083251953,33.53921127319336,0</coordinates>
</Point>
</Placemark>
<Placemark>
<name>荒堀</name>
<description></description>
<Point>
<coordinates>130.90151977539062,33.55126190185547,0</coordinates>
</Point>
</Placemark>
<Placemark>
<name>下井</name>
<description></description>
<Point>
<coordinates>130.88453674316406,33.574676513671875,0</coordinates>
</Point>
</Placemark>
<Placemark>
<name>松平</name>
<description></description>
<Point>
<coordinates>130.91677856445312,33.517738342285156,0</coordinates>
</Point>
</Placemark>
<Placemark>
<name>塚原</name>
<description></description>
<Point>
<coordinates>130.85826110839844,33.55939865112305,0</coordinates>
</Point>
</Placemark>
<Placemark>
<name>野田</name>
<description></description>
<Point>
<coordinates>130.86021423339844,33.55381393432617,0</coordinates>
</Point>
</Placemark>
<Placemark>
<name>貴船橋</name>
<description></description>
<Point>
<coordinates>130.86082458496094,33.544734954833984,0</coordinates>
</Point>
</Placemark>
<Placemark>
<name>桝田駅</name>
<description></description>
<Point>
<coordinates>130.8617401123047,33.5357666015625,0</coordinates>
</Point>
</Placemark>
<Placemark>
<name>一の宮</name>
<description></description>
<Point>
<coordinates>130.87466430664062,33.52438735961914,0</coordinates>
</Point>
</Placemark>
<Placemark>
<name>柳原</name>
<description></description>
<Point>
<coordinates>130.86277770996094,33.52532196044922,0</coordinates>
</Point>
</Placemark>
<Placemark>
<name>駒啼</name>
<description></description>
<Point>
<coordinates>130.85084533691406,33.498966217041016,0</coordinates>
</Point>
</Placemark>
<Placemark>
<name>英彦中学校前</name>
<description></description>
<Point>
<coordinates>130.86549377441406,33.50975799560547,0</coordinates>
</Point>
</Placemark>
<Placemark>
<name>別所河内</name>
<description></description>
<Point>
<coordinates>130.88778686523438,33.49367904663086,0</coordinates>
</Point>
</Placemark>
<Placemark>
<name>中河原</name>
<description></description>
<Point>
<coordinates>130.87774658203125,33.49402618408203,0</coordinates>
</Point>
</Placemark>
<Placemark>
<name>仙道</name>
<description></description>
<Point>
<coordinates>130.88063049316406,33.4897346496582,0</coordinates>
</Point>
</Placemark>
<Placemark>
<name>鍛冶屋</name>
<description></description>
<Point>
<coordinates>130.88400268554688,33.485557556152344,0</coordinates>
</Point>
</Placemark>
<Placemark>
<name>銅の鳥居</name>
<description></description>
<Point>
<coordinates>130.901123046875,33.48505401611328,0</coordinates>
</Point>
</Placemark>
<Placemark>
<name>下の谷</name>
<description></description>
<Point>
<coordinates>130.90525817871094,33.487491607666016,0</coordinates>
</Point>
</Placemark>
<Placemark>
<name>砂津</name>
<description></description>
<Point>
<coordinates>130.88888549804688,33.88264846801758,0</coordinates>
</Point>
</Placemark>
<Placemark>
<name>小倉駅前</name>
<description></description>
<Point>
<coordinates>130.88255310058594,33.8838005065918,0</coordinates>
</Point>
</Placemark>
<Placemark>
<name>魚町</name>
<description></description>
<Point>
<coordinates>130.87879943847656,33.88457107543945,0</coordinates>
</Point>
</Placemark>
<Placemark>
<name>室町リバーウォーク</name>
<description></description>
<Point>
<coordinates>130.87649536132812,33.88597869873047,0</coordinates>
</Point>
</Placemark>
<Placemark>
<name>北九州空港</name>
<description></description>
<Point>
<coordinates>131.03085327148438,33.83905792236328,0</coordinates>
</Point>
</Placemark>
<Placemark>
<name>門司港レトロ桟橋通り</name>
<description></description>
<Point>
<coordinates>130.96450805664062,33.94503402709961,0</coordinates>
</Point>
</Placemark>
<Placemark>
<name>高速畑</name>
<description></description>
<Point>
<coordinates>130.96994018554688,33.89030075073242,0</coordinates>
</Point>
</Placemark>
<Placemark>
<name>高速葛原</name>
<description></description>
<Point>
<coordinates>130.92845153808594,33.84306716918945,0</coordinates>
</Point>
</Placemark>
<Placemark>
<name>福岡天神</name>
<description></description>
<Point>
<coordinates>130.3993682861328,33.59254455566406,0</coordinates>
</Point>
</Placemark>
<Placemark>
<name>小倉南インター</name>
<description></description>
<Point>
<coordinates>130.85536193847656,33.80563735961914,0</coordinates>
</Point>
</Placemark>
<Placemark>
<name>小倉駅前</name>
<description></description>
<Point>
<coordinates>130.8841552734375,33.88911437988281,0</coordinates>
</Point>
</Placemark>
<Placemark>
<name>室町RWK</name>
<description></description>
<Point>
<coordinates>130.87649536132812,33.88597869873047,0</coordinates>
</Point>
</Placemark>
<Placemark>
<name>福岡空港国内線</name>
<description></description>
<Point>
<coordinates>130.44920349121094,33.596553802490234,0</coordinates>
</Point>
</Placemark>
<Placemark>
<name>蔵本</name>
<description></description>
<Point>
<coordinates>130.42282104492188,33.592132568359375,0</coordinates>
</Point>
</Placemark>
<Placemark>
<name>天神中央郵便局前</name>
<description></description>
<Point>
<coordinates>130.3993682861328,33.59254455566406,0</coordinates>
</Point>
</Placemark>
<Placemark>
<name>市立美術館前</name>
<description></description>
<Point>
<coordinates>130.3817138671875,33.58495330810547,0</coordinates>
</Point>
</Placemark>
<Placemark>
<name>高速小月</name>
<description></description>
<Point>
<coordinates>130.40863037109375,33.591094970703125,0</coordinates>
</Point>
</Placemark>
<Placemark>
<name>レトロ桟橋通り</name>
<description></description>
<Point>
<coordinates>130.96395874023438,33.94898223876953,0</coordinates>
</Point>
</Placemark>
<Placemark>
<name>高速　畑</name>
<description></description>
<Point>
<coordinates>130.97019958496094,33.88233184814453,0</coordinates>
</Point>
</Placemark>
<Placemark>
<name>高速　葛原</name>
<description></description>
<Point>
<coordinates>130.92845153808594,33.84306716918945,0</coordinates>
</Point>
</Placemark>
<Placemark>
<name>（元）西牟田商店</name>
<description></description>
<Point>
<coordinates>130.81724548339844,33.88648986816406,0</coordinates>
</Point>
</Placemark>
<Placemark>
<name>（西鉄）穎田</name>
<description></description>
<Point>
<coordinates>130.71978759765625,33.68370056152344,0</coordinates>
</Point>
</Placemark>
<Placemark>
<name>（西鉄）新勢田橋</name>
<description></description>
<Point>
<coordinates>130.7247314453125,33.68963623046875,0</coordinates>
</Point>
</Placemark>
<Placemark>
<name>（西鉄）石丸団地入口</name>
<description></description>
<Point>
<coordinates>130.71975708007812,33.67699432373047,0</coordinates>
</Point>
</Placemark>
<Placemark>
<name>（西鉄）中泉口</name>
<description></description>
<Point>
<coordinates>130.73733520507812,33.71692657470703,0</coordinates>
</Point>
</Placemark>
<Placemark>
<name>（西鉄）木浦岐</name>
<description></description>
<Point>
<coordinates>130.72781372070312,33.69980239868164,0</coordinates>
</Point>
</Placemark>
<Placemark>
<name>De．愛前</name>
<description></description>
<Point>
<coordinates>130.81370544433594,33.574134826660156,0</coordinates>
</Point>
</Placemark>
<Placemark>
<name>JA伊都菜彩前</name>
<description></description>
<Point>
<coordinates>130.2293701171875,33.55546188354492,0</coordinates>
</Point>
</Placemark>
<Placemark>
<name>JA育苗センター</name>
<description></description>
<Point>
<coordinates>130.50148010253906,33.58414840698242,0</coordinates>
</Point>
</Placemark>
<Placemark>
<name>JA嘉穂支所</name>
<description></description>
<Point>
<coordinates>130.73826599121094,33.54352951049805,0</coordinates>
</Point>
</Placemark>
<Placemark>
<name>JA潤野出張所</name>
<description></description>
<Point>
<coordinates>130.6576690673828,33.63175964355469,0</coordinates>
</Point>
</Placemark>
<Placemark>
<name>JA西部支店前</name>
<description></description>
<Point>
<coordinates>130.16481018066406,33.51600646972656,0</coordinates>
</Point>
</Placemark>
<Placemark>
<name>JA池野支所前</name>
<description></description>
<Point>
<coordinates>130.54176330566406,33.850196838378906,0</coordinates>
</Point>
</Placemark>
<Placemark>
<name>JA筑紫向佐野支店前</name>
<description></description>
<Point>
<coordinates>130.4972381591797,33.509620666503906,0</coordinates>
</Point>
</Placemark>
<Placemark>
<name>JA八女西支店</name>
<description></description>
<Point>
<coordinates>130.5431671142578,33.20812225341797,0</coordinates>
</Point>
</Placemark>
<Placemark>
<name>JA立花支所前</name>
<description></description>
<Point>
<coordinates>130.45260620117188,33.69218826293945,0</coordinates>
</Point>
</Placemark>
<Placemark>
<name>JRうきは駅</name>
<description></description>
<Point>
<coordinates>130.78921508789062,33.33483123779297,0</coordinates>
</Point>
</Placemark>
<Placemark>
<name>JR宇美駅</name>
<description></description>
<Point>
<coordinates>130.51318359375,33.56883239746094,0</coordinates>
</Point>
</Placemark>
<Placemark>
<name>JR海老津駅</name>
<description></description>
<Point>
<coordinates>130.62335205078125,33.84040069580078,0</coordinates>
</Point>
</Placemark>
<Placemark>
<name>JR吉富駅</name>
<description></description>
<Point>
<coordinates>131.17408752441406,33.60491943359375,0</coordinates>
</Point>
</Placemark>
<Placemark>
<name>JR久留米</name>
<description></description>
<Point>
<coordinates>130.50210571289062,33.31954574584961,0</coordinates>
</Point>
</Placemark>
<Placemark>
<name>JR宮田バス停</name>
<description></description>
<Point>
<coordinates>130.6647186279297,33.72540283203125,0</coordinates>
</Point>
</Placemark>
<Placemark>
<name>JR七福バス停</name>
<description></description>
<Point>
<coordinates>130.70245361328125,33.68717956542969,0</coordinates>
</Point>
</Placemark>
<Placemark>
<name>JR春日駅</name>
<description></description>
<Point>
<coordinates>130.4686279296875,33.535552978515625,0</coordinates>
</Point>
</Placemark>
<Placemark>
<name>JR新宮中央駅</name>
<description></description>
<Point>
<coordinates>130.44886779785156,33.71108627319336,0</coordinates>
</Point>
</Placemark>
<Placemark>
<name>JR新田原駅</name>
<description></description>
<Point>
<coordinates>131.00851440429688,33.69606399536133,0</coordinates>
</Point>
</Placemark>
<Placemark>
<name>JR石原町駅</name>
<description></description>
<Point>
<coordinates>130.86558532714844,33.784828186035156,0</coordinates>
</Point>
</Placemark>
<Placemark>
<name>JR大野城駅</name>
<description></description>
<Point>
<coordinates>130.47998046875,33.525634765625,0</coordinates>
</Point>
</Placemark>
<Placemark>
<name>JR中間駅</name>
<description></description>
<Point>
<coordinates>130.7100372314453,33.827659606933594,0</coordinates>
</Point>
</Placemark>
<Placemark>
<name>JR中間駅前</name>
<description></description>
<Point>
<coordinates>130.7100372314453,33.827659606933594,0</coordinates>
</Point>
</Placemark>
<Placemark>
<name>JR都府楼南駅</name>
<description></description>
<Point>
<coordinates>130.5067138671875,33.50350570678711,0</coordinates>
</Point>
</Placemark>
<Placemark>
<name>JR東福間駅（若木台口）</name>
<description></description>
<Point>
<coordinates>130.51119995117188,33.773624420166016,0</coordinates>
</Point>
</Placemark>
<Placemark>
<name>JR東福間駅（東福間口）</name>
<description></description>
<Point>
<coordinates>130.51068115234375,33.77450180053711,0</coordinates>
</Point>
</Placemark>
<Placemark>
<name>JR南福岡駅</name>
<description></description>
<Point>
<coordinates>130.46072387695312,33.5423698425293,0</coordinates>
</Point>
</Placemark>
<Placemark>
<name>JR二日市</name>
<description></description>
<Point>
<coordinates>130.51876831054688,33.49532699584961,0</coordinates>
</Point>
</Placemark>
<Placemark>
<name>JR二日市駅</name>
<description></description>
<Point>
<coordinates>130.51876831054688,33.49532699584961,0</coordinates>
</Point>
</Placemark>
<Placemark>
<name>JR博多南駅</name>
<description></description>
<Point>
<coordinates>130.43617248535156,33.518463134765625,0</coordinates>
</Point>
</Placemark>
<Placemark>
<name>JR福間駅</name>
<description></description>
<Point>
<coordinates>130.485595703125,33.76372528076172,0</coordinates>
</Point>
</Placemark>
<Placemark>
<name>JR福丸バス停</name>
<description></description>
<Point>
<coordinates>130.6283416748047,33.73234176635742,0</coordinates>
</Point>
</Placemark>
<Placemark>
<name>JR福丸バス停</name>
<description></description>
<Point>
<coordinates>130.62571716308594,33.73097610473633,0</coordinates>
</Point>
</Placemark>
<Placemark>
<name>JR福工大前駅</name>
<description></description>
<Point>
<coordinates>130.4397735595703,33.69831466674805,0</coordinates>
</Point>
</Placemark>
<Placemark>
<name>JR豊前川崎駅前</name>
<description></description>
<Point>
<coordinates>130.82467651367188,33.59608459472656,0</coordinates>
</Point>
</Placemark>
<Placemark>
<name>Jパワー電源開発</name>
<description></description>
<Point>
<coordinates>130.7386016845703,33.92621612548828,0</coordinates>
</Point>
</Placemark>
<Placemark>
<name>NHK放送センター入口</name>
<description></description>
<Point>
<coordinates>130.38124084472656,33.582366943359375,0</coordinates>
</Point>
</Placemark>
<Placemark>
<name>NTT筑後営業所前</name>
<description></description>
<Point>
<coordinates>130.50070190429688,33.209861755371094,0</coordinates>
</Point>
</Placemark>
<Placemark>
<name>TVQ前（キャナルシティ前）</name>
<description></description>
<Point>
<coordinates>130.41348266601562,33.58804702758789,0</coordinates>
</Point>
</Placemark>
<Placemark>
<name>TVQ前</name>
<description></description>
<Point>
<coordinates>130.4134063720703,33.58833694458008,0</coordinates>
</Point>
</Placemark>
<Placemark>
<name>アイランドシティ中央公園前</name>
<description></description>
<Point>
<coordinates>130.42396545410156,33.663482666015625,0</coordinates>
</Point>
</Placemark>
<Placemark>
<name>アイランドパーク</name>
<description></description>
<Point>
<coordinates>130.3022918701172,33.631412506103516,0</coordinates>
</Point>
</Placemark>
<Placemark>
<name>あかぢ駅</name>
<description></description>
<Point>
<coordinates>130.72439575195312,33.72724533081055,0</coordinates>
</Point>
</Placemark>
<Placemark>
<name>アクシオン福岡前</name>
<description></description>
<Point>
<coordinates>130.46290588378906,33.580745697021484,0</coordinates>
</Point>
</Placemark>
<Placemark>
<name>アクシス玄海</name>
<description></description>
<Point>
<coordinates>130.51158142089844,33.833187103271484,0</coordinates>
</Point>
</Placemark>
<Placemark>
<name>アグリパーク入口</name>
<description></description>
<Point>
<coordinates>131.06729125976562,33.64655303955078,0</coordinates>
</Point>
</Placemark>
<Placemark>
<name>あげ</name>
<description></description>
<Point>
<coordinates>130.9710693359375,33.86189651489258,0</coordinates>
</Point>
</Placemark>
<Placemark>
<name>アサヒビール前</name>
<description></description>
<Point>
<coordinates>130.4293670654297,33.57240676879883,0</coordinates>
</Point>
</Placemark>
<Placemark>
<name>あさひ台公民館</name>
<description></description>
<Point>
<coordinates>130.73312377929688,33.64802169799805,0</coordinates>
</Point>
</Placemark>
<Placemark>
<name>アザレアホール前</name>
<description></description>
<Point>
<coordinates>130.50888061523438,33.586307525634766,0</coordinates>
</Point>
</Placemark>
<Placemark>
<name>あすてらす</name>
<description></description>
<Point>
<coordinates>130.55996704101562,33.380889892578125,0</coordinates>
</Point>
</Placemark>
<Placemark>
<name>あめんぼセンター前</name>
<description></description>
<Point>
<coordinates>130.40802001953125,33.16341018676758,0</coordinates>
</Point>
</Placemark>
<Placemark>
<name>ありあけ新世校入口</name>
<description></description>
<Point>
<coordinates>130.47044372558594,33.071006774902344,0</coordinates>
</Point>
</Placemark>
<Placemark>
<name>あんずの里</name>
<description></description>
<Point>
<coordinates>130.4914093017578,33.82948684692383,0</coordinates>
</Point>
</Placemark>
<Placemark>
<name>イオンモール筑紫野</name>
<description></description>
<Point>
<coordinates>130.52769470214844,33.48158264160156,0</coordinates>
</Point>
</Placemark>
<Placemark>
<name>イオンモール直方</name>
<description></description>
<Point>
<coordinates>130.74905395507812,33.76820755004883,0</coordinates>
</Point>
</Placemark>
<Placemark>
<name>イオンモール福岡ルクル</name>
<description></description>
<Point>
<coordinates>130.47901916503906,33.59590148925781,0</coordinates>
</Point>
</Placemark>
<Placemark>
<name>イオン岡垣ショッピングセンター</name>
<description></description>
<Point>
<coordinates>130.63211059570312,33.86168670654297,0</coordinates>
</Point>
</Placemark>
<Placemark>
<name>イオン入口</name>
<description></description>
<Point>
<coordinates>130.7509765625,33.77042770385742,0</coordinates>
</Point>
</Placemark>
<Placemark>
<name>イオン八幡東ショッピングセンター</name>
<description></description>
<Point>
<coordinates>130.81053161621094,33.86944580078125,0</coordinates>
</Point>
</Placemark>
<Placemark>
<name>いきいきプラザ前</name>
<description></description>
<Point>
<coordinates>130.4490203857422,33.52977752685547,0</coordinates>
</Point>
</Placemark>
<Placemark>
<name>いきいきほーる</name>
<description></description>
<Point>
<coordinates>130.69786071777344,33.852542877197266,0</coordinates>
</Point>
</Placemark>
<Placemark>
<name>いきいき情報センター</name>
<description></description>
<Point>
<coordinates>130.5266571044922,33.51049041748047,0</coordinates>
</Point>
</Placemark>
<Placemark>
<name>いこいの家</name>
<description></description>
<Point>
<coordinates>130.78509521484375,33.54127883911133,0</coordinates>
</Point>
</Placemark>
<Placemark>
<name>いこいの村入口</name>
<description></description>
<Point>
<coordinates>130.76673889160156,33.74366760253906,0</coordinates>
</Point>
</Placemark>
<Placemark>
<name>いこいの里</name>
<description></description>
<Point>
<coordinates>130.60281372070312,33.848289489746094,0</coordinates>
</Point>
</Placemark>
<Placemark>
<name>いずみ苑</name>
<description></description>
<Point>
<coordinates>130.66136169433594,33.673370361328125,0</coordinates>
</Point>
</Placemark>
<Placemark>
<name>いのちのたび博物館</name>
<description></description>
<Point>
<coordinates>130.80841064453125,33.8712272644043,0</coordinates>
</Point>
</Placemark>
<Placemark>
<name>ウイングプラザ前</name>
<description></description>
<Point>
<coordinates>130.80958557128906,33.905208587646484,0</coordinates>
</Point>
</Placemark>
<Placemark>
<name>ウエストヒルズ南</name>
<description></description>
<Point>
<coordinates>130.30093383789062,33.56462097167969,0</coordinates>
</Point>
</Placemark>
<Placemark>
<name>ウエストヒルズ北</name>
<description></description>
<Point>
<coordinates>130.29774475097656,33.56647491455078,0</coordinates>
</Point>
</Placemark>
<Placemark>
<name>ウエルタ新宮</name>
<description></description>
<Point>
<coordinates>130.4541473388672,33.704044342041016,0</coordinates>
</Point>
</Placemark>
<Placemark>
<name>うきはアリーナ</name>
<description></description>
<Point>
<coordinates>130.7894744873047,33.33924865722656,0</coordinates>
</Point>
</Placemark>
<Placemark>
<name>うきは警察署前</name>
<description></description>
<Point>
<coordinates>130.7481231689453,33.34402847290039,0</coordinates>
</Point>
</Placemark>
<Placemark>
<name>うきは警察署入口</name>
<description></description>
<Point>
<coordinates>130.7481231689453,33.34402847290039,0</coordinates>
</Point>
</Placemark>
<Placemark>
<name>うきは市民センター</name>
<description></description>
<Point>
<coordinates>130.79248046875,33.331851959228516,0</coordinates>
</Point>
</Placemark>
<Placemark>
<name>うぐいす台集会所</name>
<description></description>
<Point>
<coordinates>130.62631225585938,33.587181091308594,0</coordinates>
</Point>
</Placemark>
<Placemark>
<name>うぐいす台団地</name>
<description></description>
<Point>
<coordinates>130.65408325195312,33.634559631347656,0</coordinates>
</Point>
</Placemark>
<Placemark>
<name>うぐいす台入口</name>
<description></description>
<Point>
<coordinates>130.6294403076172,33.5876350402832,0</coordinates>
</Point>
</Placemark>
<Placemark>
<name>うぐいす台入口</name>
<description></description>
<Point>
<coordinates>130.81838989257812,33.57353973388672,0</coordinates>
</Point>
</Placemark>
<Placemark>
<name>うぐいす塚</name>
<description></description>
<Point>
<coordinates>130.6320037841797,33.58836364746094,0</coordinates>
</Point>
</Placemark>
<Placemark>
<name>うぐいす塚第二</name>
<description></description>
<Point>
<coordinates>130.632080078125,33.588783264160156,0</coordinates>
</Point>
</Placemark>
<Placemark>
<name>ウトグチ瓦窯展示館前</name>
<description></description>
<Point>
<coordinates>130.4437713623047,33.5161247253418,0</coordinates>
</Point>
</Placemark>
<Placemark>
<name>ウナブシ団地</name>
<description></description>
<Point>
<coordinates>130.75462341308594,33.566898345947266,0</coordinates>
</Point>
</Placemark>
<Placemark>
<name>うの口</name>
<description></description>
<Point>
<coordinates>130.5641632080078,33.14091491699219,0</coordinates>
</Point>
</Placemark>
<Placemark>
<name>うぶすな館</name>
<description></description>
<Point>
<coordinates>130.39370727539062,33.15574645996094,0</coordinates>
</Point>
</Placemark>
<Placemark>
<name>エーアンドシー前</name>
<description></description>
<Point>
<coordinates>130.70062255859375,33.695133209228516,0</coordinates>
</Point>
</Placemark>
<Placemark>
<name>エコタウンセンター</name>
<description></description>
<Point>
<coordinates>130.79730224609375,33.92772674560547,0</coordinates>
</Point>
</Placemark>
<Placemark>
<name>エコタウンセンター前</name>
<description></description>
<Point>
<coordinates>130.79827880859375,33.926841735839844,0</coordinates>
</Point>
</Placemark>
<Placemark>
<name>エコ工房</name>
<description></description>
<Point>
<coordinates>130.6923828125,33.68098449707031,0</coordinates>
</Point>
</Placemark>
<Placemark>
<name>エスト本町東口</name>
<description></description>
<Point>
<coordinates>130.81068420410156,33.90385055541992,0</coordinates>
</Point>
</Placemark>
<Placemark>
<name>エメラルド</name>
<description></description>
<Point>
<coordinates>130.9132843017578,33.888404846191406,0</coordinates>
</Point>
</Placemark>
<Placemark>
<name>エメラルドタウン前</name>
<description></description>
<Point>
<coordinates>130.81585693359375,33.88375473022461,0</coordinates>
</Point>
</Placemark>
<Placemark>
<name>おおぎ市営住宅</name>
<description></description>
<Point>
<coordinates>130.49801635742188,33.5319709777832,0</coordinates>
</Point>
</Placemark>
<Placemark>
<name>オークタウン入口</name>
<description></description>
<Point>
<coordinates>130.45140075683594,33.66789245605469,0</coordinates>
</Point>
</Placemark>
<Placemark>
<name>オークホール前</name>
<description></description>
<Point>
<coordinates>130.84854125976562,33.5727424621582,0</coordinates>
</Point>
</Placemark>
<Placemark>
<name>おかがき病院前</name>
<description></description>
<Point>
<coordinates>130.58810424804688,33.873130798339844,0</coordinates>
</Point>
</Placemark>
<Placemark>
<name>おかがき病院入口</name>
<description></description>
<Point>
<coordinates>130.5860595703125,33.8701057434082,0</coordinates>
</Point>
</Placemark>
<Placemark>
<name>おかの台</name>
<description></description>
<Point>
<coordinates>130.6934356689453,33.877628326416016,0</coordinates>
</Point>
</Placemark>
<Placemark>
<name>おかの台18棟前</name>
<description></description>
<Point>
<coordinates>130.69329833984375,33.873931884765625,0</coordinates>
</Point>
</Placemark>
<Placemark>
<name>おかの台8棟前</name>
<description></description>
<Point>
<coordinates>130.6922149658203,33.87616729736328,0</coordinates>
</Point>
</Placemark>
<Placemark>
<name>おかの台入口</name>
<description></description>
<Point>
<coordinates>130.6941680908203,33.872535705566406,0</coordinates>
</Point>
</Placemark>
<Placemark>
<name>おんが病院</name>
<description></description>
<Point>
<coordinates>130.6387481689453,33.85163497924805,0</coordinates>
</Point>
</Placemark>
<Placemark>
<name>お茶屋前</name>
<description></description>
<Point>
<coordinates>130.46456909179688,33.1593132019043,0</coordinates>
</Point>
</Placemark>
<Placemark>
<name>ガーデンハウスC</name>
<description></description>
<Point>
<coordinates>130.9166259765625,33.88969421386719,0</coordinates>
</Point>
</Placemark>
<Placemark>
<name>カッホー馬古屏</name>
<description></description>
<Point>
<coordinates>130.73373413085938,33.56233596801758,0</coordinates>
</Point>
</Placemark>
<Placemark>
<name>カネモリ食品前</name>
<description></description>
<Point>
<coordinates>130.48745727539062,33.77477264404297,0</coordinates>
</Point>
</Placemark>
<Placemark>
<name>カモ池前</name>
<description></description>
<Point>
<coordinates>130.37460327148438,33.6701545715332,0</coordinates>
</Point>
</Placemark>
<Placemark>
<name>かやの</name>
<description></description>
<Point>
<coordinates>130.51055908203125,33.59469223022461,0</coordinates>
</Point>
</Placemark>
<Placemark>
<name>ガンセンター前</name>
<description></description>
<Point>
<coordinates>130.4246063232422,33.541831970214844,0</coordinates>
</Point>
</Placemark>
<Placemark>
<name>かんぽの宿北九州</name>
<description></description>
<Point>
<coordinates>130.68431091308594,33.93472671508789,0</coordinates>
</Point>
</Placemark>
<Placemark>
<name>かんぽの宿柳川</name>
<description></description>
<Point>
<coordinates>130.40054321289062,33.15629959106445,0</coordinates>
</Point>
</Placemark>
<Placemark>
<name>きじがお公園</name>
<description></description>
<Point>
<coordinates>130.49542236328125,33.53729248046875,0</coordinates>
</Point>
</Placemark>
<Placemark>
<name>キャナルシティ博多（高速専用）</name>
<description></description>
<Point>
<coordinates>130.41152954101562,33.59001922607422,0</coordinates>
</Point>
</Placemark>
<Placemark>
<name>キャナルシティ博多</name>
<description></description>
<Point>
<coordinates>130.41152954101562,33.59001922607422,0</coordinates>
</Point>
</Placemark>
<Placemark>
<name>キャナルシティ博多前</name>
<description></description>
<Point>
<coordinates>130.41152954101562,33.59001922607422,0</coordinates>
</Point>
</Placemark>
<Placemark>
<name>キリンビール前</name>
<description></description>
<Point>
<coordinates>130.62722778320312,33.40958786010742,0</coordinates>
</Point>
</Placemark>
<Placemark>
<name>くらし館</name>
<description></description>
<Point>
<coordinates>130.56277465820312,33.207767486572266,0</coordinates>
</Point>
</Placemark>
<Placemark>
<name>クラブハウス前</name>
<description></description>
<Point>
<coordinates>130.8207244873047,33.88448715209961,0</coordinates>
</Point>
</Placemark>
<Placemark>
<name>クリーンセンター</name>
<description></description>
<Point>
<coordinates>130.6923828125,33.68098449707031,0</coordinates>
</Point>
</Placemark>
<Placemark>
<name>グリーンタウン</name>
<description></description>
<Point>
<coordinates>130.4803009033203,33.76812744140625,0</coordinates>
</Point>
</Placemark>
<Placemark>
<name>グリーンタウン中央</name>
<description></description>
<Point>
<coordinates>130.4811248779297,33.770381927490234,0</coordinates>
</Point>
</Placemark>
<Placemark>
<name>グリーンタウン入口</name>
<description></description>
<Point>
<coordinates>130.45594787597656,33.669898986816406,0</coordinates>
</Point>
</Placemark>
<Placemark>
<name>グリーンパーク古賀</name>
<description></description>
<Point>
<coordinates>130.48704528808594,33.712528228759766,0</coordinates>
</Point>
</Placemark>
<Placemark>
<name>グリーンパーク北ゲート</name>
<description></description>
<Point>
<coordinates>130.72999572753906,33.92094802856445,0</coordinates>
</Point>
</Placemark>
<Placemark>
<name>グリーンヒル工業団地</name>
<description></description>
<Point>
<coordinates>130.6955108642578,33.68095016479492,0</coordinates>
</Point>
</Placemark>
<Placemark>
<name>くりえいと一丁目</name>
<description></description>
<Point>
<coordinates>130.56515502929688,33.812164306640625,0</coordinates>
</Point>
</Placemark>
<Placemark>
<name>くりえいと前</name>
<description></description>
<Point>
<coordinates>130.56417846679688,33.80924606323242,0</coordinates>
</Point>
</Placemark>
<Placemark>
<name>くりえいと二丁目</name>
<description></description>
<Point>
<coordinates>130.5653076171875,33.8152961730957,0</coordinates>
</Point>
</Placemark>
<Placemark>
<name>グローバルアリーナ</name>
<description></description>
<Point>
<coordinates>130.63577270507812,33.79244613647461,0</coordinates>
</Point>
</Placemark>
<Placemark>
<name>ケアハウス宗像前</name>
<description></description>
<Point>
<coordinates>130.5475311279297,33.7989387512207,0</coordinates>
</Point>
</Placemark>
<Placemark>
<name>ケアハウス八女入口</name>
<description></description>
<Point>
<coordinates>130.5254364013672,33.200557708740234,0</coordinates>
</Point>
</Placemark>
<Placemark>
<name>けやき通り</name>
<description></description>
<Point>
<coordinates>130.6719207763672,33.4190559387207,0</coordinates>
</Point>
</Placemark>
<Placemark>
<name>げんきの杜玄関前</name>
<description></description>
<Point>
<coordinates>131.15411376953125,33.58241271972656,0</coordinates>
</Point>
</Placemark>
<Placemark>
<name>コーヒー園入口</name>
<description></description>
<Point>
<coordinates>130.31207275390625,33.614646911621094,0</coordinates>
</Point>
</Placemark>
<Placemark>
<name>コスタ行橋</name>
<description></description>
<Point>
<coordinates>130.9748992919922,33.719078063964844,0</coordinates>
</Point>
</Placemark>
<Placemark>
<name>コスモスコモン前</name>
<description></description>
<Point>
<coordinates>130.68421936035156,33.636329650878906,0</coordinates>
</Point>
</Placemark>
<Placemark>
<name>コスモスプラザ前</name>
<description></description>
<Point>
<coordinates>130.59271240234375,33.457008361816406,0</coordinates>
</Point>
</Placemark>
<Placemark>
<name>コスモス館前</name>
<description></description>
<Point>
<coordinates>130.4848175048828,33.708805084228516,0</coordinates>
</Point>
</Placemark>
<Placemark>
<name>コスワエ</name>
<description></description>
<Point>
<coordinates>130.70143127441406,33.77410888671875,0</coordinates>
</Point>
</Placemark>
<Placemark>
<name>コットンヒルズ那珂川ハイツ南</name>
<description></description>
<Point>
<coordinates>130.43231201171875,33.49763870239258,0</coordinates>
</Point>
</Placemark>
<Placemark>
<name>ことぶき荘</name>
<description></description>
<Point>
<coordinates>130.63153076171875,33.84636688232422,0</coordinates>
</Point>
</Placemark>
<Placemark>
<name>ゴルフウエスポ前</name>
<description></description>
<Point>
<coordinates>130.85545349121094,33.90033721923828,0</coordinates>
</Point>
</Placemark>
<Placemark>
<name>ゴルフ場前</name>
<description></description>
<Point>
<coordinates>130.74319458007812,33.711246490478516,0</coordinates>
</Point>
</Placemark>
<Placemark>
<name>ゴルフ場前</name>
<description></description>
<Point>
<coordinates>130.45774841308594,33.72395706176758,0</coordinates>
</Point>
</Placemark>
<Placemark>
<name>ゴルフ場入口</name>
<description></description>
<Point>
<coordinates>130.4374237060547,33.688907623291016,0</coordinates>
</Point>
</Placemark>
<Placemark>
<name>ゴルフ場入口</name>
<description></description>
<Point>
<coordinates>130.20291137695312,33.53722381591797,0</coordinates>
</Point>
</Placemark>
<Placemark>
<name>ザ・モール春日店前</name>
<description></description>
<Point>
<coordinates>130.4700164794922,33.51649856567383,0</coordinates>
</Point>
</Placemark>
<Placemark>
<name>サイエンスパーク</name>
<description></description>
<Point>
<coordinates>130.6845703125,33.904945373535156,0</coordinates>
</Point>
</Placemark>
<Placemark>
<name>サキ迫橋</name>
<description></description>
<Point>
<coordinates>130.76327514648438,33.52743148803711,0</coordinates>
</Point>
</Placemark>
<Placemark>
<name>さくらが丘団地</name>
<description></description>
<Point>
<coordinates>130.77052307128906,33.56736373901367,0</coordinates>
</Point>
</Placemark>
<Placemark>
<name>サルビアパーク</name>
<description></description>
<Point>
<coordinates>130.76889038085938,33.55734634399414,0</coordinates>
</Point>
</Placemark>
<Placemark>
<name>さわら台団地</name>
<description></description>
<Point>
<coordinates>130.3407745361328,33.5241584777832,0</coordinates>
</Point>
</Placemark>
<Placemark>
<name>さわら台団地西口</name>
<description></description>
<Point>
<coordinates>130.34046936035156,33.52231216430664,0</coordinates>
</Point>
</Placemark>
<Placemark>
<name>さわら台団地南口</name>
<description></description>
<Point>
<coordinates>130.34188842773438,33.52196502685547,0</coordinates>
</Point>
</Placemark>
<Placemark>
<name>サン・ビオ公民館前</name>
<description></description>
<Point>
<coordinates>130.4556884765625,33.54287338256836,0</coordinates>
</Point>
</Placemark>
<Placemark>
<name>サングリーン前</name>
<description></description>
<Point>
<coordinates>130.82125854492188,33.87648010253906,0</coordinates>
</Point>
</Placemark>
<Placemark>
<name>サンコスモ古賀</name>
<description></description>
<Point>
<coordinates>130.47903442382812,33.729248046875,0</coordinates>
</Point>
</Placemark>
<Placemark>
<name>サンビレッジ茜入口</name>
<description></description>
<Point>
<coordinates>130.6199188232422,33.55614471435547,0</coordinates>
</Point>
</Placemark>
<Placemark>
<name>サンライズ杷木</name>
<description></description>
<Point>
<coordinates>130.7843780517578,33.354339599609375,0</coordinates>
</Point>
</Placemark>
<Placemark>
<name>サンリーアイ</name>
<description></description>
<Point>
<coordinates>130.61029052734375,33.85047149658203,0</coordinates>
</Point>
</Placemark>
<Placemark>
<name>サンリブエル苅田</name>
<description></description>
<Point>
<coordinates>130.98294067382812,33.77301025390625,0</coordinates>
</Point>
</Placemark>
<Placemark>
<name>サンリブシティ小倉</name>
<description></description>
<Point>
<coordinates>130.9071502685547,33.83896255493164,0</coordinates>
</Point>
</Placemark>
<Placemark>
<name>シーオーレ新宮</name>
<description></description>
<Point>
<coordinates>130.44888305664062,33.70509719848633,0</coordinates>
</Point>
</Placemark>
<Placemark>
<name>シーホークホテル</name>
<description></description>
<Point>
<coordinates>130.35960388183594,33.59387969970703,0</coordinates>
</Point>
</Placemark>
<Placemark>
<name>シーホークホテル前</name>
<description></description>
<Point>
<coordinates>130.35960388183594,33.59387969970703,0</coordinates>
</Point>
</Placemark>
<Placemark>
<name>ししぶ駅東口</name>
<description></description>
<Point>
<coordinates>130.461181640625,33.72335433959961,0</coordinates>
</Point>
</Placemark>
<Placemark>
<name>しののめ町</name>
<description></description>
<Point>
<coordinates>130.4680633544922,33.547786712646484,0</coordinates>
</Point>
</Placemark>
<Placemark>
<name>しゃくなげ荘入口</name>
<description></description>
<Point>
<coordinates>130.89564514160156,33.47615051269531,0</coordinates>
</Point>
</Placemark>
<Placemark>
<name>ジャスコ甘木店</name>
<description></description>
<Point>
<coordinates>130.6541748046875,33.40634536743164,0</coordinates>
</Point>
</Placemark>
<Placemark>
<name>ジャスコ穂波店</name>
<description></description>
<Point>
<coordinates>130.6734161376953,33.63517379760742,0</coordinates>
</Point>
</Placemark>
<Placemark>
<name>ショッピングセンター前</name>
<description></description>
<Point>
<coordinates>130.56089782714844,33.2833366394043,0</coordinates>
</Point>
</Placemark>
<Placemark>
<name>ショッピングセンター前</name>
<description></description>
<Point>
<coordinates>130.48280334472656,33.76968765258789,0</coordinates>
</Point>
</Placemark>
<Placemark>
<name>スーパーあそう前</name>
<description></description>
<Point>
<coordinates>130.97972106933594,33.78718948364258,0</coordinates>
</Point>
</Placemark>
<Placemark>
<name>スーパー川食</name>
<description></description>
<Point>
<coordinates>131.17300415039062,33.598148345947266,0</coordinates>
</Point>
</Placemark>
<Placemark>
<name>スカイホテル</name>
<description></description>
<Point>
<coordinates>130.9768524169922,33.804931640625,0</coordinates>
</Point>
</Placemark>
<Placemark>
<name>スカイホテル苅田前</name>
<description></description>
<Point>
<coordinates>130.9768524169922,33.804931640625,0</coordinates>
</Point>
</Placemark>
<Placemark>
<name>スダレ石</name>
<description></description>
<Point>
<coordinates>130.7263641357422,33.62184143066406,0</coordinates>
</Point>
</Placemark>
<Placemark>
<name>すの子小学校</name>
<description></description>
<Point>
<coordinates>130.3826904296875,33.59220504760742,0</coordinates>
</Point>
</Placemark>
<Placemark>
<name>スパリゾートホテル久留米</name>
<description></description>
<Point>
<coordinates>130.59600830078125,33.31483459472656,0</coordinates>
</Point>
</Placemark>
<Placemark>
<name>スペースワールド</name>
<description></description>
<Point>
<coordinates>130.81109619140625,33.87507247924805,0</coordinates>
</Point>
</Placemark>
<Placemark>
<name>スペースワールド駅</name>
<description></description>
<Point>
<coordinates>130.80722045898438,33.872249603271484,0</coordinates>
</Point>
</Placemark>
<Placemark>
<name>すみれ園</name>
<description></description>
<Point>
<coordinates>130.67242431640625,33.6236572265625,0</coordinates>
</Point>
</Placemark>
<Placemark>
<name>すみれ幼稚園</name>
<description></description>
<Point>
<coordinates>130.9727783203125,33.764129638671875,0</coordinates>
</Point>
</Placemark>
<Placemark>
<name>スワロータウン入口</name>
<description></description>
<Point>
<coordinates>130.9652099609375,33.80278396606445,0</coordinates>
</Point>
</Placemark>
<Placemark>
<name>せき損センター</name>
<description></description>
<Point>
<coordinates>130.65310668945312,33.64787673950195,0</coordinates>
</Point>
</Placemark>
<Placemark>
<name>そぴあしんぐう</name>
<description></description>
<Point>
<coordinates>130.45204162597656,33.70694351196289,0</coordinates>
</Point>
</Placemark>
<Placemark>
<name>ダイヤニュータウン</name>
<description></description>
<Point>
<coordinates>130.6689453125,33.85353469848633,0</coordinates>
</Point>
</Placemark>
<Placemark>
<name>タカチホカメラ前</name>
<description></description>
<Point>
<coordinates>130.48927307128906,33.76923370361328,0</coordinates>
</Point>
</Placemark>
<Placemark>
<name>たかとり園前</name>
<description></description>
<Point>
<coordinates>130.76560974121094,33.7391242980957,0</coordinates>
</Point>
</Placemark>
<Placemark>
<name>たけのこ工場</name>
<description></description>
<Point>
<coordinates>130.6402587890625,33.535499572753906,0</coordinates>
</Point>
</Placemark>
<Placemark>
<name>ダム入口</name>
<description></description>
<Point>
<coordinates>130.61962890625,33.693878173828125,0</coordinates>
</Point>
</Placemark>
<Placemark>
<name>ダム入口</name>
<description></description>
<Point>
<coordinates>130.77894592285156,33.17313003540039,0</coordinates>
</Point>
</Placemark>
<Placemark>
<name>だんごあん</name>
<description></description>
<Point>
<coordinates>130.7025909423828,33.476783752441406,0</coordinates>
</Point>
</Placemark>
<Placemark>
<name>ちくし台</name>
<description></description>
<Point>
<coordinates>130.45892333984375,33.52394485473633,0</coordinates>
</Point>
</Placemark>
<Placemark>
<name>ちくし台一丁目</name>
<description></description>
<Point>
<coordinates>130.45880126953125,33.522701263427734,0</coordinates>
</Point>
</Placemark>
<Placemark>
<name>ちくし台五丁目</name>
<description></description>
<Point>
<coordinates>130.46417236328125,33.52043533325195,0</coordinates>
</Point>
</Placemark>
<Placemark>
<name>ちくし台二丁目</name>
<description></description>
<Point>
<coordinates>130.4593505859375,33.524261474609375,0</coordinates>
</Point>
</Placemark>
<Placemark>
<name>つつじヶ丘</name>
<description></description>
<Point>
<coordinates>130.4871063232422,33.49755096435547,0</coordinates>
</Point>
</Placemark>
<Placemark>
<name>つつじケ丘一丁目</name>
<description></description>
<Point>
<coordinates>130.48190307617188,33.49982833862305,0</coordinates>
</Point>
</Placemark>
<Placemark>
<name>つつじケ丘三丁目</name>
<description></description>
<Point>
<coordinates>130.48268127441406,33.49241638183594,0</coordinates>
</Point>
</Placemark>
<Placemark>
<name>つつじヶ丘団地</name>
<description></description>
<Point>
<coordinates>130.3063201904297,33.56905746459961,0</coordinates>
</Point>
</Placemark>
<Placemark>
<name>つつじケ丘通り</name>
<description></description>
<Point>
<coordinates>130.48495483398438,33.49885940551758,0</coordinates>
</Point>
</Placemark>
<Placemark>
<name>つつじケ丘二丁目</name>
<description></description>
<Point>
<coordinates>130.48031616210938,33.498329162597656,0</coordinates>
</Point>
</Placemark>
<Placemark>
<name>つつじケ丘六丁目</name>
<description></description>
<Point>
<coordinates>130.4825439453125,33.48996353149414,0</coordinates>
</Point>
</Placemark>
<Placemark>
<name>つのくま苑入口</name>
<description></description>
<Point>
<coordinates>130.956787109375,33.725276947021484,0</coordinates>
</Point>
</Placemark>
<Placemark>
<name>デイサービス前</name>
<description></description>
<Point>
<coordinates>130.99253845214844,33.75341796875,0</coordinates>
</Point>
</Placemark>
<Placemark>
<name>テニスコート前</name>
<description></description>
<Point>
<coordinates>130.976318359375,33.943172454833984,0</coordinates>
</Point>
</Placemark>
<Placemark>
<name>ときわ台</name>
<description></description>
<Point>
<coordinates>130.41305541992188,33.51437759399414,0</coordinates>
</Point>
</Placemark>
<Placemark>
<name>ときわ台下</name>
<description></description>
<Point>
<coordinates>130.41305541992188,33.51685333251953,0</coordinates>
</Point>
</Placemark>
<Placemark>
<name>ときわ台北</name>
<description></description>
<Point>
<coordinates>130.41265869140625,33.515926361083984,0</coordinates>
</Point>
</Placemark>
<Placemark>
<name>トヨタ九州苅田工場前</name>
<description></description>
<Point>
<coordinates>130.99942016601562,33.81501770019531,0</coordinates>
</Point>
</Placemark>
<Placemark>
<name>トリアス久山</name>
<description></description>
<Point>
<coordinates>130.49081420898438,33.65413284301758,0</coordinates>
</Point>
</Placemark>
<Placemark>
<name>どんどら</name>
<description></description>
<Point>
<coordinates>130.56915283203125,33.21311569213867,0</coordinates>
</Point>
</Placemark>
<Placemark>
<name>トンネル口</name>
<description></description>
<Point>
<coordinates>130.7289581298828,33.83377456665039,0</coordinates>
</Point>
</Placemark>
<Placemark>
<name>トンネル口</name>
<description></description>
<Point>
<coordinates>130.5013885498047,33.01029586791992,0</coordinates>
</Point>
</Placemark>
<Placemark>
<name>ながらの団地入口</name>
<description></description>
<Point>
<coordinates>130.31118774414062,33.57402038574219,0</coordinates>
</Point>
</Placemark>
<Placemark>
<name>ナギの木苑前</name>
<description></description>
<Point>
<coordinates>130.45904541015625,33.50594711303711,0</coordinates>
</Point>
</Placemark>
<Placemark>
<name>なまずの郷</name>
<description></description>
<Point>
<coordinates>130.50933837890625,33.75505828857422,0</coordinates>
</Point>
</Placemark>
<Placemark>
<name>なまずの郷運動公園入口</name>
<description></description>
<Point>
<coordinates>130.51300048828125,33.75878143310547,0</coordinates>
</Point>
</Placemark>
<Placemark>
<name>なまずの里公園入口</name>
<description></description>
<Point>
<coordinates>130.51300048828125,33.75878143310547,0</coordinates>
</Point>
</Placemark>
<Placemark>
<name>ニビシ醤油前</name>
<description></description>
<Point>
<coordinates>130.49266052246094,33.7688102722168,0</coordinates>
</Point>
</Placemark>
<Placemark>
<name>ニュータウン前</name>
<description></description>
<Point>
<coordinates>130.750732421875,33.74648666381836,0</coordinates>
</Point>
</Placemark>
<Placemark>
<name>ニュータウン大分</name>
<description></description>
<Point>
<coordinates>130.6311798095703,33.5907096862793,0</coordinates>
</Point>
</Placemark>
<Placemark>
<name>ネオポリス一丁目</name>
<description></description>
<Point>
<coordinates>130.5500030517578,33.81968688964844,0</coordinates>
</Point>
</Placemark>
<Placemark>
<name>ネオポリス三丁目</name>
<description></description>
<Point>
<coordinates>130.55239868164062,33.81544876098633,0</coordinates>
</Point>
</Placemark>
<Placemark>
<name>ネオポリス二丁目</name>
<description></description>
<Point>
<coordinates>130.54995727539062,33.81770324707031,0</coordinates>
</Point>
</Placemark>
<Placemark>
<name>ノーフォーク広場</name>
<description></description>
<Point>
<coordinates>130.96421813964844,33.95710372924805,0</coordinates>
</Point>
</Placemark>
<Placemark>
<name>のぞみ野</name>
<description></description>
<Point>
<coordinates>130.6947479248047,33.84457778930664,0</coordinates>
</Point>
</Placemark>
<Placemark>
<name>パークタウン</name>
<description></description>
<Point>
<coordinates>130.55648803710938,33.40022277832031,0</coordinates>
</Point>
</Placemark>
<Placemark>
<name>パープルプラザ前</name>
<description></description>
<Point>
<coordinates>130.52076721191406,33.490440368652344,0</coordinates>
</Point>
</Placemark>
<Placemark>
<name>パール美容室前</name>
<description></description>
<Point>
<coordinates>130.9800262451172,33.76388931274414,0</coordinates>
</Point>
</Placemark>
<Placemark>
<name>バスセンター</name>
<description></description>
<Point>
<coordinates>130.4563751220703,33.52864074707031,0</coordinates>
</Point>
</Placemark>
<Placemark>
<name>はすわ</name>
<description></description>
<Point>
<coordinates>130.66075134277344,33.210899353027344,0</coordinates>
</Point>
</Placemark>
<Placemark>
<name>バス車庫</name>
<description></description>
<Point>
<coordinates>130.8535919189453,33.57487487792969,0</coordinates>
</Point>
</Placemark>
<Placemark>
<name>パチンコミラージュ前</name>
<description></description>
<Point>
<coordinates>130.81362915039062,33.880516052246094,0</coordinates>
</Point>
</Placemark>
<Placemark>
<name>パナソニック前</name>
<description></description>
<Point>
<coordinates>130.4219512939453,33.57493209838867,0</coordinates>
</Point>
</Placemark>
<Placemark>
<name>はまゆう団地</name>
<description></description>
<Point>
<coordinates>130.6714630126953,33.91250228881836,0</coordinates>
</Point>
</Placemark>
<Placemark>
<name>はやし歯科</name>
<description></description>
<Point>
<coordinates>131.1775360107422,33.61058044433594,0</coordinates>
</Point>
</Placemark>
<Placemark>
<name>ハローワーク門司</name>
<description></description>
<Point>
<coordinates>130.943115234375,33.92289733886719,0</coordinates>
</Point>
</Placemark>
<Placemark>
<name>パンジープラザ</name>
<description></description>
<Point>
<coordinates>130.9837188720703,33.7913818359375,0</coordinates>
</Point>
</Placemark>
<Placemark>
<name>ピアジェ（C＆Cセンター）</name>
<description></description>
<Point>
<coordinates>130.51722717285156,33.64020538330078,0</coordinates>
</Point>
</Placemark>
<Placemark>
<name>ピーポート前</name>
<description></description>
<Point>
<coordinates>130.6586456298828,33.41536331176758,0</coordinates>
</Point>
</Placemark>
<Placemark>
<name>ひかりヶ丘</name>
<description></description>
<Point>
<coordinates>130.54104614257812,33.820701599121094,0</coordinates>
</Point>
</Placemark>
<Placemark>
<name>ひかりヶ丘中央</name>
<description></description>
<Point>
<coordinates>130.53457641601562,33.82088851928711,0</coordinates>
</Point>
</Placemark>
<Placemark>
<name>ひかりヶ丘二丁目</name>
<description></description>
<Point>
<coordinates>130.53793334960938,33.82166290283203,0</coordinates>
</Point>
</Placemark>
<Placemark>
<name>ひかりヶ丘入口</name>
<description></description>
<Point>
<coordinates>130.54022216796875,33.82108688354492,0</coordinates>
</Point>
</Placemark>
<Placemark>
<name>ひかりヶ丘馬立公園</name>
<description></description>
<Point>
<coordinates>130.5376434326172,33.81779098510742,0</coordinates>
</Point>
</Placemark>
<Placemark>
<name>ひこさんホテル入口</name>
<description></description>
<Point>
<coordinates>130.9095916748047,33.48975372314453,0</coordinates>
</Point>
</Placemark>
<Placemark>
<name>ひな尻</name>
<description></description>
<Point>
<coordinates>130.66702270507812,33.78618240356445,0</coordinates>
</Point>
</Placemark>
<Placemark>
<name>ひばりが丘西口</name>
<description></description>
<Point>
<coordinates>130.48899841308594,33.5649528503418,0</coordinates>
</Point>
</Placemark>
<Placemark>
<name>ひばりが丘団地</name>
<description></description>
<Point>
<coordinates>130.4905548095703,33.566978454589844,0</coordinates>
</Point>
</Placemark>
<Placemark>
<name>ひばりが丘入口</name>
<description></description>
<Point>
<coordinates>130.49476623535156,33.56925964355469,0</coordinates>
</Point>
</Placemark>
<Placemark>
<name>ひばりヶ丘</name>
<description></description>
<Point>
<coordinates>130.63259887695312,33.41078186035156,0</coordinates>
</Point>
</Placemark>
<Placemark>
<name>ひばりヶ丘団地前</name>
<description></description>
<Point>
<coordinates>130.4772186279297,33.01286697387695,0</coordinates>
</Point>
</Placemark>
<Placemark>
<name>ひびきの西</name>
<description></description>
<Point>
<coordinates>130.70616149902344,33.888282775878906,0</coordinates>
</Point>
</Placemark>
<Placemark>
<name>ひびきの東</name>
<description></description>
<Point>
<coordinates>130.71670532226562,33.89138412475586,0</coordinates>
</Point>
</Placemark>
<Placemark>
<name>ひびきの南</name>
<description></description>
<Point>
<coordinates>130.7100372314453,33.88734817504883,0</coordinates>
</Point>
</Placemark>
<Placemark>
<name>ひびきの南一丁目</name>
<description></description>
<Point>
<coordinates>130.71498107910156,33.888648986816406,0</coordinates>
</Point>
</Placemark>
<Placemark>
<name>ひびき学園入口</name>
<description></description>
<Point>
<coordinates>130.74957275390625,33.92273712158203,0</coordinates>
</Point>
</Placemark>
<Placemark>
<name>ひびき信用金庫前</name>
<description></description>
<Point>
<coordinates>130.81591796875,33.87163543701172,0</coordinates>
</Point>
</Placemark>
<Placemark>
<name>ひまわり園</name>
<description></description>
<Point>
<coordinates>130.75244140625,33.53047180175781,0</coordinates>
</Point>
</Placemark>
<Placemark>
<name>ひまわり台</name>
<description></description>
<Point>
<coordinates>130.48509216308594,33.49802780151367,0</coordinates>
</Point>
</Placemark>
<Placemark>
<name>ひまわり保育園</name>
<description></description>
<Point>
<coordinates>130.97003173828125,33.750213623046875,0</coordinates>
</Point>
</Placemark>
<Placemark>
<name>ひろかわ薬局前</name>
<description></description>
<Point>
<coordinates>130.5398406982422,33.24250411987305,0</coordinates>
</Point>
</Placemark>
<Placemark>
<name>ファミリーマート前</name>
<description></description>
<Point>
<coordinates>130.9073028564453,33.884483337402344,0</coordinates>
</Point>
</Placemark>
<Placemark>
<name>ふくとぴあ</name>
<description></description>
<Point>
<coordinates>130.4944305419922,33.7701530456543,0</coordinates>
</Point>
</Placemark>
<Placemark>
<name>ふくれん前</name>
<description></description>
<Point>
<coordinates>130.68922424316406,33.41765213012695,0</coordinates>
</Point>
</Placemark>
<Placemark>
<name>ふれあいの里</name>
<description></description>
<Point>
<coordinates>130.6662139892578,33.83350372314453,0</coordinates>
</Point>
</Placemark>
<Placemark>
<name>ふれあいの里</name>
<description></description>
<Point>
<coordinates>131.16888427734375,33.55661392211914,0</coordinates>
</Point>
</Placemark>
<Placemark>
<name>ふれあいハウス</name>
<description></description>
<Point>
<coordinates>130.76918029785156,33.56201171875,0</coordinates>
</Point>
</Placemark>
<Placemark>
<name>ふれあい館三国</name>
<description></description>
<Point>
<coordinates>130.5630340576172,33.424434661865234,0</coordinates>
</Point>
</Placemark>
<Placemark>
<name>ふれあい広場ふくま</name>
<description></description>
<Point>
<coordinates>130.5032501220703,33.76029586791992,0</coordinates>
</Point>
</Placemark>
<Placemark>
<name>ふれあい文化センター前</name>
<description></description>
<Point>
<coordinates>130.45449829101562,33.52777099609375,0</coordinates>
</Point>
</Placemark>
<Placemark>
<name>ふ頭一丁目</name>
<description></description>
<Point>
<coordinates>130.41297912597656,33.62373733520508,0</coordinates>
</Point>
</Placemark>
<Placemark>
<name>ふ頭五丁目</name>
<description></description>
<Point>
<coordinates>130.4165496826172,33.63459396362305,0</coordinates>
</Point>
</Placemark>
<Placemark>
<name>ふ頭西</name>
<description></description>
<Point>
<coordinates>130.4136505126953,33.62732696533203,0</coordinates>
</Point>
</Placemark>
<Placemark>
<name>ふ頭中央</name>
<description></description>
<Point>
<coordinates>130.41517639160156,33.63106918334961,0</coordinates>
</Point>
</Placemark>
<Placemark>
<name>ベスト電器前</name>
<description></description>
<Point>
<coordinates>130.48619079589844,33.76974868774414,0</coordinates>
</Point>
</Placemark>
<Placemark>
<name>ヘルスC＆Cセンター（旧ピアジェ久山）</name>
<description></description>
<Point>
<coordinates>130.51722717285156,33.64020538330078,0</coordinates>
</Point>
</Placemark>
<Placemark>
<name>べんがら村（第2駐車場前）</name>
<description></description>
<Point>
<coordinates>130.5668487548828,33.203304290771484,0</coordinates>
</Point>
</Placemark>
<Placemark>
<name>べんがら村</name>
<description></description>
<Point>
<coordinates>130.5668487548828,33.203304290771484,0</coordinates>
</Point>
</Placemark>
<Placemark>
<name>ほたるの館前</name>
<description></description>
<Point>
<coordinates>130.64382934570312,33.23896789550781,0</coordinates>
</Point>
</Placemark>
<Placemark>
<name>ホテルクラウンパレス北九州</name>
<description></description>
<Point>
<coordinates>130.76156616210938,33.85822677612305,0</coordinates>
</Point>
</Placemark>
<Placemark>
<name>ポリテクセンター飯塚</name>
<description></description>
<Point>
<coordinates>130.7036895751953,33.64324188232422,0</coordinates>
</Point>
</Placemark>
<Placemark>
<name>ますだ歯科前</name>
<description></description>
<Point>
<coordinates>130.97787475585938,33.759063720703125,0</coordinates>
</Point>
</Placemark>
<Placemark>
<name>まどかぴあ</name>
<description></description>
<Point>
<coordinates>130.48020935058594,33.53481674194336,0</coordinates>
</Point>
</Placemark>
<Placemark>
<name>まほろばセンター</name>
<description></description>
<Point>
<coordinates>130.39369201660156,33.13051986694336,0</coordinates>
</Point>
</Placemark>
<Placemark>
<name>マミーズ</name>
<description></description>
<Point>
<coordinates>130.3805694580078,33.17679977416992,0</coordinates>
</Point>
</Placemark>
<Placemark>
<name>マリナタウン第一</name>
<description></description>
<Point>
<coordinates>130.3355255126953,33.5908317565918,0</coordinates>
</Point>
</Placemark>
<Placemark>
<name>マリナタウン第二</name>
<description></description>
<Point>
<coordinates>130.33642578125,33.594268798828125,0</coordinates>
</Point>
</Placemark>
<Placemark>
<name>マリナタウン入口</name>
<description></description>
<Point>
<coordinates>130.3323516845703,33.59001159667969,0</coordinates>
</Point>
</Placemark>
<Placemark>
<name>マリノアシティ福岡</name>
<description></description>
<Point>
<coordinates>130.32083129882812,33.595863342285156,0</coordinates>
</Point>
</Placemark>
<Placemark>
<name>マリンメッセ前</name>
<description></description>
<Point>
<coordinates>130.40328979492188,33.607582092285156,0</coordinates>
</Point>
</Placemark>
<Placemark>
<name>マリンメッセ南口</name>
<description></description>
<Point>
<coordinates>130.4048614501953,33.60649490356445,0</coordinates>
</Point>
</Placemark>
<Placemark>
<name>マリンワールド海の中道</name>
<description></description>
<Point>
<coordinates>130.3622283935547,33.6628532409668,0</coordinates>
</Point>
</Placemark>
<Placemark>
<name>マルショク</name>
<description></description>
<Point>
<coordinates>130.9015655517578,33.8823356628418,0</coordinates>
</Point>
</Placemark>
<Placemark>
<name>みくに野団地</name>
<description></description>
<Point>
<coordinates>130.5623779296875,33.442195892333984,0</coordinates>
</Point>
</Placemark>
<Placemark>
<name>みくに野団地西</name>
<description></description>
<Point>
<coordinates>130.55856323242188,33.44198989868164,0</coordinates>
</Point>
</Placemark>
<Placemark>
<name>みくに野団地第3</name>
<description></description>
<Point>
<coordinates>130.56185913085938,33.44440841674805,0</coordinates>
</Point>
</Placemark>
<Placemark>
<name>みくに野東第1</name>
<description></description>
<Point>
<coordinates>130.5630645751953,33.431190490722656,0</coordinates>
</Point>
</Placemark>
<Placemark>
<name>みくに野東第2</name>
<description></description>
<Point>
<coordinates>130.56260681152344,33.42898941040039,0</coordinates>
</Point>
</Placemark>
<Placemark>
<name>みずがめの郷</name>
<description></description>
<Point>
<coordinates>130.51853942871094,33.76657485961914,0</coordinates>
</Point>
</Placemark>
<Placemark>
<name>ミスターマックス</name>
<description></description>
<Point>
<coordinates>130.72938537597656,33.78450012207031,0</coordinates>
</Point>
</Placemark>
<Placemark>
<name>ミスターマックス横</name>
<description></description>
<Point>
<coordinates>130.66644287109375,33.640480041503906,0</coordinates>
</Point>
</Placemark>
<Placemark>
<name>みどりが丘一丁目</name>
<description></description>
<Point>
<coordinates>130.4676055908203,33.6488037109375,0</coordinates>
</Point>
</Placemark>
<Placemark>
<name>みどりが丘三丁目</name>
<description></description>
<Point>
<coordinates>130.47288513183594,33.64556884765625,0</coordinates>
</Point>
</Placemark>
<Placemark>
<name>みどりが丘団地</name>
<description></description>
<Point>
<coordinates>130.46914672851562,33.64817428588867,0</coordinates>
</Point>
</Placemark>
<Placemark>
<name>みどりが丘団地入口</name>
<description></description>
<Point>
<coordinates>130.4747314453125,33.64418029785156,0</coordinates>
</Point>
</Placemark>
<Placemark>
<name>みどりが丘中央公園前</name>
<description></description>
<Point>
<coordinates>130.47027587890625,33.64741134643555,0</coordinates>
</Point>
</Placemark>
<Placemark>
<name>みどりヶ丘</name>
<description></description>
<Point>
<coordinates>130.97254943847656,33.75660705566406,0</coordinates>
</Point>
</Placemark>
<Placemark>
<name>みどりヶ丘団地</name>
<description></description>
<Point>
<coordinates>130.96844482421875,33.756263732910156,0</coordinates>
</Point>
</Placemark>
<Placemark>
<name>みどりヶ丘入口</name>
<description></description>
<Point>
<coordinates>130.96905517578125,33.75548553466797,0</coordinates>
</Point>
</Placemark>
<Placemark>
<name>みどり公園</name>
<description></description>
<Point>
<coordinates>130.5002899169922,33.52875900268555,0</coordinates>
</Point>
</Placemark>
<Placemark>
<name>みなと公園前</name>
<description></description>
<Point>
<coordinates>130.4140625,33.65067672729492,0</coordinates>
</Point>
</Placemark>
<Placemark>
<name>ミリカローデン那珂川</name>
<description></description>
<Point>
<coordinates>130.42770385742188,33.50775909423828,0</coordinates>
</Point>
</Placemark>
<Placemark>
<name>むさしケ丘公民館前</name>
<description></description>
<Point>
<coordinates>130.52622985839844,33.47140121459961,0</coordinates>
</Point>
</Placemark>
<Placemark>
<name>メイトム宗像</name>
<description></description>
<Point>
<coordinates>130.54736328125,33.79623031616211,0</coordinates>
</Point>
</Placemark>
<Placemark>
<name>めくばーる</name>
<description></description>
<Point>
<coordinates>130.63514709472656,33.433597564697266,0</coordinates>
</Point>
</Placemark>
<Placemark>
<name>めぐみ保育園</name>
<description></description>
<Point>
<coordinates>130.50364685058594,33.58647918701172,0</coordinates>
</Point>
</Placemark>
<Placemark>
<name>メタセの杜</name>
<description></description>
<Point>
<coordinates>131.01229858398438,33.674320220947266,0</coordinates>
</Point>
</Placemark>
<Placemark>
<name>ももち浜クリニックゾーン</name>
<description></description>
<Point>
<coordinates>130.34815979003906,33.59017562866211,0</coordinates>
</Point>
</Placemark>
<Placemark>
<name>ももち浜クリニックゾーン前</name>
<description></description>
<Point>
<coordinates>130.34815979003906,33.59017562866211,0</coordinates>
</Point>
</Placemark>
<Placemark>
<name>モリティス整備工場前</name>
<description></description>
<Point>
<coordinates>130.55857849121094,33.21928405761719,0</coordinates>
</Point>
</Placemark>
<Placemark>
<name>ヤクルト裏口</name>
<description></description>
<Point>
<coordinates>130.7310333251953,33.64970016479492,0</coordinates>
</Point>
</Placemark>
<Placemark>
<name>ヤフードーム前</name>
<description></description>
<Point>
<coordinates>130.36514282226562,33.592254638671875,0</coordinates>
</Point>
</Placemark>
<Placemark>
<name>やよい坂</name>
<description></description>
<Point>
<coordinates>130.4081268310547,33.53049087524414,0</coordinates>
</Point>
</Placemark>
<Placemark>
<name>ゆいのもり入口</name>
<description></description>
<Point>
<coordinates>130.82769775390625,33.14591979980469,0</coordinates>
</Point>
</Placemark>
<Placemark>
<name>ゆうひが丘</name>
<description></description>
<Point>
<coordinates>130.75985717773438,33.568443298339844,0</coordinates>
</Point>
</Placemark>
<Placemark>
<name>ゆうひが丘南</name>
<description></description>
<Point>
<coordinates>130.76174926757812,33.56704330444336,0</coordinates>
</Point>
</Placemark>
<Placemark>
<name>ゆうひが丘北</name>
<description></description>
<Point>
<coordinates>130.76014709472656,33.57013702392578,0</coordinates>
</Point>
</Placemark>
<Placemark>
<name>ゆうゆうぷらざ</name>
<description></description>
<Point>
<coordinates>130.4902801513672,33.84598922729492,0</coordinates>
</Point>
</Placemark>
<Placemark>
<name>ゆめタウン</name>
<description></description>
<Point>
<coordinates>130.66896057128906,33.85150909423828,0</coordinates>
</Point>
</Placemark>
<Placemark>
<name>ゆめタウン</name>
<description></description>
<Point>
<coordinates>130.96923828125,33.72003173828125,0</coordinates>
</Point>
</Placemark>
<Placemark>
<name>ゆめタウン西</name>
<description></description>
<Point>
<coordinates>130.66873168945312,33.852752685546875,0</coordinates>
</Point>
</Placemark>
<Placemark>
<name>ゆめタウン前</name>
<description></description>
<Point>
<coordinates>130.54733276367188,33.214454650878906,0</coordinates>
</Point>
</Placemark>
<Placemark>
<name>ゆめタウン大牟田</name>
<description></description>
<Point>
<coordinates>130.45233154296875,33.03673553466797,0</coordinates>
</Point>
</Placemark>
<Placemark>
<name>ゆめタウン博多</name>
<description></description>
<Point>
<coordinates>130.412841796875,33.61332321166992,0</coordinates>
</Point>
</Placemark>
<Placemark>
<name>リサーチパーク西口</name>
<description></description>
<Point>
<coordinates>130.60531616210938,33.7948112487793,0</coordinates>
</Point>
</Placemark>
<Placemark>
<name>リサイクルプラザ前</name>
<description></description>
<Point>
<coordinates>130.42144775390625,33.63837814331055,0</coordinates>
</Point>
</Placemark>
<Placemark>
<name>リハビリテーション病院</name>
<description></description>
<Point>
<coordinates>130.403076171875,33.15515899658203,0</coordinates>
</Point>
</Placemark>
<Placemark>
<name>ル・フォン前</name>
<description></description>
<Point>
<coordinates>130.9951934814453,33.75232696533203,0</coordinates>
</Point>
</Placemark>
<Placemark>
<name>ルミエール</name>
<description></description>
<Point>
<coordinates>131.04776000976562,33.66790008544922,0</coordinates>
</Point>
</Placemark>
<Placemark>
<name>ルミエール苅田</name>
<description></description>
<Point>
<coordinates>130.97825622558594,33.74738693237305,0</coordinates>
</Point>
</Placemark>
<Placemark>
<name>レイクタウン</name>
<description></description>
<Point>
<coordinates>130.48953247070312,33.54144287109375,0</coordinates>
</Point>
</Placemark>
<Placemark>
<name>レインボーモータースクール前</name>
<description></description>
<Point>
<coordinates>130.44297790527344,33.7024040222168,0</coordinates>
</Point>
</Placemark>
<Placemark>
<name>レークヒルズ中央</name>
<description></description>
<Point>
<coordinates>130.4179229736328,33.54365921020508,0</coordinates>
</Point>
</Placemark>
<Placemark>
<name>レークヒルズ入口</name>
<description></description>
<Point>
<coordinates>130.4187774658203,33.54167938232422,0</coordinates>
</Point>
</Placemark>
<Placemark>
<name>レークヒルズ野多目</name>
<description></description>
<Point>
<coordinates>130.41961669921875,33.54422378540039,0</coordinates>
</Point>
</Placemark>
<Placemark>
<name>レスポアール（商工会前）</name>
<description></description>
<Point>
<coordinates>130.507080078125,33.645301818847656,0</coordinates>
</Point>
</Placemark>
<Placemark>
<name>レスポアール前</name>
<description></description>
<Point>
<coordinates>130.507080078125,33.645301818847656,0</coordinates>
</Point>
</Placemark>
<Placemark>
<name>レトロ桟橋通（1）</name>
<description></description>
<Point>
<coordinates>130.96273803710938,33.943336486816406,0</coordinates>
</Point>
</Placemark>
<Placemark>
<name>レトロ桟橋通（2）</name>
<description></description>
<Point>
<coordinates>130.9647216796875,33.943931579589844,0</coordinates>
</Point>
</Placemark>
<Placemark>
<name>レトロ桟橋通（3）</name>
<description></description>
<Point>
<coordinates>130.96450805664062,33.94503402709961,0</coordinates>
</Point>
</Placemark>
<Placemark>
<name>レトロ桟橋通（4）</name>
<description></description>
<Point>
<coordinates>130.96450805664062,33.94503402709961,0</coordinates>
</Point>
</Placemark>
<Placemark>
<name>レトロ桟橋通（5）</name>
<description></description>
<Point>
<coordinates>130.96432495117188,33.94423294067383,0</coordinates>
</Point>
</Placemark>
<Placemark>
<name>レトロ桟橋通（6）</name>
<description></description>
<Point>
<coordinates>130.96534729003906,33.943626403808594,0</coordinates>
</Point>
</Placemark>
<Placemark>
<name>レトロ鎮西橋</name>
<description></description>
<Point>
<coordinates>130.96617126464844,33.9471549987793,0</coordinates>
</Point>
</Placemark>
<Placemark>
<name>レトロ展望室</name>
<description></description>
<Point>
<coordinates>130.96408081054688,33.94931411743164,0</coordinates>
</Point>
</Placemark>
<Placemark>
<name>レトロ東本町一丁目</name>
<description></description>
<Point>
<coordinates>130.96694946289062,33.948795318603516,0</coordinates>
</Point>
</Placemark>
<Placemark>
<name>ローソン宮田町店</name>
<description></description>
<Point>
<coordinates>130.8179473876953,33.87882614135742,0</coordinates>
</Point>
</Placemark>
<Placemark>
<name>ローソン常持店前</name>
<description></description>
<Point>
<coordinates>130.62734985351562,33.32762908935547,0</coordinates>
</Point>
</Placemark>
<Placemark>
<name>ローム福岡</name>
<description></description>
<Point>
<coordinates>131.02369689941406,33.68766403198242,0</coordinates>
</Point>
</Placemark>
<Placemark>
<name>阿恵</name>
<description></description>
<Point>
<coordinates>130.64981079101562,33.56529998779297,0</coordinates>
</Point>
</Placemark>
<Placemark>
<name>阿恵宮前</name>
<description></description>
<Point>
<coordinates>130.64772033691406,33.56634521484375,0</coordinates>
</Point>
</Placemark>
<Placemark>
<name>愛の家車庫</name>
<description></description>
<Point>
<coordinates>130.85479736328125,33.86214065551758,0</coordinates>
</Point>
</Placemark>
<Placemark>
<name>愛の家前</name>
<description></description>
<Point>
<coordinates>130.8572235107422,33.86157989501953,0</coordinates>
</Point>
</Placemark>
<Placemark>
<name>愛菜の家</name>
<description></description>
<Point>
<coordinates>130.71177673339844,33.72285461425781,0</coordinates>
</Point>
</Placemark>
<Placemark>
<name>愛宕</name>
<description></description>
<Point>
<coordinates>130.69659423828125,33.65359115600586,0</coordinates>
</Point>
</Placemark>
<Placemark>
<name>愛宕一丁目（都市高速下）</name>
<description></description>
<Point>
<coordinates>130.33412170410156,33.58076858520508,0</coordinates>
</Point>
</Placemark>
<Placemark>
<name>愛宕一丁目</name>
<description></description>
<Point>
<coordinates>130.3330078125,33.58149337768555,0</coordinates>
</Point>
</Placemark>
<Placemark>
<name>愛宕下</name>
<description></description>
<Point>
<coordinates>130.33639526367188,33.5822639465332,0</coordinates>
</Point>
</Placemark>
<Placemark>
<name>愛宕公園入口</name>
<description></description>
<Point>
<coordinates>130.70465087890625,33.65102767944336,0</coordinates>
</Point>
</Placemark>
<Placemark>
<name>愛宕公民館前</name>
<description></description>
<Point>
<coordinates>130.34083557128906,33.587520599365234,0</coordinates>
</Point>
</Placemark>
<Placemark>
<name>愛宕四丁目</name>
<description></description>
<Point>
<coordinates>130.34124755859375,33.587303161621094,0</coordinates>
</Point>
</Placemark>
<Placemark>
<name>愛宕神社</name>
<description></description>
<Point>
<coordinates>130.74169921875,33.825923919677734,0</coordinates>
</Point>
</Placemark>
<Placemark>
<name>愛宕神社</name>
<description></description>
<Point>
<coordinates>130.8627471923828,33.884239196777344,0</coordinates>
</Point>
</Placemark>
<Placemark>
<name>愛宕団地</name>
<description></description>
<Point>
<coordinates>130.7054443359375,33.652896881103516,0</coordinates>
</Point>
</Placemark>
<Placemark>
<name>愛宕団地集会所</name>
<description></description>
<Point>
<coordinates>130.7049560546875,33.64836502075195,0</coordinates>
</Point>
</Placemark>
<Placemark>
<name>愛宕南</name>
<description></description>
<Point>
<coordinates>130.3286590576172,33.57920455932617,0</coordinates>
</Point>
</Placemark>
<Placemark>
<name>愛宕二丁目</name>
<description></description>
<Point>
<coordinates>130.33450317382812,33.582916259765625,0</coordinates>
</Point>
</Placemark>
<Placemark>
<name>愛宕浜一丁目</name>
<description></description>
<Point>
<coordinates>130.336181640625,33.59199905395508,0</coordinates>
</Point>
</Placemark>
<Placemark>
<name>愛宕浜三丁目</name>
<description></description>
<Point>
<coordinates>130.3291778564453,33.59579086303711,0</coordinates>
</Point>
</Placemark>
<Placemark>
<name>愛宕浜四丁目</name>
<description></description>
<Point>
<coordinates>130.33062744140625,33.591407775878906,0</coordinates>
</Point>
</Placemark>
<Placemark>
<name>愛宕浜二丁目</name>
<description></description>
<Point>
<coordinates>130.33493041992188,33.59455871582031,0</coordinates>
</Point>
</Placemark>
<Placemark>
<name>旭ケ丘</name>
<description></description>
<Point>
<coordinates>130.4871063232422,33.508872985839844,0</coordinates>
</Point>
</Placemark>
<Placemark>
<name>旭ケ丘公園前</name>
<description></description>
<Point>
<coordinates>130.48362731933594,33.50892639160156,0</coordinates>
</Point>
</Placemark>
<Placemark>
<name>旭ヶ丘児童遊園</name>
<description></description>
<Point>
<coordinates>130.49356079101562,33.589778900146484,0</coordinates>
</Point>
</Placemark>
<Placemark>
<name>旭ヶ丘団地</name>
<description></description>
<Point>
<coordinates>130.947265625,33.74773406982422,0</coordinates>
</Point>
</Placemark>
<Placemark>
<name>旭硝子前</name>
<description></description>
<Point>
<coordinates>130.8136444091797,33.887081146240234,0</coordinates>
</Point>
</Placemark>
<Placemark>
<name>旭西</name>
<description></description>
<Point>
<coordinates>130.6183624267578,33.8548469543457,0</coordinates>
</Point>
</Placemark>
<Placemark>
<name>旭中</name>
<description></description>
<Point>
<coordinates>130.6211395263672,33.854949951171875,0</coordinates>
</Point>
</Placemark>
<Placemark>
<name>旭町</name>
<description></description>
<Point>
<coordinates>130.45034790039062,33.03702926635742,0</coordinates>
</Point>
</Placemark>
<Placemark>
<name>旭町団地前</name>
<description></description>
<Point>
<coordinates>130.50917053222656,33.324275970458984,0</coordinates>
</Point>
</Placemark>
<Placemark>
<name>旭東</name>
<description></description>
<Point>
<coordinates>130.6212615966797,33.857330322265625,0</coordinates>
</Point>
</Placemark>
<Placemark>
<name>芦屋競艇場入口</name>
<description></description>
<Point>
<coordinates>130.66859436035156,33.87565612792969,0</coordinates>
</Point>
</Placemark>
<Placemark>
<name>芦屋橋</name>
<description></description>
<Point>
<coordinates>130.6649169921875,33.89517593383789,0</coordinates>
</Point>
</Placemark>
<Placemark>
<name>芦屋小学校前</name>
<description></description>
<Point>
<coordinates>130.66102600097656,33.893253326416016,0</coordinates>
</Point>
</Placemark>
<Placemark>
<name>芦屋総合体育館前</name>
<description></description>
<Point>
<coordinates>130.67347717285156,33.90003967285156,0</coordinates>
</Point>
</Placemark>
<Placemark>
<name>芦屋中央病院前</name>
<description></description>
<Point>
<coordinates>130.65960693359375,33.89429473876953,0</coordinates>
</Point>
</Placemark>
<Placemark>
<name>芦屋中学校前</name>
<description></description>
<Point>
<coordinates>130.66481018066406,33.89146423339844,0</coordinates>
</Point>
</Placemark>
<Placemark>
<name>芦屋町役場前</name>
<description></description>
<Point>
<coordinates>130.66355895996094,33.89411163330078,0</coordinates>
</Point>
</Placemark>
<Placemark>
<name>芦北</name>
<description></description>
<Point>
<coordinates>130.6929168701172,33.68653869628906,0</coordinates>
</Point>
</Placemark>
<Placemark>
<name>芦北バス停</name>
<description></description>
<Point>
<coordinates>130.6929168701172,33.68653869628906,0</coordinates>
</Point>
</Placemark>
<Placemark>
<name>粟屋</name>
<description></description>
<Point>
<coordinates>130.65211486816406,33.873165130615234,0</coordinates>
</Point>
</Placemark>
<Placemark>
<name>粟屋入口</name>
<description></description>
<Point>
<coordinates>130.65660095214844,33.87466812133789,0</coordinates>
</Point>
</Placemark>
<Placemark>
<name>粟島神社前</name>
<description></description>
<Point>
<coordinates>130.4876708984375,33.75116729736328,0</coordinates>
</Point>
</Placemark>
<Placemark>
<name>安井医院前</name>
<description></description>
<Point>
<coordinates>130.97439575195312,33.775020599365234,0</coordinates>
</Point>
</Placemark>
<Placemark>
<name>安雲ゲートボール場</name>
<description></description>
<Point>
<coordinates>131.13841247558594,33.57471466064453,0</coordinates>
</Point>
</Placemark>
<Placemark>
<name>安雲貴富観音前</name>
<description></description>
<Point>
<coordinates>131.13818359375,33.5733642578125,0</coordinates>
</Point>
</Placemark>
<Placemark>
<name>安屋</name>
<description></description>
<Point>
<coordinates>130.72332763671875,33.92966842651367,0</coordinates>
</Point>
</Placemark>
<Placemark>
<name>安河内</name>
<description></description>
<Point>
<coordinates>130.581787109375,33.690067291259766,0</coordinates>
</Point>
</Placemark>
<Placemark>
<name>安丸</name>
<description></description>
<Point>
<coordinates>130.7257843017578,33.63114929199219,0</coordinates>
</Point>
</Placemark>
<Placemark>
<name>安丸口</name>
<description></description>
<Point>
<coordinates>130.7308807373047,33.63039016723633,0</coordinates>
</Point>
</Placemark>
<Placemark>
<name>安居野</name>
<description></description>
<Point>
<coordinates>130.56736755371094,33.316680908203125,0</coordinates>
</Point>
</Placemark>
<Placemark>
<name>安恒</name>
<description></description>
<Point>
<coordinates>130.66139221191406,33.613277435302734,0</coordinates>
</Point>
</Placemark>
<Placemark>
<name>安勝寺</name>
<description></description>
<Point>
<coordinates>131.18557739257812,33.54895782470703,0</coordinates>
</Point>
</Placemark>
<Placemark>
<name>安瀬</name>
<description></description>
<Point>
<coordinates>130.81272888183594,33.91965103149414,0</coordinates>
</Point>
</Placemark>
<Placemark>
<name>安瀬口</name>
<description></description>
<Point>
<coordinates>130.8098602294922,33.92006301879883,0</coordinates>
</Point>
</Placemark>
<Placemark>
<name>安川通</name>
<description></description>
<Point>
<coordinates>130.96827697753906,33.72347640991211,0</coordinates>
</Point>
</Placemark>
<Placemark>
<name>安全協会前</name>
<description></description>
<Point>
<coordinates>131.1190643310547,33.60713195800781,0</coordinates>
</Point>
</Placemark>
<Placemark>
<name>安宅下原</name>
<description></description>
<Point>
<coordinates>130.82504272460938,33.55879592895508,0</coordinates>
</Point>
</Placemark>
<Placemark>
<name>安宅戸頃</name>
<description></description>
<Point>
<coordinates>130.82212829589844,33.542118072509766,0</coordinates>
</Point>
</Placemark>
<Placemark>
<name>安宅公民館</name>
<description></description>
<Point>
<coordinates>130.82464599609375,33.54899978637695,0</coordinates>
</Point>
</Placemark>
<Placemark>
<name>安宅上戸頃</name>
<description></description>
<Point>
<coordinates>130.82180786132812,33.54096984863281,0</coordinates>
</Point>
</Placemark>
<Placemark>
<name>安宅長野</name>
<description></description>
<Point>
<coordinates>130.82321166992188,33.54092025756836,0</coordinates>
</Point>
</Placemark>
<Placemark>
<name>安宅入口</name>
<description></description>
<Point>
<coordinates>130.82244873046875,33.56072998046875,0</coordinates>
</Point>
</Placemark>
<Placemark>
<name>安宅馬場橋</name>
<description></description>
<Point>
<coordinates>130.8231964111328,33.55201721191406,0</coordinates>
</Point>
</Placemark>
<Placemark>
<name>安宅八熊橋</name>
<description></description>
<Point>
<coordinates>130.82452392578125,33.554840087890625,0</coordinates>
</Point>
</Placemark>
<Placemark>
<name>安宅不動</name>
<description></description>
<Point>
<coordinates>130.82308959960938,33.54352951049805,0</coordinates>
</Point>
</Placemark>
<Placemark>
<name>安宅不動橋</name>
<description></description>
<Point>
<coordinates>130.82321166992188,33.545833587646484,0</coordinates>
</Point>
</Placemark>
<Placemark>
<name>安徳</name>
<description></description>
<Point>
<coordinates>130.4293670654297,33.495697021484375,0</coordinates>
</Point>
</Placemark>
<Placemark>
<name>安徳公園前</name>
<description></description>
<Point>
<coordinates>130.4325714111328,33.51923751831055,0</coordinates>
</Point>
</Placemark>
<Placemark>
<name>安徳公園南口</name>
<description></description>
<Point>
<coordinates>130.43057250976562,33.516929626464844,0</coordinates>
</Point>
</Placemark>
<Placemark>
<name>安徳公民館前</name>
<description></description>
<Point>
<coordinates>130.4265899658203,33.49825668334961,0</coordinates>
</Point>
</Placemark>
<Placemark>
<name>安徳小学校</name>
<description></description>
<Point>
<coordinates>130.4354248046875,33.5107536315918,0</coordinates>
</Point>
</Placemark>
<Placemark>
<name>安徳台入口</name>
<description></description>
<Point>
<coordinates>130.42491149902344,33.49810028076172,0</coordinates>
</Point>
</Placemark>
<Placemark>
<name>安徳大塚古墳前</name>
<description></description>
<Point>
<coordinates>130.4311065673828,33.499908447265625,0</coordinates>
</Point>
</Placemark>
<Placemark>
<name>安徳北小</name>
<description></description>
<Point>
<coordinates>130.42929077148438,33.51516342163086,0</coordinates>
</Point>
</Placemark>
<Placemark>
<name>安徳北小学校前</name>
<description></description>
<Point>
<coordinates>130.42929077148438,33.51516342163086,0</coordinates>
</Point>
</Placemark>
<Placemark>
<name>安徳北小学校南</name>
<description></description>
<Point>
<coordinates>130.429931640625,33.513336181640625,0</coordinates>
</Point>
</Placemark>
<Placemark>
<name>安入寺</name>
<description></description>
<Point>
<coordinates>130.77981567382812,33.77141189575195,0</coordinates>
</Point>
</Placemark>
<Placemark>
<name>安武</name>
<description></description>
<Point>
<coordinates>131.00990295410156,33.65073013305664,0</coordinates>
</Point>
</Placemark>
<Placemark>
<name>安武</name>
<description></description>
<Point>
<coordinates>130.48663330078125,33.28461837768555,0</coordinates>
</Point>
</Placemark>
<Placemark>
<name>安武下方</name>
<description></description>
<Point>
<coordinates>131.01034545898438,33.65723419189453,0</coordinates>
</Point>
</Placemark>
<Placemark>
<name>安武学校前</name>
<description></description>
<Point>
<coordinates>130.47608947753906,33.29338836669922,0</coordinates>
</Point>
</Placemark>
<Placemark>
<name>安武寺門</name>
<description></description>
<Point>
<coordinates>131.00843811035156,33.658531188964844,0</coordinates>
</Point>
</Placemark>
<Placemark>
<name>安武堤防</name>
<description></description>
<Point>
<coordinates>130.482177734375,33.301734924316406,0</coordinates>
</Point>
</Placemark>
<Placemark>
<name>安部山公園</name>
<description></description>
<Point>
<coordinates>130.909423828125,33.84959030151367,0</coordinates>
</Point>
</Placemark>
<Placemark>
<name>安部山公園口</name>
<description></description>
<Point>
<coordinates>130.90716552734375,33.848426818847656,0</coordinates>
</Point>
</Placemark>
<Placemark>
<name>安部山入口</name>
<description></description>
<Point>
<coordinates>130.90269470214844,33.845523834228516,0</coordinates>
</Point>
</Placemark>
<Placemark>
<name>鞍掛</name>
<description></description>
<Point>
<coordinates>130.499755859375,33.76046371459961,0</coordinates>
</Point>
</Placemark>
<Placemark>
<name>鞍手駅</name>
<description></description>
<Point>
<coordinates>130.6988983154297,33.797733306884766,0</coordinates>
</Point>
</Placemark>
<Placemark>
<name>鞍手局</name>
<description></description>
<Point>
<coordinates>130.68211364746094,33.79021453857422,0</coordinates>
</Point>
</Placemark>
<Placemark>
<name>鞍手高校前</name>
<description></description>
<Point>
<coordinates>130.72096252441406,33.746009826660156,0</coordinates>
</Point>
</Placemark>
<Placemark>
<name>鞍手車庫</name>
<description></description>
<Point>
<coordinates>130.67486572265625,33.790679931640625,0</coordinates>
</Point>
</Placemark>
<Placemark>
<name>鞍手町立病院</name>
<description></description>
<Point>
<coordinates>130.6867218017578,33.78587341308594,0</coordinates>
</Point>
</Placemark>
<Placemark>
<name>鞍手町立病院前</name>
<description></description>
<Point>
<coordinates>130.6867218017578,33.78587341308594,0</coordinates>
</Point>
</Placemark>
<Placemark>
<name>鞍手役場</name>
<description></description>
<Point>
<coordinates>130.67332458496094,33.79241943359375,0</coordinates>
</Point>
</Placemark>
<Placemark>
<name>鞍打</name>
<description></description>
<Point>
<coordinates>130.5161895751953,33.302425384521484,0</coordinates>
</Point>
</Placemark>
<Placemark>
<name>伊岐須</name>
<description></description>
<Point>
<coordinates>130.66571044921875,33.652374267578125,0</coordinates>
</Point>
</Placemark>
<Placemark>
<name>伊岐須公園</name>
<description></description>
<Point>
<coordinates>130.66445922851562,33.65049743652344,0</coordinates>
</Point>
</Placemark>
<Placemark>
<name>伊岐須小学校</name>
<description></description>
<Point>
<coordinates>130.6612548828125,33.65214157104492,0</coordinates>
</Point>
</Placemark>
<Placemark>
<name>伊原</name>
<description></description>
<Point>
<coordinates>130.85733032226562,33.58220672607422,0</coordinates>
</Point>
</Placemark>
<Placemark>
<name>伊左座小学校入口</name>
<description></description>
<Point>
<coordinates>130.69618225097656,33.84213638305664,0</coordinates>
</Point>
</Placemark>
<Placemark>
<name>伊崎</name>
<description></description>
<Point>
<coordinates>130.3704833984375,33.597232818603516,0</coordinates>
</Point>
</Placemark>
<Placemark>
<name>伊川</name>
<description></description>
<Point>
<coordinates>130.6464080810547,33.655792236328125,0</coordinates>
</Point>
</Placemark>
<Placemark>
<name>伊川</name>
<description></description>
<Point>
<coordinates>130.9796905517578,33.9056396484375,0</coordinates>
</Point>
</Placemark>
<Placemark>
<name>伊川温泉口</name>
<description></description>
<Point>
<coordinates>130.64694213867188,33.64868927001953,0</coordinates>
</Point>
</Placemark>
<Placemark>
<name>伊川道</name>
<description></description>
<Point>
<coordinates>130.65158081054688,33.65068817138672,0</coordinates>
</Point>
</Placemark>
<Placemark>
<name>伊田駅</name>
<description></description>
<Point>
<coordinates>130.81732177734375,33.64251708984375,0</coordinates>
</Point>
</Placemark>
<Placemark>
<name>伊田中学校</name>
<description></description>
<Point>
<coordinates>130.8244171142578,33.6525764465332,0</coordinates>
</Point>
</Placemark>
<Placemark>
<name>伊田本町口</name>
<description></description>
<Point>
<coordinates>130.81478881835938,33.644222259521484,0</coordinates>
</Point>
</Placemark>
<Placemark>
<name>伊都国歴史博物館</name>
<description></description>
<Point>
<coordinates>130.25096130371094,33.53795623779297,0</coordinates>
</Point>
</Placemark>
<Placemark>
<name>伊都文化会館</name>
<description></description>
<Point>
<coordinates>130.20455932617188,33.56011199951172,0</coordinates>
</Point>
</Placemark>
<Placemark>
<name>伊方橋</name>
<description></description>
<Point>
<coordinates>130.78822326660156,33.67987823486328,0</coordinates>
</Point>
</Placemark>
<Placemark>
<name>位瀬公園前</name>
<description></description>
<Point>
<coordinates>130.47154235839844,33.514774322509766,0</coordinates>
</Point>
</Placemark>
<Placemark>
<name>位登産業</name>
<description></description>
<Point>
<coordinates>130.78854370117188,33.61585998535156,0</coordinates>
</Point>
</Placemark>
<Placemark>
<name>位登八幡</name>
<description></description>
<Point>
<coordinates>130.7940216064453,33.6090202331543,0</coordinates>
</Point>
</Placemark>
<Placemark>
<name>依井</name>
<description></description>
<Point>
<coordinates>130.64239501953125,33.431331634521484,0</coordinates>
</Point>
</Placemark>
<Placemark>
<name>依井東</name>
<description></description>
<Point>
<coordinates>130.64683532714844,33.429100036621094,0</coordinates>
</Point>
</Placemark>
<Placemark>
<name>医学部前</name>
<description></description>
<Point>
<coordinates>130.5106658935547,33.329227447509766,0</coordinates>
</Point>
</Placemark>
<Placemark>
<name>医師会館・ソフトリサーチパーク前</name>
<description></description>
<Point>
<coordinates>130.3563995361328,33.592750549316406,0</coordinates>
</Point>
</Placemark>
<Placemark>
<name>医師会病院</name>
<description></description>
<Point>
<coordinates>130.6662139892578,33.41028594970703,0</coordinates>
</Point>
</Placemark>
<Placemark>
<name>医師会病院</name>
<description></description>
<Point>
<coordinates>130.52713012695312,33.80084991455078,0</coordinates>
</Point>
</Placemark>
<Placemark>
<name>医師会病院口</name>
<description></description>
<Point>
<coordinates>130.66390991210938,33.409095764160156,0</coordinates>
</Point>
</Placemark>
<Placemark>
<name>医師会病院前</name>
<description></description>
<Point>
<coordinates>130.20211791992188,33.567543029785156,0</coordinates>
</Point>
</Placemark>
<Placemark>
<name>医療団地</name>
<description></description>
<Point>
<coordinates>130.72779846191406,33.780555725097656,0</coordinates>
</Point>
</Placemark>
<Placemark>
<name>井の浦</name>
<description></description>
<Point>
<coordinates>130.97865295410156,33.846309661865234,0</coordinates>
</Point>
</Placemark>
<Placemark>
<name>井ノ浦公園北</name>
<description></description>
<Point>
<coordinates>130.5655517578125,33.43853759765625,0</coordinates>
</Point>
</Placemark>
<Placemark>
<name>井ノ浦口</name>
<description></description>
<Point>
<coordinates>130.677978515625,33.67103958129883,0</coordinates>
</Point>
</Placemark>
<Placemark>
<name>井の浦口</name>
<description></description>
<Point>
<coordinates>130.97348022460938,33.8500862121582,0</coordinates>
</Point>
</Placemark>
<Placemark>
<name>井の口公民館</name>
<description></description>
<Point>
<coordinates>130.49160766601562,33.535987854003906,0</coordinates>
</Point>
</Placemark>
<Placemark>
<name>井ノ口池</name>
<description></description>
<Point>
<coordinates>130.97523498535156,33.77967071533203,0</coordinates>
</Point>
</Placemark>
<Placemark>
<name>井延</name>
<description></description>
<Point>
<coordinates>130.58526611328125,33.2186164855957,0</coordinates>
</Point>
</Placemark>
<Placemark>
<name>井延三ッ角ナチュラル前</name>
<description></description>
<Point>
<coordinates>130.58985900878906,33.22016143798828,0</coordinates>
</Point>
</Placemark>
<Placemark>
<name>井河</name>
<description></description>
<Point>
<coordinates>130.41452026367188,33.519290924072266,0</coordinates>
</Point>
</Placemark>
<Placemark>
<name>井開</name>
<description></description>
<Point>
<coordinates>130.3323516845703,33.561893463134766,0</coordinates>
</Point>
</Placemark>
<Placemark>
<name>井原</name>
<description></description>
<Point>
<coordinates>130.2433319091797,33.52663803100586,0</coordinates>
</Point>
</Placemark>
<Placemark>
<name>井原山入口</name>
<description></description>
<Point>
<coordinates>130.2483367919922,33.49868392944336,0</coordinates>
</Point>
</Placemark>
<Placemark>
<name>井手</name>
<description></description>
<Point>
<coordinates>130.3873291015625,33.536190032958984,0</coordinates>
</Point>
</Placemark>
<Placemark>
<name>井手の古賀</name>
<description></description>
<Point>
<coordinates>130.5173797607422,33.4693603515625,0</coordinates>
</Point>
</Placemark>
<Placemark>
<name>井手の上橋</name>
<description></description>
<Point>
<coordinates>130.7069549560547,33.52753448486328,0</coordinates>
</Point>
</Placemark>
<Placemark>
<name>井手浦</name>
<description></description>
<Point>
<coordinates>130.67095947265625,33.658836364746094,0</coordinates>
</Point>
</Placemark>
<Placemark>
<name>井出浦口</name>
<description></description>
<Point>
<coordinates>130.873779296875,33.776214599609375,0</coordinates>
</Point>
</Placemark>
<Placemark>
<name>井出公民館</name>
<description></description>
<Point>
<coordinates>130.42897033691406,33.18375778198242,0</coordinates>
</Point>
</Placemark>
<Placemark>
<name>井上</name>
<description></description>
<Point>
<coordinates>130.50660705566406,33.56268310546875,0</coordinates>
</Point>
</Placemark>
<Placemark>
<name>井上</name>
<description></description>
<Point>
<coordinates>130.57566833496094,33.40402603149414,0</coordinates>
</Point>
</Placemark>
<Placemark>
<name>井上橋</name>
<description></description>
<Point>
<coordinates>130.76885986328125,33.52458572387695,0</coordinates>
</Point>
</Placemark>
<Placemark>
<name>井上第1住宅西</name>
<description></description>
<Point>
<coordinates>130.5869140625,33.410423278808594,0</coordinates>
</Point>
</Placemark>
<Placemark>
<name>井上南</name>
<description></description>
<Point>
<coordinates>130.57557678222656,33.40237045288086,0</coordinates>
</Point>
</Placemark>
<Placemark>
<name>井上病院前</name>
<description></description>
<Point>
<coordinates>130.22613525390625,33.56023406982422,0</coordinates>
</Point>
</Placemark>
<Placemark>
<name>井尻</name>
<description></description>
<Point>
<coordinates>130.64710998535156,33.63932418823242,0</coordinates>
</Point>
</Placemark>
<Placemark>
<name>井尻一丁目</name>
<description></description>
<Point>
<coordinates>130.4395294189453,33.55577087402344,0</coordinates>
</Point>
</Placemark>
<Placemark>
<name>井尻駅前</name>
<description></description>
<Point>
<coordinates>130.4435272216797,33.5515022277832,0</coordinates>
</Point>
</Placemark>
<Placemark>
<name>井尻駅入口（踏切）</name>
<description></description>
<Point>
<coordinates>130.43992614746094,33.553314208984375,0</coordinates>
</Point>
</Placemark>
<Placemark>
<name>井尻駅入口</name>
<description></description>
<Point>
<coordinates>130.43939208984375,33.55236053466797,0</coordinates>
</Point>
</Placemark>
<Placemark>
<name>井尻交差点</name>
<description></description>
<Point>
<coordinates>130.44146728515625,33.549034118652344,0</coordinates>
</Point>
</Placemark>
<Placemark>
<name>井尻六ツ角</name>
<description></description>
<Point>
<coordinates>130.44232177734375,33.54924392700195,0</coordinates>
</Point>
</Placemark>
<Placemark>
<name>井相田入口</name>
<description></description>
<Point>
<coordinates>130.47146606445312,33.54929733276367,0</coordinates>
</Point>
</Placemark>
<Placemark>
<name>井田</name>
<description></description>
<Point>
<coordinates>130.2338409423828,33.54645919799805,0</coordinates>
</Point>
</Placemark>
<Placemark>
<name>井土</name>
<description></description>
<Point>
<coordinates>130.7252960205078,33.554168701171875,0</coordinates>
</Point>
</Placemark>
<Placemark>
<name>井筒屋前</name>
<description></description>
<Point>
<coordinates>130.97991943359375,33.78294372558594,0</coordinates>
</Point>
</Placemark>
<Placemark>
<name>井堀</name>
<description></description>
<Point>
<coordinates>130.84690856933594,33.88596725463867,0</coordinates>
</Point>
</Placemark>
<Placemark>
<name>井堀</name>
<description></description>
<Point>
<coordinates>130.85537719726562,33.708858489990234,0</coordinates>
</Point>
</Placemark>
<Placemark>
<name>井堀公園</name>
<description></description>
<Point>
<coordinates>130.61183166503906,33.84708786010742,0</coordinates>
</Point>
</Placemark>
<Placemark>
<name>井堀四角</name>
<description></description>
<Point>
<coordinates>130.84857177734375,33.885719299316406,0</coordinates>
</Point>
</Placemark>
<Placemark>
<name>井本マンション前</name>
<description></description>
<Point>
<coordinates>130.98207092285156,33.75067138671875,0</coordinates>
</Point>
</Placemark>
<Placemark>
<name>井牟田</name>
<description></description>
<Point>
<coordinates>130.4840087890625,33.845638275146484,0</coordinates>
</Point>
</Placemark>
<Placemark>
<name>井野本村</name>
<description></description>
<Point>
<coordinates>130.49766540527344,33.56907653808594,0</coordinates>
</Point>
</Placemark>
<Placemark>
<name>亥ノ坂</name>
<description></description>
<Point>
<coordinates>130.4513397216797,33.70435333251953,0</coordinates>
</Point>
</Placemark>
<Placemark>
<name>磯光</name>
<description></description>
<Point>
<coordinates>130.68536376953125,33.720211029052734,0</coordinates>
</Point>
</Placemark>
<Placemark>
<name>磯光旭</name>
<description></description>
<Point>
<coordinates>130.68655395507812,33.72382736206055,0</coordinates>
</Point>
</Placemark>
<Placemark>
<name>磯光入口</name>
<description></description>
<Point>
<coordinates>130.68528747558594,33.732139587402344,0</coordinates>
</Point>
</Placemark>
<Placemark>
<name>磯光郵便局前</name>
<description></description>
<Point>
<coordinates>130.685546875,33.71818542480469,0</coordinates>
</Point>
</Placemark>
<Placemark>
<name>磯光連絡所</name>
<description></description>
<Point>
<coordinates>130.685546875,33.71818542480469,0</coordinates>
</Point>
</Placemark>
<Placemark>
<name>一ツ家</name>
<description></description>
<Point>
<coordinates>130.3417205810547,33.50362777709961,0</coordinates>
</Point>
</Placemark>
<Placemark>
<name>一ッ田</name>
<description></description>
<Point>
<coordinates>130.3477325439453,33.47305679321289,0</coordinates>
</Point>
</Placemark>
<Placemark>
<name>一ッ木</name>
<description></description>
<Point>
<coordinates>130.6645965576172,33.4047737121582,0</coordinates>
</Point>
</Placemark>
<Placemark>
<name>一ッ木神社前</name>
<description></description>
<Point>
<coordinates>130.6609649658203,33.4068717956543,0</coordinates>
</Point>
</Placemark>
<Placemark>
<name>一ノ瀬</name>
<description></description>
<Point>
<coordinates>130.5620880126953,33.16569900512695,0</coordinates>
</Point>
</Placemark>
<Placemark>
<name>一の谷一丁目</name>
<description></description>
<Point>
<coordinates>130.45030212402344,33.52393341064453,0</coordinates>
</Point>
</Placemark>
<Placemark>
<name>一の谷二丁目</name>
<description></description>
<Point>
<coordinates>130.4520721435547,33.52021789550781,0</coordinates>
</Point>
</Placemark>
<Placemark>
<name>一の谷六丁目</name>
<description></description>
<Point>
<coordinates>130.44830322265625,33.52212142944336,0</coordinates>
</Point>
</Placemark>
<Placemark>
<name>一貴山駅入口</name>
<description></description>
<Point>
<coordinates>130.1678466796875,33.53535842895508,0</coordinates>
</Point>
</Placemark>
<Placemark>
<name>一枝</name>
<description></description>
<Point>
<coordinates>130.8407745361328,33.88698196411133,0</coordinates>
</Point>
</Placemark>
<Placemark>
<name>一枝小学校前</name>
<description></description>
<Point>
<coordinates>130.8397979736328,33.88490676879883,0</coordinates>
</Point>
</Placemark>
<Placemark>
<name>一枝入口</name>
<description></description>
<Point>
<coordinates>130.8403778076172,33.88703918457031,0</coordinates>
</Point>
</Placemark>
<Placemark>
<name>一枝北口</name>
<description></description>
<Point>
<coordinates>130.84181213378906,33.88926315307617,0</coordinates>
</Point>
</Placemark>
<Placemark>
<name>一条</name>
<description></description>
<Point>
<coordinates>130.508056640625,33.24336624145508,0</coordinates>
</Point>
</Placemark>
<Placemark>
<name>一丁五反</name>
<description></description>
<Point>
<coordinates>130.72047424316406,33.53596115112305,0</coordinates>
</Point>
</Placemark>
<Placemark>
<name>一丁田</name>
<description></description>
<Point>
<coordinates>130.52639770507812,33.30098342895508,0</coordinates>
</Point>
</Placemark>
<Placemark>
<name>一丁目大通り</name>
<description></description>
<Point>
<coordinates>130.53118896484375,33.7920036315918,0</coordinates>
</Point>
</Placemark>
<Placemark>
<name>一番田</name>
<description></description>
<Point>
<coordinates>130.51242065429688,33.592777252197266,0</coordinates>
</Point>
</Placemark>
<Placemark>
<name>一番田公民館</name>
<description></description>
<Point>
<coordinates>130.51144409179688,33.590415954589844,0</coordinates>
</Point>
</Placemark>
<Placemark>
<name>一番田入口</name>
<description></description>
<Point>
<coordinates>130.50799560546875,33.59230041503906,0</coordinates>
</Point>
</Placemark>
<Placemark>
<name>一部橋</name>
<description></description>
<Point>
<coordinates>130.45108032226562,33.012779235839844,0</coordinates>
</Point>
</Placemark>
<Placemark>
<name>一本松</name>
<description></description>
<Point>
<coordinates>131.14019775390625,33.61931610107422,0</coordinates>
</Point>
</Placemark>
<Placemark>
<name>一本松</name>
<description></description>
<Point>
<coordinates>130.7489013671875,33.68743133544922,0</coordinates>
</Point>
</Placemark>
<Placemark>
<name>一本松</name>
<description></description>
<Point>
<coordinates>130.83587646484375,33.65672302246094,0</coordinates>
</Point>
</Placemark>
<Placemark>
<name>一本木</name>
<description></description>
<Point>
<coordinates>130.40228271484375,33.575992584228516,0</coordinates>
</Point>
</Placemark>
<Placemark>
<name>一里石</name>
<description></description>
<Point>
<coordinates>130.443603515625,33.16340255737305,0</coordinates>
</Point>
</Placemark>
<Placemark>
<name>一里塚</name>
<description></description>
<Point>
<coordinates>130.6578369140625,33.24347686767578,0</coordinates>
</Point>
</Placemark>
<Placemark>
<name>一里塚</name>
<description></description>
<Point>
<coordinates>130.68801879882812,33.408382415771484,0</coordinates>
</Point>
</Placemark>
<Placemark>
<name>一里木</name>
<description></description>
<Point>
<coordinates>130.58602905273438,33.4192008972168,0</coordinates>
</Point>
</Placemark>
<Placemark>
<name>一條</name>
<description></description>
<Point>
<coordinates>130.517822265625,33.24475860595703,0</coordinates>
</Point>
</Placemark>
<Placemark>
<name>一條公民館前</name>
<description></description>
<Point>
<coordinates>130.51495361328125,33.247459411621094,0</coordinates>
</Point>
</Placemark>
<Placemark>
<name>壱岐ヶ丘中学校</name>
<description></description>
<Point>
<coordinates>130.3142852783203,33.54665756225586,0</coordinates>
</Point>
</Placemark>
<Placemark>
<name>壱岐中学校</name>
<description></description>
<Point>
<coordinates>130.3111572265625,33.56205749511719,0</coordinates>
</Point>
</Placemark>