<?xml version="1.0" encoding="UTF-8" ?>
<gpx xmlns="http://www.topografix.com/GPX/1/1" version="1.1" creator="osmtracker-android" xmlns:xsi="http://www.w3.org/2001/XMLSchema-instance" xsi:schemaLocation="http://www.topografix.com/GPX/1/1 http://www.topografix.com/GPX/1/1/gpx.xsd ">
<metadata>
<name><![CDATA[バス停 : 長崎]]></name>
<desc><![CDATA[国土数値情報に基づく]]></desc>
</metadata>
<wpt lat="33.09048843383789" lon="129.79000854492188">
 <time>2015-12-06T02:24:46ZZ</time>
 <name><![CDATA[ハウステンボス]]></name>
</wpt>

<wpt lat="32.81757354736328" lon="130.15347290039062">
 <time>2015-12-06T02:24:46ZZ</time>
 <name><![CDATA[愛野]]></name>
</wpt>

<wpt lat="33.154048919677734" lon="129.77151489257812">
 <time>2015-12-06T02:24:46ZZ</time>
 <name><![CDATA[卸本町入口]]></name>
</wpt>

<wpt lat="32.85194396972656" lon="130.04176330566406">
 <time>2015-12-06T02:24:46ZZ</time>
 <name><![CDATA[県営諫早駅前]]></name>
</wpt>

<wpt lat="33.03617858886719" lon="129.92308044433594">
 <time>2015-12-06T02:24:46ZZ</time>
 <name><![CDATA[江頭]]></name>
</wpt>

<wpt lat="33.05982971191406" lon="129.94845581054688">
 <time>2015-12-06T02:24:46ZZ</time>
 <name><![CDATA[高吉]]></name>
</wpt>

<wpt lat="33.2359504699707" lon="129.6476593017578">
 <time>2015-12-06T02:24:46ZZ</time>
 <name><![CDATA[佐々バスセンター]]></name>
</wpt>

<wpt lat="33.16343688964844" lon="129.72772216796875">
 <time>2015-12-06T02:24:46ZZ</time>
 <name><![CDATA[佐世保バスセンター]]></name>
</wpt>

<wpt lat="33.0599250793457" lon="129.95355224609375">
 <time>2015-12-06T02:24:46ZZ</time>
 <name><![CDATA[坂本郷]]></name>
</wpt>

<wpt lat="33.0482292175293" lon="129.92347717285156">
 <time>2015-12-06T02:24:46ZZ</time>
 <name><![CDATA[山田口]]></name>
</wpt>

<wpt lat="33.175052642822266" lon="129.7172393798828">
 <time>2015-12-06T02:24:46ZZ</time>
 <name><![CDATA[松浦町]]></name>
</wpt>

<wpt lat="33.055782318115234" lon="129.9449920654297">
 <time>2015-12-06T02:24:46ZZ</time>
 <name><![CDATA[菅無田郷]]></name>
</wpt>

<wpt lat="32.93231201171875" lon="129.96853637695312">
 <time>2015-12-06T02:24:46ZZ</time>
 <name><![CDATA[大村インター]]></name>
</wpt>

<wpt lat="33.05302810668945" lon="129.94093322753906">
 <time>2015-12-06T02:24:46ZZ</time>
 <name><![CDATA[大楠]]></name>
</wpt>

<wpt lat="32.78895568847656" lon="129.87098693847656">
 <time>2015-12-06T02:24:46ZZ</time>
 <name><![CDATA[長崎昭和町]]></name>
</wpt>

<wpt lat="32.77350997924805" lon="129.8626708984375">
 <time>2015-12-06T02:24:46ZZ</time>
 <name><![CDATA[長崎松山町]]></name>
</wpt>

<wpt lat="32.746910095214844" lon="129.87213134765625">
 <time>2015-12-06T02:24:46ZZ</time>
 <name><![CDATA[長崎大波止]]></name>
</wpt>

<wpt lat="32.78961181640625" lon="130.3703155517578">
 <time>2015-12-06T02:24:46ZZ</time>
 <name><![CDATA[島原駅]]></name>
</wpt>

<wpt lat="33.15666580200195" lon="129.89584350585938">
 <time>2015-12-06T02:24:46ZZ</time>
 <name><![CDATA[波佐見有田IC]]></name>
</wpt>

<wpt lat="33.03925704956055" lon="129.9151153564453">
 <time>2015-12-06T02:24:46ZZ</time>
 <name><![CDATA[彼杵駅]]></name>
</wpt>

<wpt lat="33.037872314453125" lon="129.91627502441406">
 <time>2015-12-06T02:24:46ZZ</time>
 <name><![CDATA[彼杵本町]]></name>
</wpt>

<wpt lat="33.03660583496094" lon="129.91893005371094">
 <time>2015-12-06T02:24:46ZZ</time>
 <name><![CDATA[彼杵郵便局前]]></name>
</wpt>

<wpt lat="33.05169677734375" lon="129.92770385742188">
 <time>2015-12-06T02:24:46ZZ</time>
 <name><![CDATA[樋口]]></name>
</wpt>

<wpt lat="33.062171936035156" lon="129.95982360839844">
 <time>2015-12-06T02:24:46ZZ</time>
 <name><![CDATA[俵坂]]></name>
</wpt>

<wpt lat="33.0555419921875" lon="129.93548583984375">
 <time>2015-12-06T02:24:46ZZ</time>
 <name><![CDATA[法音寺]]></name>
</wpt>

<wpt lat="32.842041015625" lon="130.05349731445312">
 <time>2015-12-06T02:24:46ZZ</time>
 <name><![CDATA[本諫早駅前]]></name>
</wpt>

<wpt lat="33.04520797729492" lon="129.9208984375">
 <time>2015-12-06T02:24:46ZZ</time>
 <name><![CDATA[妙法寺前]]></name>
</wpt>

<wpt lat="33.04118347167969" lon="129.9211883544922">
 <time>2015-12-06T02:24:46ZZ</time>
 <name><![CDATA[柚木町]]></name>
</wpt>

<wpt lat="33.43122863769531" lon="129.7751007080078">
 <time>2015-12-06T02:24:46ZZ</time>
 <name><![CDATA[下神崎]]></name>
</wpt>

<wpt lat="32.95824432373047" lon="130.20228576660156">
 <time>2015-12-06T02:24:46ZZ</time>
 <name><![CDATA[県界]]></name>
</wpt>

<wpt lat="32.7893180847168" lon="129.87106323242188">
 <time>2015-12-06T02:24:46ZZ</time>
 <name><![CDATA[昭和町]]></name>
</wpt>

<wpt lat="33.434635162353516" lon="129.76995849609375">
 <time>2015-12-06T02:24:46ZZ</time>
 <name><![CDATA[上神崎]]></name>
</wpt>

<wpt lat="33.437644958496094" lon="129.7611541748047">
 <time>2015-12-06T02:24:46ZZ</time>
 <name><![CDATA[神崎入口]]></name>
</wpt>

<wpt lat="33.43723678588867" lon="129.75814819335938">
 <time>2015-12-06T02:24:46ZZ</time>
 <name><![CDATA[石川]]></name>
</wpt>

<wpt lat="33.43452453613281" lon="129.75611877441406">
 <time>2015-12-06T02:24:46ZZ</time>
 <name><![CDATA[鷹島支所]]></name>
</wpt>

<wpt lat="33.4333381652832" lon="129.7816162109375">
 <time>2015-12-06T02:24:46ZZ</time>
 <name><![CDATA[道の駅鷹ら島]]></name>
</wpt>

<wpt lat="33.0684928894043" lon="129.8582763671875">
 <time>2015-12-06T02:24:46ZZ</time>
 <name><![CDATA[JA川棚支店]]></name>
</wpt>

<wpt lat="32.97315216064453" lon="129.94435119628906">
 <time>2015-12-06T02:24:46ZZ</time>
 <name><![CDATA[JA大村北支店]]></name>
</wpt>

<wpt lat="33.04118347167969" lon="129.9211883544922">
 <time>2015-12-06T02:24:46ZZ</time>
 <name><![CDATA[JA東そのぎ支店]]></name>
</wpt>

<wpt lat="32.78171920776367" lon="129.87588500976562">
 <time>2015-12-06T02:24:46ZZ</time>
 <name><![CDATA[NTT社宅前]]></name>
</wpt>

<wpt lat="32.938987731933594" lon="129.64004516601562">
 <time>2015-12-06T02:24:46ZZ</time>
 <name><![CDATA[NTT大瀬戸]]></name>
</wpt>

<wpt lat="32.7361946105957" lon="129.87245178222656">
 <time>2015-12-06T02:24:46ZZ</time>
 <name><![CDATA[NTT長崎病院前]]></name>
</wpt>

<wpt lat="33.16151428222656" lon="129.69253540039062">
 <time>2015-12-06T02:24:46ZZ</time>
 <name><![CDATA[SSK西門口]]></name>
</wpt>

<wpt lat="33.1651611328125" lon="129.69813537597656">
 <time>2015-12-06T02:24:46ZZ</time>
 <name><![CDATA[SSK船台口]]></name>
</wpt>

<wpt lat="33.16499710083008" lon="129.7037811279297">
 <time>2015-12-06T02:24:46ZZ</time>
 <name><![CDATA[SSK中央口]]></name>
</wpt>

<wpt lat="33.16752624511719" lon="129.70785522460938">
 <time>2015-12-06T02:24:46ZZ</time>
 <name><![CDATA[SSK北門口]]></name>
</wpt>

<wpt lat="33.049163818359375" lon="129.625">
 <time>2015-12-06T02:24:46ZZ</time>
 <name><![CDATA[アイランドホテル前]]></name>
</wpt>

<wpt lat="33.15241241455078" lon="129.70164489746094">
 <time>2015-12-06T02:24:46ZZ</time>
 <name><![CDATA[あかりさき前]]></name>
</wpt>

<wpt lat="32.804264068603516" lon="129.79852294921875">
 <time>2015-12-06T02:24:46ZZ</time>
 <name><![CDATA[あぐりの丘]]></name>
</wpt>

<wpt lat="32.747493743896484" lon="128.8437957763672">
 <time>2015-12-06T02:24:46ZZ</time>
 <name><![CDATA[あこう木前]]></name>
</wpt>

<wpt lat="32.76460266113281" lon="129.86846923828125">
 <time>2015-12-06T02:24:46ZZ</time>
 <name><![CDATA[あじさい荘]]></name>
</wpt>

<wpt lat="32.82218551635742" lon="129.7725067138672">
 <time>2015-12-06T02:24:46ZZ</time>
 <name><![CDATA[あじろ橋]]></name>
</wpt>

<wpt lat="33.2027473449707" lon="129.67774963378906">
 <time>2015-12-06T02:24:46ZZ</time>
 <name><![CDATA[あたご荘前]]></name>
</wpt>

<wpt lat="34.186614990234375" lon="129.2810821533203">
 <time>2015-12-06T02:24:46ZZ</time>
 <name><![CDATA[ありあけ会館]]></name>
</wpt>

<wpt lat="32.74510955810547" lon="130.36965942382812">
 <time>2015-12-06T02:24:46ZZ</time>
 <name><![CDATA[アリーナ入口]]></name>
</wpt>

<wpt lat="32.79606246948242" lon="129.79925537109375">
 <time>2015-12-06T02:24:46ZZ</time>
 <name><![CDATA[いこいの園]]></name>
</wpt>

<wpt lat="33.0169563293457" lon="129.9805145263672">
 <time>2015-12-06T02:24:46ZZ</time>
 <name><![CDATA[いこいの広場入口]]></name>
</wpt>

<wpt lat="34.198020935058594" lon="129.29522705078125">
 <time>2015-12-06T02:24:46ZZ</time>
 <name><![CDATA[いづはら病院]]></name>
</wpt>

<wpt lat="33.08837127685547" lon="129.7872314453125">
 <time>2015-12-06T02:24:46ZZ</time>
 <name><![CDATA[ウインズ佐世保前]]></name>
</wpt>

<wpt lat="33.17685317993164" lon="129.69639587402344">
 <time>2015-12-06T02:24:46ZZ</time>
 <name><![CDATA[うど越]]></name>
</wpt>

<wpt lat="33.14481735229492" lon="129.77737426757812">
 <time>2015-12-06T02:24:46ZZ</time>
 <name><![CDATA[エコスパ佐世保]]></name>
</wpt>

<wpt lat="32.85380554199219" lon="129.72425842285156">
 <time>2015-12-06T02:24:46ZZ</time>
 <name><![CDATA[エスポアールそとめ]]></name>
</wpt>

<wpt lat="33.18989562988281" lon="129.71243286132812">
 <time>2015-12-06T02:24:46ZZ</time>
 <name><![CDATA[エスポワール前]]></name>
</wpt>

<wpt lat="33.33839416503906" lon="129.70648193359375">
 <time>2015-12-06T02:24:46ZZ</time>
 <name><![CDATA[エミネント前]]></name>
</wpt>

<wpt lat="32.79956817626953" lon="129.84886169433594">
 <time>2015-12-06T02:24:46ZZ</time>
 <name><![CDATA[エルダーみずほ前]]></name>
</wpt>

<wpt lat="32.59988021850586" lon="130.185791015625">
 <time>2015-12-06T02:24:46ZZ</time>
 <name><![CDATA[おこんご]]></name>
</wpt>

<wpt lat="32.8021240234375" lon="129.8810272216797">
 <time>2015-12-06T02:24:46ZZ</time>
 <name><![CDATA[おたけ公園前]]></name>
</wpt>

<wpt lat="33.31511688232422" lon="129.7283477783203">
 <time>2015-12-06T02:24:46ZZ</time>
 <name><![CDATA[おてや橋]]></name>
</wpt>

<wpt lat="32.77699661254883" lon="129.94302368164062">
 <time>2015-12-06T02:24:46ZZ</time>
 <name><![CDATA[オナーズヒル西]]></name>
</wpt>

<wpt lat="32.77766799926758" lon="129.94764709472656">
 <time>2015-12-06T02:24:46ZZ</time>
 <name><![CDATA[オナーズヒル中央]]></name>
</wpt>

<wpt lat="32.77527618408203" lon="129.94631958007812">
 <time>2015-12-06T02:24:46ZZ</time>
 <name><![CDATA[オナーズヒル南]]></name>
</wpt>

<wpt lat="32.693546295166016" lon="128.84339904785156">
 <time>2015-12-06T02:24:46ZZ</time>
 <name><![CDATA[お濠前]]></name>
</wpt>

<wpt lat="32.769718170166016" lon="129.97242736816406">
 <time>2015-12-06T02:24:46ZZ</time>
 <name><![CDATA[ガーデンシティ西]]></name>
</wpt>

<wpt lat="32.768653869628906" lon="129.97447204589844">
 <time>2015-12-06T02:24:46ZZ</time>
 <name><![CDATA[ガーデンシティ東]]></name>
</wpt>

<wpt lat="32.770015716552734" lon="129.95347595214844">
 <time>2015-12-06T02:24:46ZZ</time>
 <name><![CDATA[かき道橋]]></name>
</wpt>

<wpt lat="32.771549224853516" lon="129.95655822753906">
 <time>2015-12-06T02:24:46ZZ</time>
 <name><![CDATA[かき道坂]]></name>
</wpt>

<wpt lat="32.77333450317383" lon="129.96351623535156">
 <time>2015-12-06T02:24:46ZZ</time>
 <name><![CDATA[かき道三丁目]]></name>
</wpt>

<wpt lat="32.76789855957031" lon="129.96475219726562">
 <time>2015-12-06T02:24:46ZZ</time>
 <name><![CDATA[かき道四丁目]]></name>
</wpt>

<wpt lat="32.773284912109375" lon="129.9561004638672">
 <time>2015-12-06T02:24:46ZZ</time>
 <name><![CDATA[かき道二丁目]]></name>
</wpt>

<wpt lat="33.73579025268555" lon="129.6878662109375">
 <time>2015-12-06T02:24:46ZZ</time>
 <name><![CDATA[かたばる病院]]></name>
</wpt>

<wpt lat="32.76515197753906" lon="129.89231872558594">
 <time>2015-12-06T02:24:46ZZ</time>
 <name><![CDATA[かたふち村入口]]></name>
</wpt>

<wpt lat="32.77708435058594" lon="129.8684539794922">
 <time>2015-12-06T02:24:46ZZ</time>
 <name><![CDATA[カトリックセンター前]]></name>
</wpt>

<wpt lat="32.77223205566406" lon="129.84957885742188">
 <time>2015-12-06T02:24:46ZZ</time>
 <name><![CDATA[かめやき公園前]]></name>
</wpt>

<wpt lat="34.39331817626953" lon="129.3567657470703">
 <time>2015-12-06T02:24:46ZZ</time>
 <name><![CDATA[カラクロ]]></name>
</wpt>

<wpt lat="32.85279846191406" lon="129.70492553710938">
 <time>2015-12-06T02:24:46ZZ</time>
 <name><![CDATA[カリタス診療所前]]></name>
</wpt>

<wpt lat="33.177608489990234" lon="129.75466918945312">
 <time>2015-12-06T02:24:46ZZ</time>
 <name><![CDATA[キャンプ場入口]]></name>
</wpt>

<wpt lat="32.61006164550781" lon="128.77989196777344">
 <time>2015-12-06T02:24:46ZZ</time>
 <name><![CDATA[キャンプ村入口]]></name>
</wpt>

<wpt lat="33.255760192871094" lon="129.6831817626953">
 <time>2015-12-06T02:24:46ZZ</time>
 <name><![CDATA[きらめきの里]]></name>
</wpt>

<wpt lat="32.94866943359375" lon="129.0046844482422">
 <time>2015-12-06T02:24:46ZZ</time>
 <name><![CDATA[くじらばえ]]></name>
</wpt>

<wpt lat="32.701515197753906" lon="129.8582305908203">
 <time>2015-12-06T02:24:46ZZ</time>
 <name><![CDATA[くすの木通り]]></name>
</wpt>

<wpt lat="32.7339973449707" lon="129.876953125">
 <time>2015-12-06T02:24:46ZZ</time>
 <name><![CDATA[グラウンド横]]></name>
</wpt>

<wpt lat="32.734619140625" lon="129.87698364257812">
 <time>2015-12-06T02:24:46ZZ</time>
 <name><![CDATA[グラウンド入口]]></name>
</wpt>

<wpt lat="32.7363166809082" lon="129.8687286376953">
 <time>2015-12-06T02:24:46ZZ</time>
 <name><![CDATA[グラバー園入口]]></name>
</wpt>

<wpt lat="32.882511138916016" lon="129.59652709960938">
 <time>2015-12-06T02:24:46ZZ</time>
 <name><![CDATA[グランド前]]></name>
</wpt>

<wpt lat="33.135711669921875" lon="129.793701171875">
 <time>2015-12-06T02:24:46ZZ</time>
 <name><![CDATA[クレールの丘中央]]></name>
</wpt>

<wpt lat="33.133201599121094" lon="129.79339599609375">
 <time>2015-12-06T02:24:46ZZ</time>
 <name><![CDATA[クレールの丘南口]]></name>
</wpt>

<wpt lat="33.13776779174805" lon="129.79080200195312">
 <time>2015-12-06T02:24:46ZZ</time>
 <name><![CDATA[クレールの丘北口]]></name>
</wpt>

<wpt lat="34.26773452758789" lon="129.3157958984375">
 <time>2015-12-06T02:24:46ZZ</time>
 <name><![CDATA[けい知]]></name>
</wpt>

<wpt lat="34.269657135009766" lon="129.31375122070312">
 <time>2015-12-06T02:24:46ZZ</time>
 <name><![CDATA[けい知宮前]]></name>
</wpt>

<wpt lat="33.17277145385742" lon="129.67381286621094">
 <time>2015-12-06T02:24:46ZZ</time>
 <name><![CDATA[けん牛崎入口]]></name>
</wpt>

<wpt lat="33.193817138671875" lon="129.7157440185547">
 <time>2015-12-06T02:24:46ZZ</time>
 <name><![CDATA[こうもり岩]]></name>
</wpt>

<wpt lat="32.763389587402344" lon="129.8648223876953">
 <time>2015-12-06T02:24:46ZZ</time>
 <name><![CDATA[ココウォーク茂里町]]></name>
</wpt>

<wpt lat="32.73734664916992" lon="129.91734313964844">
 <time>2015-12-06T02:24:46ZZ</time>
 <name><![CDATA[こしき岩]]></name>
</wpt>

<wpt lat="32.860862731933594" lon="129.8133544921875">
 <time>2015-12-06T02:24:46ZZ</time>
 <name><![CDATA[ことのうみ]]></name>
</wpt>

<wpt lat="32.77783966064453" lon="130.02252197265625">
 <time>2015-12-06T02:24:46ZZ</time>
 <name><![CDATA[コミュニティ会館前]]></name>
</wpt>

<wpt lat="32.743194580078125" lon="130.27218627929688">
 <time>2015-12-06T02:24:46ZZ</time>
 <name><![CDATA[ゴルフ場]]></name>
</wpt>

<wpt lat="33.22309494018555" lon="129.73646545410156">
 <time>2015-12-06T02:24:46ZZ</time>
 <name><![CDATA[ゴルフ場入口]]></name>
</wpt>

<wpt lat="32.74888229370117" lon="129.8137664794922">
 <time>2015-12-06T02:24:46ZZ</time>
 <name><![CDATA[ゴルフ場入口]]></name>
</wpt>

<wpt lat="32.79533004760742" lon="129.84974670410156">
 <time>2015-12-06T02:24:46ZZ</time>
 <name><![CDATA[サーパス前]]></name>
</wpt>

<wpt lat="33.35563278198242" lon="129.63075256347656">
 <time>2015-12-06T02:24:46ZZ</time>
 <name><![CDATA[さかせ川]]></name>
</wpt>

<wpt lat="32.83124542236328" lon="129.77166748046875">
 <time>2015-12-06T02:24:46ZZ</time>
 <name><![CDATA[さくらの里一丁目]]></name>
</wpt>

<wpt lat="32.83302688598633" lon="129.76467895507812">
 <time>2015-12-06T02:24:46ZZ</time>
 <name><![CDATA[さくらの里運動公園口]]></name>
</wpt>

<wpt lat="32.83374786376953" lon="129.7729949951172">
 <time>2015-12-06T02:24:46ZZ</time>
 <name><![CDATA[さくらの里団地口]]></name>
</wpt>

<wpt lat="32.82929992675781" lon="129.7635040283203">
 <time>2015-12-06T02:24:46ZZ</time>
 <name><![CDATA[さくらの里二丁目]]></name>
</wpt>

<wpt lat="32.779144287109375" lon="129.83255004882812">
 <time>2015-12-06T02:24:46ZZ</time>
 <name><![CDATA[さくら通り]]></name>
</wpt>

<wpt lat="33.26339340209961" lon="129.6679229736328">
 <time>2015-12-06T02:24:46ZZ</time>
 <name><![CDATA[さざん花団地]]></name>
</wpt>

<wpt lat="32.84676742553711" lon="130.00302124023438">
 <time>2015-12-06T02:24:46ZZ</time>
 <name><![CDATA[さつき台団地]]></name>
</wpt>

<wpt lat="32.799434661865234" lon="130.03146362304688">
 <time>2015-12-06T02:24:46ZZ</time>
 <name><![CDATA[サテライト長崎前]]></name>
</wpt>

<wpt lat="32.809288024902344" lon="129.88412475585938">
 <time>2015-12-06T02:24:46ZZ</time>
 <name><![CDATA[サニータウン]]></name>
</wpt>

<wpt lat="32.8131103515625" lon="129.88352966308594">
 <time>2015-12-06T02:24:46ZZ</time>
 <name><![CDATA[サニータウン車庫]]></name>
</wpt>

<wpt lat="32.81159210205078" lon="129.88352966308594">
 <time>2015-12-06T02:24:46ZZ</time>
 <name><![CDATA[サニータウン北口]]></name>
</wpt>

<wpt lat="33.79443359375" lon="129.75753784179688">
 <time>2015-12-06T02:24:46ZZ</time>
 <name><![CDATA[さのクリニック前]]></name>
</wpt>

<wpt lat="32.92180633544922" lon="129.9385223388672">
 <time>2015-12-06T02:24:46ZZ</time>
 <name><![CDATA[サンスパおおむら]]></name>
</wpt>

<wpt lat="32.6085205078125" lon="130.1810760498047">
 <time>2015-12-06T02:24:46ZZ</time>
 <name><![CDATA[サンピア前]]></name>
</wpt>

<wpt lat="33.22108840942383" lon="129.64088439941406">
 <time>2015-12-06T02:24:46ZZ</time>
 <name><![CDATA[サンビレッジ佐々]]></name>
</wpt>

<wpt lat="32.901065826416016" lon="129.95663452148438">
 <time>2015-12-06T02:24:46ZZ</time>
 <name><![CDATA[シーハットおおむら]]></name>
</wpt>

<wpt lat="32.69501495361328" lon="128.8133087158203">
 <time>2015-12-06T02:24:46ZZ</time>
 <name><![CDATA[シティモール前]]></name>
</wpt>

<wpt lat="32.768009185791016" lon="129.95291137695312">
 <time>2015-12-06T02:24:46ZZ</time>
 <name><![CDATA[ジャスコ前]]></name>
</wpt>

<wpt lat="32.901126861572266" lon="129.9542236328125">
 <time>2015-12-06T02:24:46ZZ</time>
 <name><![CDATA[ジャスコ大村店]]></name>
</wpt>

<wpt lat="32.74866485595703" lon="129.8515167236328">
 <time>2015-12-06T02:24:46ZZ</time>
 <name><![CDATA[シンフォニー稲佐の森]]></name>
</wpt>

<wpt lat="32.908531188964844" lon="129.95840454101562">
 <time>2015-12-06T02:24:46ZZ</time>
 <name><![CDATA[すこやかセンター前]]></name>
</wpt>

<wpt lat="33.25032043457031" lon="129.48590087890625">
 <time>2015-12-06T02:24:46ZZ</time>
 <name><![CDATA[すずり]]></name>
</wpt>

<wpt lat="32.73186111450195" lon="129.89210510253906">
 <time>2015-12-06T02:24:46ZZ</time>
 <name><![CDATA[スポーツセンター前]]></name>
</wpt>

<wpt lat="33.183250427246094" lon="129.76145935058594">
 <time>2015-12-06T02:24:46ZZ</time>
 <name><![CDATA[スポーツの里入口]]></name>
</wpt>

<wpt lat="32.79537582397461" lon="129.8663787841797">
 <time>2015-12-06T02:24:46ZZ</time>
 <name><![CDATA[せせらぎ公園前]]></name>
</wpt>

<wpt lat="32.83169937133789" lon="129.76803588867188">
 <time>2015-12-06T02:24:46ZZ</time>
 <name><![CDATA[センター公園前]]></name>
</wpt>

<wpt lat="32.82044219970703" lon="130.0048370361328">
 <time>2015-12-06T02:24:46ZZ</time>
 <name><![CDATA[ソフトウェアセンター前]]></name>
</wpt>

<wpt lat="32.888492584228516" lon="129.02151489257812">
 <time>2015-12-06T02:24:46ZZ</time>
 <name><![CDATA[ターミナル]]></name>
</wpt>

<wpt lat="32.695167541503906" lon="128.84686279296875">
 <time>2015-12-06T02:24:46ZZ</time>
 <name><![CDATA[ターミナルホテル前]]></name>
</wpt>

<wpt lat="32.70354080200195" lon="129.7787628173828">
 <time>2015-12-06T02:24:46ZZ</time>
 <name><![CDATA[ターミナル前]]></name>
</wpt>

<wpt lat="32.84392547607422" lon="129.06105041503906">
 <time>2015-12-06T02:24:46ZZ</time>
 <name><![CDATA[ターミナル入口]]></name>
</wpt>

<wpt lat="33.80976867675781" lon="129.75225830078125">
 <time>2015-12-06T02:24:46ZZ</time>
 <name><![CDATA[ダイエー前]]></name>
</wpt>

<wpt lat="32.69953918457031" lon="129.8558349609375">
 <time>2015-12-06T02:24:46ZZ</time>
 <name><![CDATA[ダイヤランド]]></name>
</wpt>

<wpt lat="32.70368194580078" lon="129.86073303222656">
 <time>2015-12-06T02:24:46ZZ</time>
 <name><![CDATA[ダイヤランドセンター]]></name>
</wpt>

<wpt lat="32.70368194580078" lon="129.86073303222656">
 <time>2015-12-06T02:24:46ZZ</time>
 <name><![CDATA[ダイヤランドセンター前]]></name>
</wpt>

<wpt lat="32.698116302490234" lon="129.8537139892578">
 <time>2015-12-06T02:24:46ZZ</time>
 <name><![CDATA[ダイヤランド車庫]]></name>
</wpt>

<wpt lat="32.699214935302734" lon="129.85299682617188">
 <time>2015-12-06T02:24:46ZZ</time>
 <name><![CDATA[ダイヤランド西口]]></name>
</wpt>

<wpt lat="32.70674514770508" lon="129.8592529296875">
 <time>2015-12-06T02:24:46ZZ</time>
 <name><![CDATA[ダイヤランド入口]]></name>
</wpt>

<wpt lat="32.768611907958984" lon="129.95985412597656">
 <time>2015-12-06T02:24:46ZZ</time>
 <name><![CDATA[たちばな小学校]]></name>
</wpt>

<wpt lat="34.45560836791992" lon="129.35227966308594">
 <time>2015-12-06T02:24:46ZZ</time>
 <name><![CDATA[ダム]]></name>
</wpt>

<wpt lat="32.97462844848633" lon="130.01914978027344">
 <time>2015-12-06T02:24:46ZZ</time>
 <name><![CDATA[ダム下]]></name>
</wpt>

<wpt lat="32.78968811035156" lon="129.86141967773438">
 <time>2015-12-06T02:24:46ZZ</time>
 <name><![CDATA[チトセピア横]]></name>
</wpt>

<wpt lat="33.12678527832031" lon="129.68942260742188">
 <time>2015-12-06T02:24:46ZZ</time>
 <name><![CDATA[つくも苑]]></name>
</wpt>

<wpt lat="33.127872467041016" lon="129.6903839111328">
 <time>2015-12-06T02:24:46ZZ</time>
 <name><![CDATA[つくも苑入口]]></name>
</wpt>

<wpt lat="32.97897720336914" lon="129.110595703125">
 <time>2015-12-06T02:24:46ZZ</time>
 <name><![CDATA[つつじが丘]]></name>
</wpt>

<wpt lat="32.8121223449707" lon="129.96434020996094">
 <time>2015-12-06T02:24:46ZZ</time>
 <name><![CDATA[つつじが丘]]></name>
</wpt>

<wpt lat="32.804901123046875" lon="129.96336364746094">
 <time>2015-12-06T02:24:46ZZ</time>
 <name><![CDATA[つつじが丘入口]]></name>
</wpt>

<wpt lat="32.740875244140625" lon="129.875">
 <time>2015-12-06T02:24:46ZZ</time>
 <name><![CDATA[つりがね堂薬局（降車のみ）]]></name>
</wpt>

<wpt lat="32.80221176147461" lon="130.15780639648438">
 <time>2015-12-06T02:24:46ZZ</time>
 <name><![CDATA[テクノパーク前]]></name>
</wpt>

<wpt lat="32.83299255371094" lon="130.0464630126953">
 <time>2015-12-06T02:24:46ZZ</time>
 <name><![CDATA[テニス場前]]></name>
</wpt>

<wpt lat="34.437469482421875" lon="129.3680419921875">
 <time>2015-12-06T02:24:46ZZ</time>
 <name><![CDATA[トクエ]]></name>
</wpt>

<wpt lat="32.735939025878906" lon="129.85337829589844">
 <time>2015-12-06T02:24:46ZZ</time>
 <name><![CDATA[ドック上]]></name>
</wpt>

<wpt lat="32.63731384277344" lon="128.6675262451172">
 <time>2015-12-06T02:24:46ZZ</time>
 <name><![CDATA[トレーニングセンター前]]></name>
</wpt>

<wpt lat="32.783164978027344" lon="129.7964630126953">
 <time>2015-12-06T02:24:46ZZ</time>
 <name><![CDATA[トンネル口]]></name>
</wpt>

<wpt lat="32.88399124145508" lon="130.0125274658203">
 <time>2015-12-06T02:24:46ZZ</time>
 <name><![CDATA[トンネル上]]></name>
</wpt>

<wpt lat="32.93997573852539" lon="129.97621154785156">
 <time>2015-12-06T02:24:46ZZ</time>
 <name><![CDATA[ナーク前]]></name>
</wpt>

<wpt lat="32.82648468017578" lon="129.83401489257812">
 <time>2015-12-06T02:24:46ZZ</time>
 <name><![CDATA[なづみ団地口]]></name>
</wpt>

<wpt lat="33.17092514038086" lon="129.71395874023438">
 <time>2015-12-06T02:24:46ZZ</time>
 <name><![CDATA[ニミッツパーク入口]]></name>
</wpt>

<wpt lat="32.781490325927734" lon="129.83084106445312">
 <time>2015-12-06T02:24:46ZZ</time>
 <name><![CDATA[ニュータウン中央]]></name>
</wpt>

<wpt lat="32.84497833251953" lon="129.9717254638672">
 <time>2015-12-06T02:24:46ZZ</time>
 <name><![CDATA[のぞみ会館入口]]></name>
</wpt>

<wpt lat="32.76390075683594" lon="129.86282348632812">
 <time>2015-12-06T02:24:46ZZ</time>
 <name><![CDATA[ハートセンター前]]></name>
</wpt>

<wpt lat="34.449581146240234" lon="129.3686065673828">
 <time>2015-12-06T02:24:46ZZ</time>
 <name><![CDATA[ハートランド前]]></name>
</wpt>

<wpt lat="33.16159439086914" lon="129.68003845214844">
 <time>2015-12-06T02:24:46ZZ</time>
 <name><![CDATA[パールシーリゾート九十九島水族館]]></name>
</wpt>

<wpt lat="33.16181564331055" lon="129.68301391601562">
 <time>2015-12-06T02:24:46ZZ</time>
 <name><![CDATA[パールシーリゾート入口]]></name>
</wpt>

<wpt lat="32.910396575927734" lon="129.98353576660156">
 <time>2015-12-06T02:24:46ZZ</time>
 <name><![CDATA[パールハイム前]]></name>
</wpt>

<wpt lat="32.98814392089844" lon="129.78294372558594">
 <time>2015-12-06T02:24:46ZZ</time>
 <name><![CDATA[バイオパーク]]></name>
</wpt>

<wpt lat="32.66431427001953" lon="128.87899780273438">
 <time>2015-12-06T02:24:46ZZ</time>
 <name><![CDATA[バイクハウス前]]></name>
</wpt>

<wpt lat="32.80691909790039" lon="129.90931701660156">
 <time>2015-12-06T02:24:46ZZ</time>
 <name><![CDATA[バイパス犬継]]></name>
</wpt>

<wpt lat="32.805973052978516" lon="129.89401245117188">
 <time>2015-12-06T02:24:46ZZ</time>
 <name><![CDATA[バイパス川平]]></name>
</wpt>

<wpt lat="32.81184005737305" lon="129.95883178710938">
 <time>2015-12-06T02:24:46ZZ</time>
 <name><![CDATA[バイパス多良見]]></name>
</wpt>

<wpt lat="33.1580924987793" lon="129.7653045654297">
 <time>2015-12-06T02:24:46ZZ</time>
 <name><![CDATA[バイパス中央]]></name>
</wpt>

<wpt lat="33.20559310913086" lon="129.68243408203125">
 <time>2015-12-06T02:24:46ZZ</time>
 <name><![CDATA[バイパス本山]]></name>
</wpt>

<wpt lat="33.190250396728516" lon="129.71148681640625">
 <time>2015-12-06T02:24:46ZZ</time>
 <name><![CDATA[ハイムタウン]]></name>
</wpt>

<wpt lat="33.18952560424805" lon="129.7107696533203">
 <time>2015-12-06T02:24:46ZZ</time>
 <name><![CDATA[ハイムタウン入口]]></name>
</wpt>

<wpt lat="33.090126037597656" lon="129.7900848388672">
 <time>2015-12-06T02:24:46ZZ</time>
 <name><![CDATA[ハウステンボス]]></name>
</wpt>

<wpt lat="33.09009552001953" lon="129.7869873046875">
 <time>2015-12-06T02:24:46ZZ</time>
 <name><![CDATA[ハウステンボスヒルズ前]]></name>
</wpt>

<wpt lat="33.0927619934082" lon="129.79627990722656">
 <time>2015-12-06T02:24:46ZZ</time>
 <name><![CDATA[ハウステンボス駅前]]></name>
</wpt>

<wpt lat="33.08073806762695" lon="129.78477478027344">
 <time>2015-12-06T02:24:46ZZ</time>
 <name><![CDATA[ハウステンボス港町]]></name>
</wpt>

<wpt lat="33.08547592163086" lon="129.7824249267578">
 <time>2015-12-06T02:24:46ZZ</time>
 <name><![CDATA[ハウステンボス西門]]></name>
</wpt>

<wpt lat="33.09181594848633" lon="129.79197692871094">
 <time>2015-12-06T02:24:46ZZ</time>
 <name><![CDATA[ハウステンボス前]]></name>
</wpt>

<wpt lat="33.115047454833984" lon="129.8685302734375">
 <time>2015-12-06T02:24:46ZZ</time>
 <name><![CDATA[はさみ温泉]]></name>
</wpt>

<wpt lat="33.43452453613281" lon="129.75611877441406">
 <time>2015-12-06T02:24:46ZZ</time>
 <name><![CDATA[バス営業所]]></name>
</wpt>

<wpt lat="32.64945602416992" lon="129.82916259765625">
 <time>2015-12-06T02:24:46ZZ</time>
 <name><![CDATA[ハピネスさんわ]]></name>
</wpt>

<wpt lat="33.11961364746094" lon="129.79698181152344">
 <time>2015-12-06T02:24:46ZZ</time>
 <name><![CDATA[パラダイスガーデン前]]></name>
</wpt>

<wpt lat="32.82875442504883" lon="130.06195068359375">
 <time>2015-12-06T02:24:46ZZ</time>
 <name><![CDATA[ひばりが丘]]></name>
</wpt>

<wpt lat="32.71874237060547" lon="130.21827697753906">
 <time>2015-12-06T02:24:46ZZ</time>
 <name><![CDATA[びん串]]></name>
</wpt>

<wpt lat="32.68478775024414" lon="128.8076934814453">
 <time>2015-12-06T02:24:46ZZ</time>
 <name><![CDATA[ファミリーハウス前]]></name>
</wpt>

<wpt lat="33.19557189941406" lon="129.71783447265625">
 <time>2015-12-06T02:24:46ZZ</time>
 <name><![CDATA[フォレストアウル前]]></name>
</wpt>

<wpt lat="33.21149444580078" lon="129.73512268066406">
 <time>2015-12-06T02:24:46ZZ</time>
 <name><![CDATA[ふたつ岩]]></name>
</wpt>

<wpt lat="33.16566467285156" lon="129.7723846435547">
 <time>2015-12-06T02:24:46ZZ</time>
 <name><![CDATA[ふもと入口]]></name>
</wpt>

<wpt lat="32.7839241027832" lon="129.87330627441406">
 <time>2015-12-06T02:24:46ZZ</time>
 <name><![CDATA[フランシスコ病院前]]></name>
</wpt>

<wpt lat="33.289154052734375" lon="129.4713897705078">
 <time>2015-12-06T02:24:46ZZ</time>
 <name><![CDATA[ふれあいセンター前]]></name>
</wpt>

<wpt lat="32.79789733886719" lon="129.85198974609375">
 <time>2015-12-06T02:24:46ZZ</time>
 <name><![CDATA[ふれあいセンター前]]></name>
</wpt>

<wpt lat="32.80219650268555" lon="130.31800842285156">
 <time>2015-12-06T02:24:46ZZ</time>
 <name><![CDATA[ふれあい運動広場]]></name>
</wpt>

<wpt lat="32.89939498901367" lon="130.1284942626953">
 <time>2015-12-06T02:24:46ZZ</time>
 <name><![CDATA[ふれあい会館前]]></name>
</wpt>

<wpt lat="32.850399017333984" lon="130.01629638671875">
 <time>2015-12-06T02:24:46ZZ</time>
 <name><![CDATA[ふれあい広場前]]></name>
</wpt>

<wpt lat="32.75751495361328" lon="129.9437713623047">
 <time>2015-12-06T02:24:46ZZ</time>
 <name><![CDATA[ペンギン水族館前]]></name>
</wpt>

<wpt lat="32.72779083251953" lon="129.83575439453125">
 <time>2015-12-06T02:24:46ZZ</time>
 <name><![CDATA[ほしぞら公園下]]></name>
</wpt>

<wpt lat="33.08338928222656" lon="129.7840118408203">
 <time>2015-12-06T02:24:46ZZ</time>
 <name><![CDATA[ホテルヨーロッパ前]]></name>
</wpt>

<wpt lat="33.005279541015625" lon="129.54623413085938">
 <time>2015-12-06T02:24:46ZZ</time>
 <name><![CDATA[ホテル咲き都]]></name>
</wpt>

<wpt lat="32.70167541503906" lon="129.77777099609375">
 <time>2015-12-06T02:24:46ZZ</time>
 <name><![CDATA[ホテル唐船江]]></name>
</wpt>

<wpt lat="32.84126281738281" lon="130.03125">
 <time>2015-12-06T02:24:46ZZ</time>
 <name><![CDATA[ポリテクセンター長崎前]]></name>
</wpt>

<wpt lat="32.81145095825195" lon="129.87548828125">
 <time>2015-12-06T02:24:46ZZ</time>
 <name><![CDATA[まなび野団地]]></name>
</wpt>

<wpt lat="32.81333923339844" lon="129.8775634765625">
 <time>2015-12-06T02:24:46ZZ</time>
 <name><![CDATA[まなび野北]]></name>
</wpt>

<wpt lat="32.77655792236328" lon="129.85304260253906">
 <time>2015-12-06T02:24:46ZZ</time>
 <name><![CDATA[マリア学院前]]></name>
</wpt>

<wpt lat="32.746063232421875" lon="129.83070373535156">
 <time>2015-12-06T02:24:46ZZ</time>
 <name><![CDATA[マリナシティー長崎前]]></name>
</wpt>

<wpt lat="33.03754806518555" lon="129.06521606445312">
 <time>2015-12-06T02:24:46ZZ</time>
 <name><![CDATA[マリハ]]></name>
</wpt>

<wpt lat="33.743873596191406" lon="129.7552947998047">
 <time>2015-12-06T02:24:46ZZ</time>
 <name><![CDATA[マリンパル]]></name>
</wpt>

<wpt lat="32.82122039794922" lon="129.7548828125">
 <time>2015-12-06T02:24:46ZZ</time>
 <name><![CDATA[マリンヒル三京]]></name>
</wpt>

<wpt lat="32.96012878417969" lon="130.16871643066406">
 <time>2015-12-06T02:24:46ZZ</time>
 <name><![CDATA[みさかえの園]]></name>
</wpt>

<wpt lat="32.83364486694336" lon="129.84300231933594">
 <time>2015-12-06T02:24:46ZZ</time>
 <name><![CDATA[ミスターマックス時津店]]></name>
</wpt>

<wpt lat="32.78261184692383" lon="129.87452697753906">
 <time>2015-12-06T02:24:46ZZ</time>
 <name><![CDATA[みどり谷]]></name>
</wpt>

<wpt lat="33.18622970581055" lon="129.7110137939453">
 <time>2015-12-06T02:24:46ZZ</time>
 <name><![CDATA[みどり入口]]></name>
</wpt>

<wpt lat="32.79368209838867" lon="129.85267639160156">
 <time>2015-12-06T02:24:46ZZ</time>
 <name><![CDATA[みどり幼稚園下]]></name>
</wpt>

<wpt lat="32.730628967285156" lon="129.83969116210938">
 <time>2015-12-06T02:24:46ZZ</time>
 <name><![CDATA[みなと坂団地口]]></name>
</wpt>

<wpt lat="32.73292922973633" lon="129.83641052246094">
 <time>2015-12-06T02:24:46ZZ</time>
 <name><![CDATA[みなと坂中央]]></name>
</wpt>

<wpt lat="32.66879653930664" lon="128.87832641601562">
 <time>2015-12-06T02:24:46ZZ</time>
 <name><![CDATA[みはらし荘]]></name>
</wpt>

<wpt lat="32.747718811035156" lon="129.87924194335938">
 <time>2015-12-06T02:24:46ZZ</time>
 <name><![CDATA[めがね橋]]></name>
</wpt>

<wpt lat="32.82889938354492" lon="129.7966766357422">
 <time>2015-12-06T02:24:46ZZ</time>
 <name><![CDATA[めだか橋]]></name>
</wpt>

<wpt lat="32.79464340209961" lon="129.8695068359375">
 <time>2015-12-06T02:24:46ZZ</time>
 <name><![CDATA[めばえ公園前]]></name>
</wpt>

<wpt lat="32.75190353393555" lon="128.82940673828125">
 <time>2015-12-06T02:24:46ZZ</time>
 <name><![CDATA[メモリアルホール前]]></name>
</wpt>

<wpt lat="33.160160064697266" lon="129.78126525878906">
 <time>2015-12-06T02:24:46ZZ</time>
 <name><![CDATA[もみじが丘]]></name>
</wpt>

<wpt lat="33.160743713378906" lon="129.78274536132812">
 <time>2015-12-06T02:24:46ZZ</time>
 <name><![CDATA[もみじが丘住宅前]]></name>
</wpt>

<wpt lat="33.46694564819336" lon="129.7545928955078">
 <time>2015-12-06T02:24:46ZZ</time>
 <name><![CDATA[モンゴル村]]></name>
</wpt>

<wpt lat="33.1401252746582" lon="129.90980529785156">
 <time>2015-12-06T02:24:46ZZ</time>
 <name><![CDATA[やきもの公園前]]></name>
</wpt>

<wpt lat="32.670982360839844" lon="128.75860595703125">
 <time>2015-12-06T02:24:46ZZ</time>
 <name><![CDATA[やすらぎ苑前]]></name>
</wpt>

<wpt lat="32.7711296081543" lon="129.8448944091797">
 <time>2015-12-06T02:24:46ZZ</time>
 <name><![CDATA[やまぶき公園前]]></name>
</wpt>

<wpt lat="33.3583984375" lon="129.58995056152344">
 <time>2015-12-06T02:24:46ZZ</time>
 <name><![CDATA[やよい幼稚園前]]></name>
</wpt>

<wpt lat="32.688053131103516" lon="129.80738830566406">
 <time>2015-12-06T02:24:46ZZ</time>
 <name><![CDATA[ゆたか荘前]]></name>
</wpt>

<wpt lat="32.96038818359375" lon="129.80758666992188">
 <time>2015-12-06T02:24:46ZZ</time>
 <name><![CDATA[よきのひつ]]></name>
</wpt>

<wpt lat="32.72221755981445" lon="130.2140350341797">
 <time>2015-12-06T02:24:46ZZ</time>
 <name><![CDATA[よろこびの里前]]></name>
</wpt>

<wpt lat="33.770416259765625" lon="129.73919677734375">
 <time>2015-12-06T02:24:46ZZ</time>
 <name><![CDATA[ライスセンター前]]></name>
</wpt>

<wpt lat="32.68876647949219" lon="128.8170623779297">
 <time>2015-12-06T02:24:46ZZ</time>
 <name><![CDATA[リハビリセンター前]]></name>
</wpt>

<wpt lat="32.61949920654297" lon="128.61253356933594">
 <time>2015-12-06T02:24:46ZZ</time>
 <name><![CDATA[ルルド前]]></name>
</wpt>

<wpt lat="32.93486022949219" lon="129.95899963378906">
 <time>2015-12-06T02:24:46ZZ</time>
 <name><![CDATA[ろう学校]]></name>
</wpt>

<wpt lat="32.9328727722168" lon="129.9604034423828">
 <time>2015-12-06T02:24:46ZZ</time>
 <name><![CDATA[ろう学校前]]></name>
</wpt>

<wpt lat="32.7583122253418" lon="129.86074829101562">
 <time>2015-12-06T02:24:46ZZ</time>
 <name><![CDATA[ロープウェイ前]]></name>
</wpt>

<wpt lat="32.750457763671875" lon="128.75027465820312">
 <time>2015-12-06T02:24:46ZZ</time>
 <name><![CDATA[ろくろ場口]]></name>
</wpt>

<wpt lat="33.124263763427734" lon="129.80201721191406">
 <time>2015-12-06T02:24:46ZZ</time>
 <name><![CDATA[ロックショッピングタウン]]></name>
</wpt>

<wpt lat="32.77751159667969" lon="129.89035034179688">
 <time>2015-12-06T02:24:46ZZ</time>
 <name><![CDATA[ワークビレッジ]]></name>
</wpt>

<wpt lat="32.833621978759766" lon="130.0643310546875">
 <time>2015-12-06T02:24:46ZZ</time>
 <name><![CDATA[わし崎]]></name>
</wpt>

<wpt lat="32.59352111816406" lon="129.80191040039062">
 <time>2015-12-06T02:24:46ZZ</time>
 <name><![CDATA[亜熱帯植物園]]></name>
</wpt>

<wpt lat="32.591190338134766" lon="129.79873657226562">
 <time>2015-12-06T02:24:46ZZ</time>
 <name><![CDATA[亜熱帯植物園入口]]></name>
</wpt>

<wpt lat="33.45795440673828" lon="129.7623748779297">
 <time>2015-12-06T02:24:46ZZ</time>
 <name><![CDATA[阿翁]]></name>
</wpt>

<wpt lat="33.45458221435547" lon="129.7592010498047">
 <time>2015-12-06T02:24:46ZZ</time>
 <name><![CDATA[阿翁浦]]></name>
</wpt>

<wpt lat="33.45289611816406" lon="129.76211547851562">
 <time>2015-12-06T02:24:46ZZ</time>
 <name><![CDATA[阿翁入口]]></name>
</wpt>

<wpt lat="32.86137771606445" lon="128.93130493164062">
 <time>2015-12-06T02:24:46ZZ</time>
 <name><![CDATA[阿古木]]></name>
</wpt>

<wpt lat="34.21784591674805" lon="129.2948455810547">
 <time>2015-12-06T02:24:46ZZ</time>
 <name><![CDATA[阿須]]></name>
</wpt>

<wpt lat="32.9542350769043" lon="129.1085968017578">
 <time>2015-12-06T02:24:46ZZ</time>
 <name><![CDATA[阿瀬津]]></name>
</wpt>

<wpt lat="32.96250915527344" lon="129.1009979248047">
 <time>2015-12-06T02:24:46ZZ</time>
 <name><![CDATA[阿瀬津別道]]></name>
</wpt>

<wpt lat="32.82863235473633" lon="130.1662139892578">
 <time>2015-12-06T02:24:46ZZ</time>
 <name><![CDATA[阿母崎]]></name>
</wpt>

<wpt lat="32.95342254638672" lon="130.20236206054688">
 <time>2015-12-06T02:24:46ZZ</time>
 <name><![CDATA[阿弥陀崎]]></name>
</wpt>

<wpt lat="34.27083969116211" lon="129.20054626464844">
 <time>2015-12-06T02:24:46ZZ</time>
 <name><![CDATA[阿連]]></name>
</wpt>

<wpt lat="32.808746337890625" lon="130.14968872070312">
 <time>2015-12-06T02:24:46ZZ</time>
 <name><![CDATA[愛津]]></name>
</wpt>

<wpt lat="32.74132537841797" lon="129.891845703125">
 <time>2015-12-06T02:24:46ZZ</time>
 <name><![CDATA[愛宕団地前]]></name>
</wpt>

<wpt lat="33.15749740600586" lon="129.69471740722656">
 <time>2015-12-06T02:24:46ZZ</time>
 <name><![CDATA[愛宕中学校入口]]></name>
</wpt>

<wpt lat="33.199398040771484" lon="129.6704864501953">
 <time>2015-12-06T02:24:46ZZ</time>
 <name><![CDATA[愛宕町]]></name>
</wpt>

<wpt lat="32.735713958740234" lon="129.89163208007812">
 <time>2015-12-06T02:24:46ZZ</time>
 <name><![CDATA[愛宕町]]></name>
</wpt>

<wpt lat="32.81706619262695" lon="130.15321350097656">
 <time>2015-12-06T02:24:46ZZ</time>
 <name><![CDATA[愛野（役場前）]]></name>
</wpt>

<wpt lat="32.81706619262695" lon="130.15321350097656">
 <time>2015-12-06T02:24:46ZZ</time>
 <name><![CDATA[愛野]]></name>
</wpt>

<wpt lat="32.81864547729492" lon="130.15603637695312">
 <time>2015-12-06T02:24:46ZZ</time>
 <name><![CDATA[愛野駅]]></name>
</wpt>

<wpt lat="32.81790542602539" lon="130.1558074951172">
 <time>2015-12-06T02:24:46ZZ</time>
 <name><![CDATA[愛野駅前]]></name>
</wpt>

<wpt lat="32.81348419189453" lon="130.15139770507812">
 <time>2015-12-06T02:24:46ZZ</time>
 <name><![CDATA[愛野中学校下]]></name>
</wpt>

<wpt lat="32.7952995300293" lon="130.16592407226562">
 <time>2015-12-06T02:24:46ZZ</time>
 <name><![CDATA[愛野展望所]]></name>
</wpt>

<wpt lat="32.81661605834961" lon="130.1518096923828">
 <time>2015-12-06T02:24:46ZZ</time>
 <name><![CDATA[愛野保健福祉センター]]></name>
</wpt>

<wpt lat="32.704368591308594" lon="128.84051513671875">
 <time>2015-12-06T02:24:46ZZ</time>
 <name><![CDATA[旭丘団地前]]></name>
</wpt>

<wpt lat="32.75117111206055" lon="129.86471557617188">
 <time>2015-12-06T02:24:46ZZ</time>
 <name><![CDATA[旭町]]></name>
</wpt>

<wpt lat="32.74879837036133" lon="129.86410522460938">
 <time>2015-12-06T02:24:46ZZ</time>
 <name><![CDATA[旭町桟橋前]]></name>
</wpt>

<wpt lat="34.347434997558594" lon="129.36558532714844">
 <time>2015-12-06T02:24:46ZZ</time>
 <name><![CDATA[芦ヶ浦]]></name>
</wpt>

<wpt lat="34.537113189697266" lon="129.45240783691406">
 <time>2015-12-06T02:24:46ZZ</time>
 <name><![CDATA[芦見]]></name>
</wpt>

<wpt lat="34.533992767333984" lon="129.4512939453125">
 <time>2015-12-06T02:24:46ZZ</time>
 <name><![CDATA[芦見浜]]></name>
</wpt>

<wpt lat="33.802616119384766" lon="129.75794982910156">
 <time>2015-12-06T02:24:46ZZ</time>
 <name><![CDATA[芦辺]]></name>
</wpt>

<wpt lat="33.808956146240234" lon="129.75279235839844">
 <time>2015-12-06T02:24:46ZZ</time>
 <name><![CDATA[芦辺港]]></name>
</wpt>

<wpt lat="33.80146408081055" lon="129.76177978515625">
 <time>2015-12-06T02:24:46ZZ</time>
 <name><![CDATA[芦辺郵便局前]]></name>
</wpt>

<wpt lat="34.15461730957031" lon="129.21473693847656">
 <time>2015-12-06T02:24:46ZZ</time>
 <name><![CDATA[鮎もどし]]></name>
</wpt>

<wpt lat="33.21554183959961" lon="129.42276000976562">
 <time>2015-12-06T02:24:46ZZ</time>
 <name><![CDATA[鮎川]]></name>
</wpt>

<wpt lat="32.66400146484375" lon="130.19302368164062">
 <time>2015-12-06T02:24:46ZZ</time>
 <name><![CDATA[鮎返橋]]></name>
</wpt>

<wpt lat="32.933013916015625" lon="129.94944763183594">
 <time>2015-12-06T02:24:46ZZ</time>
 <name><![CDATA[安井前]]></name>
</wpt>

<wpt lat="33.76801300048828" lon="129.74850463867188">
 <time>2015-12-06T02:24:46ZZ</time>
 <name><![CDATA[安国寺]]></name>
</wpt>

<wpt lat="34.14621353149414" lon="129.27403259277344">
 <time>2015-12-06T02:24:46ZZ</time>
 <name><![CDATA[安神]]></name>
</wpt>

<wpt lat="34.15995788574219" lon="129.27040100097656">
 <time>2015-12-06T02:24:46ZZ</time>
 <name><![CDATA[安神入口]]></name>
</wpt>

<wpt lat="33.1205940246582" lon="129.66854858398438">
 <time>2015-12-06T02:24:46ZZ</time>
 <name><![CDATA[安東寺入口]]></name>
</wpt>

<wpt lat="32.75010681152344" lon="130.3712921142578">
 <time>2015-12-06T02:24:46ZZ</time>
 <name><![CDATA[安徳]]></name>
</wpt>

<wpt lat="32.68344497680664" lon="129.802001953125">
 <time>2015-12-06T02:24:46ZZ</time>
 <name><![CDATA[安保]]></name>
</wpt>

<wpt lat="33.207542419433594" lon="129.05935668945312">
 <time>2015-12-06T02:24:46ZZ</time>
 <name><![CDATA[庵の山]]></name>
</wpt>

<wpt lat="33.125587463378906" lon="129.70294189453125">
 <time>2015-12-06T02:24:46ZZ</time>
 <name><![CDATA[庵浦]]></name>
</wpt>

<wpt lat="33.12462615966797" lon="129.69921875">
 <time>2015-12-06T02:24:46ZZ</time>
 <name><![CDATA[庵浦小学校前]]></name>
</wpt>

<wpt lat="33.11802291870117" lon="129.70594787597656">
 <time>2015-12-06T02:24:46ZZ</time>
 <name><![CDATA[庵崎裏門]]></name>
</wpt>

<wpt lat="33.35304260253906" lon="129.54808044433594">
 <time>2015-12-06T02:24:46ZZ</time>
 <name><![CDATA[鞍掛]]></name>
</wpt>

<wpt lat="32.62093734741211" lon="129.7919158935547">
 <time>2015-12-06T02:24:46ZZ</time>
 <name><![CDATA[以下宿]]></name>
</wpt>

<wpt lat="33.0467529296875" lon="129.74742126464844">
 <time>2015-12-06T02:24:46ZZ</time>
 <name><![CDATA[伊の浦入口]]></name>
</wpt>

<wpt lat="32.71043395996094" lon="129.76356506347656">
 <time>2015-12-06T02:24:46ZZ</time>
 <name><![CDATA[伊王島灯台]]></name>
</wpt>

<wpt lat="32.87008285522461" lon="130.24172973632812">
 <time>2015-12-06T02:24:46ZZ</time>
 <name><![CDATA[伊古]]></name>
</wpt>

<wpt lat="33.80089569091797" lon="129.6748046875">
 <time>2015-12-06T02:24:46ZZ</time>
 <name><![CDATA[伊志呂]]></name>
</wpt>

<wpt lat="32.63993453979492" lon="130.1841583251953">
 <time>2015-12-06T02:24:46ZZ</time>
 <name><![CDATA[伊場]]></name>
</wpt>

<wpt lat="34.56020736694336" lon="129.3135223388672">
 <time>2015-12-06T02:24:46ZZ</time>
 <name><![CDATA[伊奈]]></name>
</wpt>

<wpt lat="32.86458206176758" lon="130.23312377929688">
 <time>2015-12-06T02:24:46ZZ</time>
 <name><![CDATA[伊福]]></name>
</wpt>

<wpt lat="32.85637283325195" lon="129.92831420898438">
 <time>2015-12-06T02:24:46ZZ</time>
 <name><![CDATA[伊木力橋]]></name>
</wpt>

<wpt lat="32.857147216796875" lon="129.92788696289062">
 <time>2015-12-06T02:24:46ZZ</time>
 <name><![CDATA[伊木力出張所前]]></name>
</wpt>

<wpt lat="34.42862319946289" lon="129.36318969726562">
 <time>2015-12-06T02:24:46ZZ</time>
 <name><![CDATA[位之端]]></name>
</wpt>

<wpt lat="32.64224624633789" lon="129.83543395996094">
 <time>2015-12-06T02:24:46ZZ</time>
 <name><![CDATA[為石]]></name>
</wpt>

<wpt lat="32.641624450683594" lon="129.83876037597656">
 <time>2015-12-06T02:24:46ZZ</time>
 <name><![CDATA[為石公民館前]]></name>
</wpt>

<wpt lat="32.64299774169922" lon="129.83837890625">
 <time>2015-12-06T02:24:46ZZ</time>
 <name><![CDATA[為石小学校前]]></name>
</wpt>

<wpt lat="32.77222442626953" lon="129.86721801757812">
 <time>2015-12-06T02:24:46ZZ</time>
 <name><![CDATA[医学部前]]></name>
</wpt>

<wpt lat="32.801902770996094" lon="129.83726501464844">
 <time>2015-12-06T02:24:46ZZ</time>
 <name><![CDATA[井の下]]></name>
</wpt>

<wpt lat="34.6257438659668" lon="129.34901428222656">
 <time>2015-12-06T02:24:46ZZ</time>
 <name><![CDATA[井口]]></name>
</wpt>

<wpt lat="32.92966079711914" lon="130.19654846191406">
 <time>2015-12-06T02:24:46ZZ</time>
 <name><![CDATA[井崎]]></name>
</wpt>

<wpt lat="32.63196563720703" lon="128.6172332763672">
 <time>2015-12-06T02:24:46ZZ</time>
 <name><![CDATA[井持]]></name>
</wpt>

<wpt lat="32.61610794067383" lon="128.6140594482422">
 <time>2015-12-06T02:24:46ZZ</time>
 <name><![CDATA[井持浦]]></name>
</wpt>

<wpt lat="32.636962890625" lon="130.2282257080078">
 <time>2015-12-06T02:24:46ZZ</time>
 <name><![CDATA[井手]]></name>
</wpt>

<wpt lat="33.12100601196289" lon="129.86976623535156">
 <time>2015-12-06T02:24:46ZZ</time>
 <name><![CDATA[井手の元]]></name>
</wpt>

<wpt lat="32.818870544433594" lon="129.8470916748047">
 <time>2015-12-06T02:24:46ZZ</time>
 <name><![CDATA[井手園]]></name>
</wpt>

<wpt lat="32.82039260864258" lon="130.1116943359375">
 <time>2015-12-06T02:24:46ZZ</time>
 <name><![CDATA[井手口]]></name>
</wpt>

<wpt lat="33.40076446533203" lon="129.831298828125">
 <time>2015-12-06T02:24:46ZZ</time>
 <name><![CDATA[井手川]]></name>
</wpt>

<wpt lat="32.674381256103516" lon="128.73899841308594">
 <time>2015-12-06T02:24:46ZZ</time>
 <name><![CDATA[井出関]]></name>
</wpt>

<wpt lat="32.58878707885742" lon="129.7936248779297">
 <time>2015-12-06T02:24:46ZZ</time>
 <name><![CDATA[井上]]></name>
</wpt>

<wpt lat="33.253597259521484" lon="129.42774963378906">
 <time>2015-12-06T02:24:46ZZ</time>
 <name><![CDATA[井上入口]]></name>
</wpt>

<wpt lat="33.13739013671875" lon="129.9129638671875">
 <time>2015-12-06T02:24:46ZZ</time>
 <name><![CDATA[井石神社前]]></name>
</wpt>

<wpt lat="32.79530334472656" lon="130.11776733398438">
 <time>2015-12-06T02:24:46ZZ</time>
 <name><![CDATA[井牟田口]]></name>
</wpt>

<wpt lat="32.95098114013672" lon="130.01356506347656">
 <time>2015-12-06T02:24:46ZZ</time>
 <name><![CDATA[井流]]></name>
</wpt>

<wpt lat="32.700889587402344" lon="129.8474578857422">
 <time>2015-12-06T02:24:46ZZ</time>
 <name><![CDATA[磯道町]]></name>
</wpt>

<wpt lat="33.15822219848633" lon="129.6803741455078">
 <time>2015-12-06T02:24:46ZZ</time>
 <name><![CDATA[磯辺]]></name>
</wpt>

<wpt lat="32.99343490600586" lon="129.9674530029297">
 <time>2015-12-06T02:24:46ZZ</time>
 <name><![CDATA[一ツ石]]></name>
</wpt>

<wpt lat="33.18729782104492" lon="129.71377563476562">
 <time>2015-12-06T02:24:46ZZ</time>
 <name><![CDATA[一つ目橋]]></name>
</wpt>

<wpt lat="32.8800163269043" lon="130.07456970214844">
 <time>2015-12-06T02:24:46ZZ</time>
 <name><![CDATA[一ノ瀬]]></name>
</wpt>

<wpt lat="33.355194091796875" lon="129.59776306152344">
 <time>2015-12-06T02:24:46ZZ</time>
 <name><![CDATA[一関]]></name>
</wpt>

<wpt lat="32.674232482910156" lon="128.7174835205078">
 <time>2015-12-06T02:24:46ZZ</time>
 <name><![CDATA[一軒家]]></name>
</wpt>

<wpt lat="32.62936782836914" lon="128.75323486328125">
 <time>2015-12-06T02:24:46ZZ</time>
 <name><![CDATA[一軒家]]></name>
</wpt>

<wpt lat="32.864837646484375" lon="130.03651428222656">
 <time>2015-12-06T02:24:46ZZ</time>
 <name><![CDATA[一軒茶屋]]></name>
</wpt>

<wpt lat="33.76845169067383" lon="129.75527954101562">
 <time>2015-12-06T02:24:46ZZ</time>
 <name><![CDATA[一支国博物館]]></name>
</wpt>

<wpt lat="34.53036117553711" lon="129.44500732421875">
 <time>2015-12-06T02:24:46ZZ</time>
 <name><![CDATA[一重]]></name>
</wpt>

<wpt lat="33.200965881347656" lon="129.65293884277344">
 <time>2015-12-06T02:24:46ZZ</time>
 <name><![CDATA[一条通り]]></name>
</wpt>

<wpt lat="32.78734588623047" lon="130.02688598632812">
 <time>2015-12-06T02:24:46ZZ</time>
 <name><![CDATA[一宅]]></name>
</wpt>

<wpt lat="32.793880462646484" lon="130.363525390625">
 <time>2015-12-06T02:24:46ZZ</time>
 <name><![CDATA[一中前]]></name>
</wpt>

<wpt lat="32.771461486816406" lon="129.84242248535156">
 <time>2015-12-06T02:24:46ZZ</time>
 <name><![CDATA[一丁目中央]]></name>
</wpt>

<wpt lat="32.772010803222656" lon="129.84413146972656">
 <time>2015-12-06T02:24:46ZZ</time>
 <name><![CDATA[一丁目中腹]]></name>
</wpt>

<wpt lat="32.773006439208984" lon="129.8448028564453">
 <time>2015-12-06T02:24:46ZZ</time>
 <name><![CDATA[一丁目入口]]></name>
</wpt>

<wpt lat="32.82743453979492" lon="129.9011688232422">
 <time>2015-12-06T02:24:46ZZ</time>
 <name><![CDATA[一平]]></name>
</wpt>

<wpt lat="33.82245635986328" lon="129.7501678466797">
 <time>2015-12-06T02:24:46ZZ</time>
 <name><![CDATA[一本松]]></name>
</wpt>

<wpt lat="33.04062271118164" lon="129.92225646972656">
 <time>2015-12-06T02:24:46ZZ</time>
 <name><![CDATA[一本松]]></name>
</wpt>

<wpt lat="33.12361526489258" lon="129.09996032714844">
 <time>2015-12-06T02:24:46ZZ</time>
 <name><![CDATA[一本松]]></name>
</wpt>

<wpt lat="32.86128234863281" lon="129.87640380859375">
 <time>2015-12-06T02:24:46ZZ</time>
 <name><![CDATA[一本松]]></name>
</wpt>

<wpt lat="32.7841682434082" lon="129.88050842285156">
 <time>2015-12-06T02:24:46ZZ</time>
 <name><![CDATA[一本木]]></name>
</wpt>

<wpt lat="32.701629638671875" lon="128.801025390625">
 <time>2015-12-06T02:24:46ZZ</time>
 <name><![CDATA[一里川橋]]></name>
</wpt>

<wpt lat="33.7500114440918" lon="129.7847442626953">
 <time>2015-12-06T02:24:46ZZ</time>
 <name><![CDATA[壱岐空港]]></name>
</wpt>

<wpt lat="33.849021911621094" lon="129.6927947998047">
 <time>2015-12-06T02:24:46ZZ</time>
 <name><![CDATA[壱岐市役所勝本庁舎前]]></name>
</wpt>

<wpt lat="33.811832427978516" lon="129.76141357421875">
 <time>2015-12-06T02:24:46ZZ</time>
 <name><![CDATA[壱岐神社前]]></name>
</wpt>

<wpt lat="33.846519470214844" lon="129.69302368164062">
 <time>2015-12-06T02:24:46ZZ</time>
 <name><![CDATA[稲荷下]]></name>
</wpt>

<wpt lat="33.1585578918457" lon="129.7374267578125">
 <time>2015-12-06T02:24:46ZZ</time>
 <name><![CDATA[稲荷町]]></name>
</wpt>

<wpt lat="32.75644302368164" lon="129.86444091796875">
 <time>2015-12-06T02:24:46ZZ</time>
 <name><![CDATA[稲佐橋]]></name>
</wpt>

<wpt lat="32.75563430786133" lon="129.86203002929688">
 <time>2015-12-06T02:24:46ZZ</time>
 <name><![CDATA[稲佐公園前]]></name>
</wpt>

<wpt lat="32.758323669433594" lon="129.84713745117188">
 <time>2015-12-06T02:24:46ZZ</time>
 <name><![CDATA[稲佐山]]></name>
</wpt>

<wpt lat="32.75435256958008" lon="129.85304260253906">
 <time>2015-12-06T02:24:46ZZ</time>
 <name><![CDATA[稲佐山中腹]]></name>
</wpt>

<wpt lat="33.745304107666016" lon="129.757080078125">
 <time>2015-12-06T02:24:46ZZ</time>
 <name><![CDATA[印通寺]]></name>
</wpt>

<wpt lat="33.742374420166016" lon="129.75636291503906">
 <time>2015-12-06T02:24:46ZZ</time>
 <name><![CDATA[印通寺港]]></name>
</wpt>

<wpt lat="32.653228759765625" lon="130.28900146484375">
 <time>2015-12-06T02:24:46ZZ</time>
 <name><![CDATA[引無田]]></name>
</wpt>

<wpt lat="32.69838333129883" lon="130.33642578125">
 <time>2015-12-06T02:24:46ZZ</time>
 <name><![CDATA[蔭平]]></name>
</wpt>

<wpt lat="33.053184509277344" lon="129.94630432128906">
 <time>2015-12-06T02:24:46ZZ</time>
 <name><![CDATA[蔭平橋]]></name>
</wpt>

<wpt lat="32.71250534057617" lon="130.21971130371094">
 <time>2015-12-06T02:24:46ZZ</time>
 <name><![CDATA[蔭平口]]></name>
</wpt>

<wpt lat="32.82221221923828" lon="129.9099884033203">
 <time>2015-12-06T02:24:46ZZ</time>
 <name><![CDATA[隠川内]]></name>
</wpt>

<wpt lat="33.26101303100586" lon="129.12965393066406">
 <time>2015-12-06T02:24:46ZZ</time>
 <name><![CDATA[宇久ターミナル]]></name>
</wpt>

<wpt lat="33.26199722290039" lon="129.12977600097656">
 <time>2015-12-06T02:24:46ZZ</time>
 <name><![CDATA[宇久行政センター前]]></name>
</wpt>

<wpt lat="33.26573944091797" lon="129.1302947998047">
 <time>2015-12-06T02:24:46ZZ</time>
 <name><![CDATA[宇久小学校前]]></name>
</wpt>

<wpt lat="33.26567840576172" lon="129.12936401367188">
 <time>2015-12-06T02:24:46ZZ</time>
 <name><![CDATA[宇久診療所]]></name>
</wpt>

<wpt lat="33.25345230102539" lon="129.09983825683594">
 <time>2015-12-06T02:24:46ZZ</time>
 <name><![CDATA[宇久島神社前]]></name>
</wpt>

<wpt lat="32.77559280395508" lon="129.81053161621094">
 <time>2015-12-06T02:24:46ZZ</time>
 <name><![CDATA[宇都口]]></name>
</wpt>

<wpt lat="33.758785247802734" lon="129.67877197265625">
 <time>2015-12-06T02:24:46ZZ</time>
 <name><![CDATA[宇土]]></name>
</wpt>

<wpt lat="32.80231857299805" lon="130.34521484375">
 <time>2015-12-06T02:24:46ZZ</time>
 <name><![CDATA[宇土出口]]></name>
</wpt>

<wpt lat="33.1801872253418" lon="129.7561798095703">
 <time>2015-12-06T02:24:46ZZ</time>
 <name><![CDATA[烏帽子岳]]></name>
</wpt>

<wpt lat="33.347862243652344" lon="129.78082275390625">
 <time>2015-12-06T02:24:46ZZ</time>
 <name><![CDATA[羽古場]]></name>
</wpt>

<wpt lat="33.20359420776367" lon="129.07620239257812">
 <time>2015-12-06T02:24:46ZZ</time>
 <name><![CDATA[羽山]]></name>
</wpt>

<wpt lat="32.757808685302734" lon="130.24505615234375">
 <time>2015-12-06T02:24:46ZZ</time>
 <name><![CDATA[羽山橋]]></name>
</wpt>

<wpt lat="33.256526947021484" lon="129.7427520751953">
 <time>2015-12-06T02:24:46ZZ</time>
 <name><![CDATA[羽付]]></name>
</wpt>

<wpt lat="33.25958251953125" lon="129.4906768798828">
 <time>2015-12-06T02:24:46ZZ</time>
 <name><![CDATA[雨久保]]></name>
</wpt>

<wpt lat="32.678829193115234" lon="128.76739501953125">
 <time>2015-12-06T02:24:46ZZ</time>
 <name><![CDATA[雨通宿]]></name>
</wpt>

<wpt lat="32.68547058105469" lon="128.77381896972656">
 <time>2015-12-06T02:24:46ZZ</time>
 <name><![CDATA[雨通宿橋]]></name>
</wpt>

<wpt lat="34.38494873046875" lon="129.2954864501953">
 <time>2015-12-06T02:24:46ZZ</time>
 <name><![CDATA[卯麦]]></name>
</wpt>

<wpt lat="32.75367736816406" lon="129.97805786132812">
 <time>2015-12-06T02:24:46ZZ</time>
 <name><![CDATA[臼の浦]]></name>
</wpt>

<wpt lat="33.219398498535156" lon="129.6239013671875">
 <time>2015-12-06T02:24:46ZZ</time>
 <name><![CDATA[臼の浦]]></name>
</wpt>

<wpt lat="33.21641159057617" lon="129.62181091308594">
 <time>2015-12-06T02:24:46ZZ</time>
 <name><![CDATA[臼の浦港]]></name>
</wpt>

<wpt lat="33.21113204956055" lon="129.6748504638672">
 <time>2015-12-06T02:24:46ZZ</time>
 <name><![CDATA[嘘越]]></name>
</wpt>

<wpt lat="32.98691940307617" lon="129.08631896972656">
 <time>2015-12-06T02:24:46ZZ</time>
 <name><![CDATA[浦]]></name>
</wpt>

<wpt lat="32.73499298095703" lon="128.76976013183594">
 <time>2015-12-06T02:24:46ZZ</time>
 <name><![CDATA[浦ノ川]]></name>
</wpt>

<wpt lat="32.78683853149414" lon="130.36465454101562">
 <time>2015-12-06T02:24:46ZZ</time>
 <name><![CDATA[浦ノ川]]></name>
</wpt>

<wpt lat="33.14155197143555" lon="129.69845581054688">
 <time>2015-12-06T02:24:46ZZ</time>
 <name><![CDATA[浦崎]]></name>
</wpt>

<wpt lat="32.765411376953125" lon="129.8640899658203">
 <time>2015-12-06T02:24:46ZZ</time>
 <name><![CDATA[浦上駅前]]></name>
</wpt>

<wpt lat="32.78353500366211" lon="129.86395263671875">
 <time>2015-12-06T02:24:46ZZ</time>
 <name><![CDATA[浦上署前]]></name>
</wpt>

<wpt lat="32.79662322998047" lon="129.87185668945312">
 <time>2015-12-06T02:24:46ZZ</time>
 <name><![CDATA[浦上水源地]]></name>
</wpt>

<wpt lat="32.7760124206543" lon="129.86712646484375">
 <time>2015-12-06T02:24:46ZZ</time>
 <name><![CDATA[浦上天主堂前]]></name>
</wpt>

<wpt lat="33.12008285522461" lon="129.8092803955078">
 <time>2015-12-06T02:24:46ZZ</time>
 <name><![CDATA[浦川内公民館前]]></name>
</wpt>

<wpt lat="34.38257598876953" lon="129.35015869140625">
 <time>2015-12-06T02:24:46ZZ</time>
 <name><![CDATA[浦底]]></name>
</wpt>

<wpt lat="32.94225311279297" lon="129.81016540527344">
 <time>2015-12-06T02:24:46ZZ</time>
 <name><![CDATA[浦底]]></name>
</wpt>

<wpt lat="32.63874435424805" lon="130.25323486328125">
 <time>2015-12-06T02:24:46ZZ</time>
 <name><![CDATA[浦田]]></name>
</wpt>

<wpt lat="32.63697814941406" lon="130.25347900390625">
 <time>2015-12-06T02:24:46ZZ</time>
 <name><![CDATA[浦田観音]]></name>
</wpt>

<wpt lat="32.778343200683594" lon="130.37359619140625">
 <time>2015-12-06T02:24:46ZZ</time>
 <name><![CDATA[浦田舟津]]></name>
</wpt>

<wpt lat="32.735572814941406" lon="128.83084106445312">
 <time>2015-12-06T02:24:46ZZ</time>
 <name><![CDATA[浦頭]]></name>
</wpt>

<wpt lat="33.097537994384766" lon="129.76060485839844">
 <time>2015-12-06T02:24:46ZZ</time>
 <name><![CDATA[浦頭]]></name>
</wpt>

<wpt lat="33.099586486816406" lon="129.753662109375">
 <time>2015-12-06T02:24:46ZZ</time>
 <name><![CDATA[浦頭波止場前]]></name>
</wpt>

<wpt lat="32.87346267700195" lon="129.00469970703125">
 <time>2015-12-06T02:24:46ZZ</time>
 <name><![CDATA[浦内]]></name>
</wpt>

<wpt lat="32.984561920166016" lon="129.0858612060547">
 <time>2015-12-06T02:24:46ZZ</time>
 <name><![CDATA[浦浜]]></name>
</wpt>

<wpt lat="33.39044189453125" lon="129.55357360839844">
 <time>2015-12-06T02:24:46ZZ</time>
 <name><![CDATA[浦方]]></name>
</wpt>

<wpt lat="32.95309066772461" lon="129.79306030273438">
 <time>2015-12-06T02:24:46ZZ</time>
 <name><![CDATA[浦目]]></name>
</wpt>

<wpt lat="32.59376907348633" lon="129.76174926757812">
 <time>2015-12-06T02:24:46ZZ</time>
 <name><![CDATA[運動公園前]]></name>
</wpt>

<wpt lat="32.60720443725586" lon="128.65719604492188">
 <time>2015-12-06T02:24:46ZZ</time>
 <name><![CDATA[運動公園前]]></name>
</wpt>

<wpt lat="32.87976837158203" lon="129.0045623779297">
 <time>2015-12-06T02:24:46ZZ</time>
 <name><![CDATA[運動公園前]]></name>
</wpt>

<wpt lat="32.593265533447266" lon="129.76254272460938">
 <time>2015-12-06T02:24:46ZZ</time>
 <name><![CDATA[運動公園前]]></name>
</wpt>

<wpt lat="32.79646301269531" lon="129.85223388671875">
 <time>2015-12-06T02:24:46ZZ</time>
 <name><![CDATA[運動場前]]></name>
</wpt>

<wpt lat="33.25428009033203" lon="129.7427978515625">
 <time>2015-12-06T02:24:46ZZ</time>
 <name><![CDATA[運動場入口]]></name>
</wpt>

<wpt lat="32.74177169799805" lon="130.2609100341797">
 <time>2015-12-06T02:24:46ZZ</time>
 <name><![CDATA[雲仙]]></name>
</wpt>

<wpt lat="32.73851776123047" lon="130.26271057128906">
 <time>2015-12-06T02:24:46ZZ</time>
 <name><![CDATA[雲仙お山の情報館]]></name>
</wpt>

<wpt lat="32.729270935058594" lon="130.305908203125">
 <time>2015-12-06T02:24:46ZZ</time>
 <name><![CDATA[雲仙ミカドホテル本館前]]></name>
</wpt>

<wpt lat="32.83612060546875" lon="130.1868896484375">
 <time>2015-12-06T02:24:46ZZ</time>
 <name><![CDATA[雲仙市役所前]]></name>
</wpt>

<wpt lat="33.43452453613281" lon="129.75611877441406">
 <time>2015-12-06T02:24:46ZZ</time>
 <name><![CDATA[営業所]]></name>
</wpt>

<wpt lat="32.66176223754883" lon="129.7567596435547">
 <time>2015-12-06T02:24:46ZZ</time>
 <name><![CDATA[営業所]]></name>
</wpt>

<wpt lat="32.83395767211914" lon="128.9333953857422">
 <time>2015-12-06T02:24:46ZZ</time>
 <name><![CDATA[営業所前]]></name>
</wpt>

<wpt lat="32.65165710449219" lon="129.82867431640625">
 <time>2015-12-06T02:24:46ZZ</time>
 <name><![CDATA[栄上]]></name>
</wpt>

<wpt lat="32.776187896728516" lon="130.36810302734375">
 <time>2015-12-06T02:24:46ZZ</time>
 <name><![CDATA[栄町]]></name>
</wpt>

<wpt lat="32.841339111328125" lon="130.05557250976562">
 <time>2015-12-06T02:24:46ZZ</time>
 <name><![CDATA[栄町]]></name>
</wpt>

<wpt lat="32.853519439697266" lon="130.03919982910156">
 <time>2015-12-06T02:24:46ZZ</time>
 <name><![CDATA[栄田]]></name>
</wpt>

<wpt lat="32.80097198486328" lon="130.03013610839844">
 <time>2015-12-06T02:24:46ZZ</time>
 <name><![CDATA[栄野]]></name>
</wpt>

<wpt lat="33.01480484008789" lon="129.57298278808594">
 <time>2015-12-06T02:24:46ZZ</time>
 <name><![CDATA[永浦]]></name>
</wpt>

<wpt lat="32.84981155395508" lon="130.0402069091797">
 <time>2015-12-06T02:24:46ZZ</time>
 <name><![CDATA[永昌町]]></name>
</wpt>

<wpt lat="33.74267578125" lon="129.69984436035156">
 <time>2015-12-06T02:24:46ZZ</time>
 <name><![CDATA[永田]]></name>
</wpt>

<wpt lat="32.82908248901367" lon="129.72401428222656">
 <time>2015-12-06T02:24:46ZZ</time>
 <name><![CDATA[永田岡]]></name>
</wpt>

<wpt lat="32.83048629760742" lon="129.7195281982422">
 <time>2015-12-06T02:24:46ZZ</time>
 <name><![CDATA[永田湿地公園]]></name>
</wpt>

<wpt lat="32.831233978271484" lon="129.71917724609375">
 <time>2015-12-06T02:24:46ZZ</time>
 <name><![CDATA[永田浜]]></name>
</wpt>

<wpt lat="32.8437614440918" lon="128.9544219970703">
 <time>2015-12-06T02:24:46ZZ</time>
 <name><![CDATA[永這]]></name>
</wpt>

<wpt lat="33.131446838378906" lon="129.94119262695312">
 <time>2015-12-06T02:24:46ZZ</time>
 <name><![CDATA[永尾山]]></name>
</wpt>

<wpt lat="33.137237548828125" lon="129.92807006835938">
 <time>2015-12-06T02:24:46ZZ</time>
 <name><![CDATA[永尾山入口]]></name>
</wpt>

<wpt lat="32.75159454345703" lon="129.87298583984375">
 <time>2015-12-06T02:24:46ZZ</time>
 <name><![CDATA[駅前東口]]></name>
</wpt>

<wpt lat="32.751461029052734" lon="129.87225341796875">
 <time>2015-12-06T02:24:46ZZ</time>
 <name><![CDATA[駅前南口]]></name>
</wpt>

<wpt lat="34.55066680908203" lon="129.32818603515625">
 <time>2015-12-06T02:24:46ZZ</time>
 <name><![CDATA[越高]]></name>
</wpt>

<wpt lat="32.862770080566406" lon="129.92567443847656">
 <time>2015-12-06T02:24:46ZZ</time>
 <name><![CDATA[越首]]></name>
</wpt>

<wpt lat="32.9009895324707" lon="129.06524658203125">
 <time>2015-12-06T02:24:46ZZ</time>
 <name><![CDATA[越首]]></name>
</wpt>

<wpt lat="32.663185119628906" lon="128.72998046875">
 <time>2015-12-06T02:24:46ZZ</time>
 <name><![CDATA[越地]]></name>
</wpt>

<wpt lat="32.82300567626953" lon="129.8750457763672">
 <time>2015-12-06T02:24:46ZZ</time>
 <name><![CDATA[榎の鼻]]></name>
</wpt>

<wpt lat="32.82297897338867" lon="129.87594604492188">
 <time>2015-12-06T02:24:46ZZ</time>
 <name><![CDATA[榎の鼻]]></name>
</wpt>

<wpt lat="32.95712661743164" lon="130.0103759765625">
 <time>2015-12-06T02:24:46ZZ</time>
 <name><![CDATA[榎茶屋]]></name>
</wpt>

<wpt lat="32.99517822265625" lon="129.09243774414062">
 <time>2015-12-06T02:24:46ZZ</time>
 <name><![CDATA[榎津]]></name>
</wpt>

<wpt lat="32.996829986572266" lon="129.0916290283203">
 <time>2015-12-06T02:24:46ZZ</time>
 <name><![CDATA[榎津中央]]></name>
</wpt>

<wpt lat="32.78462219238281" lon="129.93994140625">
 <time>2015-12-06T02:24:46ZZ</time>
 <name><![CDATA[榎木]]></name>
</wpt>

<wpt lat="33.35566329956055" lon="129.61073303222656">
 <time>2015-12-06T02:24:46ZZ</time>
 <name><![CDATA[円通寺前]]></name>
</wpt>

<wpt lat="32.800106048583984" lon="129.87051391601562">
 <time>2015-12-06T02:24:46ZZ</time>
 <name><![CDATA[園折]]></name>
</wpt>

<wpt lat="33.25859832763672" lon="129.66867065429688">
 <time>2015-12-06T02:24:46ZZ</time>
 <name><![CDATA[延命寺]]></name>
</wpt>

<wpt lat="32.879886627197266" lon="130.1019287109375">
 <time>2015-12-06T02:24:46ZZ</time>
 <name><![CDATA[猿崎]]></name>
</wpt>

<wpt lat="33.779640197753906" lon="129.75067138671875">
 <time>2015-12-06T02:24:46ZZ</time>
 <name><![CDATA[猿川]]></name>
</wpt>

<wpt lat="32.816707611083984" lon="129.80764770507812">
 <time>2015-12-06T02:24:46ZZ</time>
 <name><![CDATA[遠の木場]]></name>
</wpt>

<wpt lat="33.07931900024414" lon="129.6784210205078">
 <time>2015-12-06T02:24:46ZZ</time>
 <name><![CDATA[遠照院下]]></name>
</wpt>

<wpt lat="32.83628845214844" lon="129.70252990722656">
 <time>2015-12-06T02:24:46ZZ</time>
 <name><![CDATA[遠藤周作文学館]]></name>
</wpt>

<wpt lat="33.159568786621094" lon="129.6934356689453">
 <time>2015-12-06T02:24:46ZZ</time>
 <name><![CDATA[鴛の浦分道]]></name>
</wpt>

<wpt lat="34.38625717163086" lon="129.3517303466797">
 <time>2015-12-06T02:24:46ZZ</time>
 <name><![CDATA[塩浦小前]]></name>
</wpt>

<wpt lat="32.76947784423828" lon="130.01998901367188">
 <time>2015-12-06T02:24:46ZZ</time>
 <name><![CDATA[塩屋]]></name>
</wpt>

<wpt lat="32.87663650512695" lon="130.30445861816406">
 <time>2015-12-06T02:24:46ZZ</time>
 <name><![CDATA[塩屋]]></name>
</wpt>

<wpt lat="32.79281997680664" lon="130.18385314941406">
 <time>2015-12-06T02:24:46ZZ</time>
 <name><![CDATA[塩屋]]></name>
</wpt>

<wpt lat="33.00258255004883" lon="129.78697204589844">
 <time>2015-12-06T02:24:46ZZ</time>
 <name><![CDATA[塩屋越]]></name>
</wpt>

<wpt lat="33.223262786865234" lon="129.6090545654297">
 <time>2015-12-06T02:24:46ZZ</time>
 <name><![CDATA[塩釜町]]></name>
</wpt>

<wpt lat="32.86777877807617" lon="129.8813934326172">
 <time>2015-12-06T02:24:46ZZ</time>
 <name><![CDATA[塩床]]></name>
</wpt>

<wpt lat="32.75621032714844" lon="128.64956665039062">
 <time>2015-12-06T02:24:46ZZ</time>
 <name><![CDATA[塩水集会所前]]></name>
</wpt>

<wpt lat="32.70070266723633" lon="129.77645874023438">
 <time>2015-12-06T02:24:46ZZ</time>
 <name><![CDATA[塩町団地]]></name>
</wpt>

<wpt lat="32.64696502685547" lon="128.86990356445312">
 <time>2015-12-06T02:24:46ZZ</time>
 <name><![CDATA[塩津]]></name>
</wpt>

<wpt lat="32.793846130371094" lon="129.85621643066406">
 <time>2015-12-06T02:24:46ZZ</time>
 <name><![CDATA[塩塚薬局前]]></name>
</wpt>

<wpt lat="33.04802322387695" lon="129.59884643554688">
 <time>2015-12-06T02:24:46ZZ</time>
 <name><![CDATA[塩田]]></name>
</wpt>

<wpt lat="33.41714096069336" lon="129.42381286621094">
 <time>2015-12-06T02:24:46ZZ</time>
 <name><![CDATA[塩俵断崖前]]></name>
</wpt>

<wpt lat="34.389225006103516" lon="129.37393188476562">
 <time>2015-12-06T02:24:46ZZ</time>
 <name><![CDATA[塩浜]]></name>
</wpt>

<wpt lat="32.74147033691406" lon="129.85459899902344">
 <time>2015-12-06T02:24:46ZZ</time>
 <name><![CDATA[塩浜町]]></name>
</wpt>

<wpt lat="33.040565490722656" lon="129.61602783203125">
 <time>2015-12-06T02:24:46ZZ</time>
 <name><![CDATA[奥ノ谷]]></name>
</wpt>

<wpt lat="32.96181106567383" lon="129.10292053222656">
 <time>2015-12-06T02:24:46ZZ</time>
 <name><![CDATA[奥浦]]></name>
</wpt>

<wpt lat="32.741851806640625" lon="128.82447814941406">
 <time>2015-12-06T02:24:46ZZ</time>
 <name><![CDATA[奥浦]]></name>
</wpt>

<wpt lat="33.024131774902344" lon="129.56625366210938">
 <time>2015-12-06T02:24:46ZZ</time>
 <name><![CDATA[奥浦]]></name>
</wpt>

<wpt lat="32.73750305175781" lon="128.8282012939453">
 <time>2015-12-06T02:24:46ZZ</time>
 <name><![CDATA[奥浦小学校前]]></name>
</wpt>

<wpt lat="32.75787353515625" lon="129.9143524169922">
 <time>2015-12-06T02:24:46ZZ</time>
 <name><![CDATA[奥山]]></name>
</wpt>

<wpt lat="33.043190002441406" lon="129.69558715820312">
 <time>2015-12-06T02:24:46ZZ</time>
 <name><![CDATA[奥野]]></name>
</wpt>

<wpt lat="32.60920715332031" lon="128.7554473876953">
 <time>2015-12-06T02:24:46ZZ</time>
 <name><![CDATA[横ヶ倉口]]></name>
</wpt>

<wpt lat="34.387454986572266" lon="129.359375">
 <time>2015-12-06T02:24:46ZZ</time>
 <name><![CDATA[横浦]]></name>
</wpt>

<wpt lat="33.008155822753906" lon="129.73129272460938">
 <time>2015-12-06T02:24:46ZZ</time>
 <name><![CDATA[横浦]]></name>
</wpt>

<wpt lat="32.99027633666992" lon="129.0470428466797">
 <time>2015-12-06T02:24:46ZZ</time>
 <name><![CDATA[横崎]]></name>
</wpt>

<wpt lat="32.79841995239258" lon="130.1063232421875">
 <time>2015-12-06T02:24:46ZZ</time>
 <name><![CDATA[横山]]></name>
</wpt>

<wpt lat="32.9318733215332" lon="130.01699829101562">
 <time>2015-12-06T02:24:46ZZ</time>
 <name><![CDATA[横山頭]]></name>
</wpt>

<wpt lat="32.929481506347656" lon="130.0119171142578">
 <time>2015-12-06T02:24:46ZZ</time>
 <name><![CDATA[横山頭入口]]></name>
</wpt>

<wpt lat="32.86819839477539" lon="129.047607421875">
 <time>2015-12-06T02:24:46ZZ</time>
 <name><![CDATA[横瀬]]></name>
</wpt>

<wpt lat="33.082157135009766" lon="129.70228576660156">
 <time>2015-12-06T02:24:46ZZ</time>
 <name><![CDATA[横瀬]]></name>
</wpt>

<wpt lat="33.082210540771484" lon="129.70384216308594">
 <time>2015-12-06T02:24:46ZZ</time>
 <name><![CDATA[横瀬桟橋]]></name>
</wpt>

<wpt lat="33.074241638183594" lon="129.70489501953125">
 <time>2015-12-06T02:24:46ZZ</time>
 <name><![CDATA[横瀬入口]]></name>
</wpt>

<wpt lat="33.07904815673828" lon="129.70204162597656">
 <time>2015-12-06T02:24:46ZZ</time>
 <name><![CDATA[横瀬保育所前]]></name>
</wpt>

<wpt lat="32.836875915527344" lon="130.00604248046875">
 <time>2015-12-06T02:24:46ZZ</time>
 <name><![CDATA[横島]]></name>
</wpt>

<wpt lat="32.701026916503906" lon="130.2474822998047">
 <time>2015-12-06T02:24:46ZZ</time>
 <name><![CDATA[横道]]></name>
</wpt>

<wpt lat="32.80601119995117" lon="129.84854125976562">
 <time>2015-12-06T02:24:46ZZ</time>
 <name><![CDATA[横道]]></name>
</wpt>

<wpt lat="32.80699157714844" lon="129.84701538085938">
 <time>2015-12-06T02:24:46ZZ</time>
 <name><![CDATA[横道]]></name>
</wpt>

<wpt lat="33.79080581665039" lon="129.67262268066406">
 <time>2015-12-06T02:24:46ZZ</time>
 <name><![CDATA[横内]]></name>
</wpt>

<wpt lat="32.953086853027344" lon="130.00900268554688">
 <time>2015-12-06T02:24:46ZZ</time>
 <name><![CDATA[横畑]]></name>
</wpt>

<wpt lat="33.199527740478516" lon="129.71844482421875">
 <time>2015-12-06T02:24:46ZZ</time>
 <name><![CDATA[横尾ハイツ入口]]></name>
</wpt>

<wpt lat="32.81051254272461" lon="129.8372039794922">
 <time>2015-12-06T02:24:46ZZ</time>
 <name><![CDATA[横尾口]]></name>
</wpt>

<wpt lat="32.81297302246094" lon="129.83297729492188">
 <time>2015-12-06T02:24:46ZZ</time>
 <name><![CDATA[横尾小学校前]]></name>
</wpt>

<wpt lat="32.813602447509766" lon="129.83688354492188">
 <time>2015-12-06T02:24:46ZZ</time>
 <name><![CDATA[横尾中央]]></name>
</wpt>

<wpt lat="32.81466293334961" lon="129.82974243164062">
 <time>2015-12-06T02:24:46ZZ</time>
 <name><![CDATA[横尾中学校口]]></name>
</wpt>

<wpt lat="33.81294631958008" lon="129.7502899169922">
 <time>2015-12-06T02:24:46ZZ</time>
 <name><![CDATA[横浜]]></name>
</wpt>

<wpt lat="33.1992301940918" lon="129.04151916503906">
 <time>2015-12-06T02:24:46ZZ</time>
 <name><![CDATA[横平]]></name>
</wpt>

<wpt lat="33.29913330078125" lon="129.7290802001953">
 <time>2015-12-06T02:24:46ZZ</time>
 <name><![CDATA[横辺田公会堂前]]></name>
</wpt>

<wpt lat="32.84965896606445" lon="129.8716583251953">
 <time>2015-12-06T02:24:46ZZ</time>
 <name><![CDATA[岡]]></name>
</wpt>

<wpt lat="32.84983444213867" lon="129.8733367919922">
 <time>2015-12-06T02:24:46ZZ</time>
 <name><![CDATA[岡]]></name>
</wpt>

<wpt lat="33.14539337158203" lon="129.7475128173828">
 <time>2015-12-06T02:24:46ZZ</time>
 <name><![CDATA[沖新町]]></name>
</wpt>

<wpt lat="33.15658950805664" lon="129.7513427734375">
 <time>2015-12-06T02:24:46ZZ</time>
 <name><![CDATA[沖新町入口]]></name>
</wpt>

<wpt lat="33.176544189453125" lon="129.66880798339844">
 <time>2015-12-06T02:24:46ZZ</time>
 <name><![CDATA[沖田自衛隊入口]]></name>
</wpt>

<wpt lat="32.69759750366211" lon="129.78189086914062">
 <time>2015-12-06T02:24:46ZZ</time>
 <name><![CDATA[沖之島教会下]]></name>
</wpt>

<wpt lat="32.81706619262695" lon="129.78065490722656">
 <time>2015-12-06T02:24:46ZZ</time>
 <name><![CDATA[沖平東]]></name>
</wpt>

<wpt lat="32.81422424316406" lon="129.77871704101562">
 <time>2015-12-06T02:24:46ZZ</time>
 <name><![CDATA[沖平南]]></name>
</wpt>

<wpt lat="33.3449821472168" lon="129.5899200439453">
 <time>2015-12-06T02:24:46ZZ</time>
 <name><![CDATA[荻田]]></name>
</wpt>

<wpt lat="33.36082458496094" lon="129.43124389648438">
 <time>2015-12-06T02:24:46ZZ</time>
 <name><![CDATA[屋敷町]]></name>
</wpt>

<wpt lat="33.252662658691406" lon="129.69744873046875">
 <time>2015-12-06T02:24:46ZZ</time>
 <name><![CDATA[乙石尾]]></name>
</wpt>

<wpt lat="32.77018737792969" lon="129.93820190429688">
 <time>2015-12-06T02:24:46ZZ</time>
 <name><![CDATA[卸団地]]></name>
</wpt>

<wpt lat="33.151493072509766" lon="129.76785278320312">
 <time>2015-12-06T02:24:46ZZ</time>
 <name><![CDATA[卸団地会館前]]></name>
</wpt>

<wpt lat="33.15066909790039" lon="129.76805114746094">
 <time>2015-12-06T02:24:46ZZ</time>
 <name><![CDATA[卸団地南口]]></name>
</wpt>

<wpt lat="33.15193557739258" lon="129.7700958251953">
 <time>2015-12-06T02:24:46ZZ</time>
 <name><![CDATA[卸本町]]></name>
</wpt>

<wpt lat="33.058284759521484" lon="129.8901824951172">
 <time>2015-12-06T02:24:46ZZ</time>
 <name><![CDATA[音琴宮下]]></name>
</wpt>

<wpt lat="32.785789489746094" lon="129.88844299316406">
 <time>2015-12-06T02:24:46ZZ</time>
 <name><![CDATA[下の角]]></name>
</wpt>

<wpt lat="32.92098617553711" lon="129.66334533691406">
 <time>2015-12-06T02:24:46ZZ</time>
 <name><![CDATA[下の釜]]></name>
</wpt>

<wpt lat="33.1347541809082" lon="129.8148193359375">
 <time>2015-12-06T02:24:46ZZ</time>
 <name><![CDATA[下の原橋]]></name>
</wpt>

<wpt lat="32.943084716796875" lon="129.06448364257812">
 <time>2015-12-06T02:24:46ZZ</time>
 <name><![CDATA[下の佐野原]]></name>
</wpt>

<wpt lat="32.85658264160156" lon="129.93324279785156">
 <time>2015-12-06T02:24:46ZZ</time>
 <name><![CDATA[下の谷]]></name>
</wpt>

<wpt lat="32.77064895629883" lon="130.36248779296875">
 <time>2015-12-06T02:24:46ZZ</time>
 <name><![CDATA[下ノ湯]]></name>
</wpt>

<wpt lat="32.8350830078125" lon="128.931884765625">
 <time>2015-12-06T02:24:46ZZ</time>
 <name><![CDATA[下り松]]></name>
</wpt>

<wpt lat="33.25651168823242" lon="129.74607849121094">
 <time>2015-12-06T02:24:46ZZ</time>
 <name><![CDATA[下羽付]]></name>
</wpt>

<wpt lat="32.851722717285156" lon="129.8734130859375">
 <time>2015-12-06T02:24:46ZZ</time>
 <name><![CDATA[下岡]]></name>
</wpt>

<wpt lat="32.885215759277344" lon="129.7901611328125">
 <time>2015-12-06T02:24:46ZZ</time>
 <name><![CDATA[下屋敷]]></name>
</wpt>

<wpt lat="32.76066970825195" lon="130.23779296875">
 <time>2015-12-06T02:24:46ZZ</time>
 <name><![CDATA[下岳]]></name>
</wpt>

<wpt lat="33.00228500366211" lon="129.7640838623047">
 <time>2015-12-06T02:24:46ZZ</time>
 <name><![CDATA[下岳]]></name>
</wpt>

<wpt lat="32.89981460571289" lon="129.96438598632812">
 <time>2015-12-06T02:24:46ZZ</time>
 <name><![CDATA[下岩船]]></name>
</wpt>

<wpt lat="33.35426712036133" lon="129.6067352294922">
 <time>2015-12-06T02:24:46ZZ</time>
 <name><![CDATA[下亀]]></name>
</wpt>

<wpt lat="32.767860412597656" lon="130.02426147460938">
 <time>2015-12-06T02:24:46ZZ</time>
 <name><![CDATA[下久保]]></name>
</wpt>

<wpt lat="33.176124572753906" lon="129.70382690429688">
 <time>2015-12-06T02:24:46ZZ</time>
 <name><![CDATA[下弓張]]></name>
</wpt>

<wpt lat="33.14686965942383" lon="129.83541870117188">
 <time>2015-12-06T02:24:46ZZ</time>
 <name><![CDATA[下牛石]]></name>
</wpt>

<wpt lat="33.12934875488281" lon="129.92568969726562">
 <time>2015-12-06T02:24:46ZZ</time>
 <name><![CDATA[下橋の谷]]></name>
</wpt>

<wpt lat="32.97077178955078" lon="129.6461944580078">
 <time>2015-12-06T02:24:46ZZ</time>
 <name><![CDATA[下郷公民館前]]></name>
</wpt>

<wpt lat="34.22980880737305" lon="129.21322631835938">
 <time>2015-12-06T02:24:46ZZ</time>
 <name><![CDATA[下原]]></name>
</wpt>

<wpt lat="32.66218566894531" lon="130.28761291503906">
 <time>2015-12-06T02:24:46ZZ</time>
 <name><![CDATA[下原]]></name>
</wpt>

<wpt lat="33.08857727050781" lon="129.8670196533203">
 <time>2015-12-06T02:24:46ZZ</time>
 <name><![CDATA[下五反田]]></name>
</wpt>

<wpt lat="33.33133316040039" lon="129.71322631835938">
 <time>2015-12-06T02:24:46ZZ</time>
 <name><![CDATA[下高野]]></name>
</wpt>

<wpt lat="33.1989860534668" lon="129.72467041015625">
 <time>2015-12-06T02:24:46ZZ</time>
 <name><![CDATA[下桜木]]></name>
</wpt>

<wpt lat="33.13580322265625" lon="129.8326416015625">
 <time>2015-12-06T02:24:46ZZ</time>
 <name><![CDATA[下三川内]]></name>
</wpt>

<wpt lat="33.24776077270508" lon="129.11834716796875">
 <time>2015-12-06T02:24:46ZZ</time>
 <name><![CDATA[下山]]></name>
</wpt>

<wpt lat="32.95066833496094" lon="129.67127990722656">
 <time>2015-12-06T02:24:46ZZ</time>
 <name><![CDATA[下山]]></name>
</wpt>

<wpt lat="32.804771423339844" lon="130.3477020263672">
 <time>2015-12-06T02:24:46ZZ</time>
 <name><![CDATA[下山寺]]></name>
</wpt>

<wpt lat="33.18400955200195" lon="129.7302703857422">
 <time>2015-12-06T02:24:46ZZ</time>
 <name><![CDATA[下山手]]></name>
</wpt>

<wpt lat="32.75162124633789" lon="130.21481323242188">
 <time>2015-12-06T02:24:46ZZ</time>
 <name><![CDATA[下山領]]></name>
</wpt>

<wpt lat="32.77574157714844" lon="129.95822143554688">
 <time>2015-12-06T02:24:46ZZ</time>
 <name><![CDATA[下侍石]]></name>
</wpt>

<wpt lat="33.32913589477539" lon="129.5791473388672">
 <time>2015-12-06T02:24:46ZZ</time>
 <name><![CDATA[下寺]]></name>
</wpt>

<wpt lat="33.16095733642578" lon="129.73526000976562">
 <time>2015-12-06T02:24:46ZZ</time>
 <name><![CDATA[下若葉]]></name>
</wpt>

<wpt lat="32.79635238647461" lon="129.85919189453125">
 <time>2015-12-06T02:24:46ZZ</time>
 <name><![CDATA[下住吉台]]></name>
</wpt>

<wpt lat="32.70264434814453" lon="130.32211303710938">
 <time>2015-12-06T02:24:46ZZ</time>
 <name><![CDATA[下住宅前]]></name>
</wpt>

<wpt lat="33.136173248291016" lon="129.89137268066406">
 <time>2015-12-06T02:24:46ZZ</time>
 <name><![CDATA[下宿]]></name>
</wpt>

<wpt lat="33.12889862060547" lon="129.8004913330078">
 <time>2015-12-06T02:24:46ZZ</time>
 <name><![CDATA[下小森橋]]></name>
</wpt>

<wpt lat="33.21856689453125" lon="129.6977996826172">
 <time>2015-12-06T02:24:46ZZ</time>
 <name><![CDATA[下小川内]]></name>
</wpt>

<wpt lat="33.06103515625" lon="129.71571350097656">
 <time>2015-12-06T02:24:46ZZ</time>
 <name><![CDATA[下松]]></name>
</wpt>

<wpt lat="32.79949951171875" lon="129.8532257080078">
 <time>2015-12-06T02:24:46ZZ</time>
 <name><![CDATA[下新成橋]]></name>
</wpt>

<wpt lat="32.7989501953125" lon="129.85317993164062">
 <time>2015-12-06T02:24:46ZZ</time>
 <name><![CDATA[下新成橋前]]></name>
</wpt>

<wpt lat="32.92266845703125" lon="129.96083068847656">
 <time>2015-12-06T02:24:46ZZ</time>
 <name><![CDATA[下諏訪]]></name>
</wpt>

<wpt lat="33.16326904296875" lon="129.7367401123047">
 <time>2015-12-06T02:24:46ZZ</time>
 <name><![CDATA[下須田尾]]></name>
</wpt>

<wpt lat="32.73000717163086" lon="130.36058044433594">
 <time>2015-12-06T02:24:46ZZ</time>
 <name><![CDATA[下瀬野]]></name>
</wpt>

<wpt lat="33.1500129699707" lon="129.6885528564453">
 <time>2015-12-06T02:24:46ZZ</time>
 <name><![CDATA[下石岳]]></name>
</wpt>

<wpt lat="32.78905487060547" lon="130.34811401367188">
 <time>2015-12-06T02:24:46ZZ</time>
 <name><![CDATA[下折橋]]></name>
</wpt>

<wpt lat="32.76612854003906" lon="130.3691864013672">
 <time>2015-12-06T02:24:46ZZ</time>
 <name><![CDATA[下川尻]]></name>
</wpt>

<wpt lat="32.76473617553711" lon="130.37074279785156">
 <time>2015-12-06T02:24:46ZZ</time>
 <name><![CDATA[下川尻]]></name>
</wpt>

<wpt lat="33.14595031738281" lon="129.70211791992188">
 <time>2015-12-06T02:24:46ZZ</time>
 <name><![CDATA[下川谷]]></name>
</wpt>

<wpt lat="32.907657623291016" lon="130.05288696289062">
 <time>2015-12-06T02:24:46ZZ</time>
 <name><![CDATA[下川頭]]></name>
</wpt>

<wpt lat="32.84833908081055" lon="129.92320251464844">
 <time>2015-12-06T02:24:46ZZ</time>
 <name><![CDATA[下川内]]></name>
</wpt>

<wpt lat="32.77485656738281" lon="129.9840850830078">
 <time>2015-12-06T02:24:46ZZ</time>
 <name><![CDATA[下川内]]></name>
</wpt>

<wpt lat="32.79423141479492" lon="129.8776092529297">
 <time>2015-12-06T02:24:46ZZ</time>
 <name><![CDATA[下川平]]></name>
</wpt>

<wpt lat="33.213809967041016" lon="129.788818359375">
 <time>2015-12-06T02:24:46ZZ</time>
 <name><![CDATA[下潜木]]></name>
</wpt>

<wpt lat="33.1370735168457" lon="129.6988525390625">
 <time>2015-12-06T02:24:46ZZ</time>
 <name><![CDATA[下船越]]></name>
</wpt>

<wpt lat="32.97095489501953" lon="129.6466522216797">
 <time>2015-12-06T02:24:46ZZ</time>
 <name><![CDATA[下多以良橋]]></name>
</wpt>

<wpt lat="32.777366638183594" lon="129.85916137695312">
 <time>2015-12-06T02:24:46ZZ</time>
 <name><![CDATA[下大橋]]></name>
</wpt>

<wpt lat="32.777984619140625" lon="129.859130859375">
 <time>2015-12-06T02:24:46ZZ</time>
 <name><![CDATA[下大橋]]></name>
</wpt>

<wpt lat="33.1982421875" lon="129.71798706054688">
 <time>2015-12-06T02:24:46ZZ</time>
 <name><![CDATA[下池の窪]]></name>
</wpt>

<wpt lat="32.928688049316406" lon="129.9642791748047">
 <time>2015-12-06T02:24:46ZZ</time>
 <name><![CDATA[下池田]]></name>
</wpt>

<wpt lat="32.919281005859375" lon="129.99293518066406">
 <time>2015-12-06T02:24:46ZZ</time>
 <name><![CDATA[下稚池]]></name>
</wpt>

<wpt lat="33.130252838134766" lon="129.91525268554688">
 <time>2015-12-06T02:24:46ZZ</time>
 <name><![CDATA[下中の原]]></name>
</wpt>

<wpt lat="33.23908233642578" lon="129.43882751464844">
 <time>2015-12-06T02:24:46ZZ</time>
 <name><![CDATA[下中津良]]></name>
</wpt>

<wpt lat="32.79631042480469" lon="130.07400512695312">
 <time>2015-12-06T02:24:46ZZ</time>
 <name><![CDATA[下中通]]></name>
</wpt>

<wpt lat="33.12334060668945" lon="129.92840576171875">
 <time>2015-12-06T02:24:46ZZ</time>
 <name><![CDATA[下中尾]]></name>
</wpt>

<wpt lat="32.75703048706055" lon="130.36158752441406">
 <time>2015-12-06T02:24:46ZZ</time>
 <name><![CDATA[下中木場]]></name>
</wpt>

<wpt lat="33.34400939941406" lon="129.5076446533203">
 <time>2015-12-06T02:24:46ZZ</time>
 <name><![CDATA[下中野]]></name>
</wpt>

<wpt lat="32.661399841308594" lon="130.3040008544922">
 <time>2015-12-06T02:24:46ZZ</time>
 <name><![CDATA[下町]]></name>
</wpt>

<wpt lat="33.28905487060547" lon="129.73464965820312">
 <time>2015-12-06T02:24:46ZZ</time>
 <name><![CDATA[下長坂]]></name>
</wpt>

<wpt lat="33.22071075439453" lon="129.59059143066406">
 <time>2015-12-06T02:24:46ZZ</time>
 <name><![CDATA[下長迫]]></name>
</wpt>

<wpt lat="33.28023910522461" lon="129.6945037841797">
 <time>2015-12-06T02:24:46ZZ</time>
 <name><![CDATA[下直谷]]></name>
</wpt>

<wpt lat="33.220069885253906" lon="129.73287963867188">
 <time>2015-12-06T02:24:46ZZ</time>
 <name><![CDATA[下田]]></name>
</wpt>

<wpt lat="33.29329299926758" lon="129.75582885742188">
 <time>2015-12-06T02:24:46ZZ</time>
 <name><![CDATA[下田]]></name>
</wpt>

<wpt lat="32.95074462890625" lon="129.99644470214844">
 <time>2015-12-06T02:24:46ZZ</time>
 <name><![CDATA[下田下]]></name>
</wpt>

<wpt lat="33.3819580078125" lon="129.67262268066406">
 <time>2015-12-06T02:24:46ZZ</time>
 <name><![CDATA[下田入口]]></name>
</wpt>

<wpt lat="32.81395721435547" lon="130.03338623046875">
 <time>2015-12-06T02:24:46ZZ</time>
 <name><![CDATA[下土師野尾]]></name>
</wpt>

<wpt lat="33.138511657714844" lon="129.9174041748047">
 <time>2015-12-06T02:24:46ZZ</time>
 <name><![CDATA[下内海]]></name>
</wpt>

<wpt lat="33.147674560546875" lon="129.7556915283203">
 <time>2015-12-06T02:24:46ZZ</time>
 <name><![CDATA[下尼潟]]></name>
</wpt>

<wpt lat="32.86600112915039" lon="130.02511596679688">
 <time>2015-12-06T02:24:46ZZ</time>
 <name><![CDATA[下破篭井]]></name>
</wpt>

<wpt lat="32.785152435302734" lon="130.36607360839844">
 <time>2015-12-06T02:24:46ZZ</time>
 <name><![CDATA[下萩原]]></name>
</wpt>

<wpt lat="33.29060745239258" lon="129.69688415527344">
 <time>2015-12-06T02:24:46ZZ</time>
 <name><![CDATA[下福井]]></name>
</wpt>

<wpt lat="32.855560302734375" lon="129.7742156982422">
 <time>2015-12-06T02:24:46ZZ</time>
 <name><![CDATA[下平床]]></name>
</wpt>

<wpt lat="33.18156433105469" lon="129.67616271972656">
 <time>2015-12-06T02:24:46ZZ</time>
 <name><![CDATA[下母ヶ浦]]></name>
</wpt>

<wpt lat="33.351318359375" lon="129.7329864501953">
 <time>2015-12-06T02:24:46ZZ</time>
 <name><![CDATA[下免]]></name>
</wpt>

<wpt lat="32.80661392211914" lon="129.89903259277344">
 <time>2015-12-06T02:24:46ZZ</time>
 <name><![CDATA[下木場]]></name>
</wpt>

<wpt lat="33.16375732421875" lon="129.74468994140625">
 <time>2015-12-06T02:24:46ZZ</time>
 <name><![CDATA[下木風]]></name>
</wpt>

<wpt lat="33.23005676269531" lon="129.57069396972656">
 <time>2015-12-06T02:24:46ZZ</time>
 <name><![CDATA[下矢岳]]></name>
</wpt>

<wpt lat="33.13317108154297" lon="129.78802490234375">
 <time>2015-12-06T02:24:46ZZ</time>
 <name><![CDATA[下有福]]></name>
</wpt>

<wpt lat="32.891571044921875" lon="130.11888122558594">
 <time>2015-12-06T02:24:46ZZ</time>
 <name><![CDATA[下与]]></name>
</wpt>

<wpt lat="34.4716682434082" lon="129.3204803466797">
 <time>2015-12-06T02:24:46ZZ</time>
 <name><![CDATA[下里]]></name>
</wpt>

<wpt lat="33.83872985839844" lon="129.68809509277344">
 <time>2015-12-06T02:24:46ZZ</time>
 <name><![CDATA[加賀城]]></name>
</wpt>

<wpt lat="32.82353973388672" lon="129.76495361328125">
 <time>2015-12-06T02:24:46ZZ</time>
 <name><![CDATA[加工団地]]></name>
</wpt>

<wpt lat="34.28557205200195" lon="129.23519897460938">
 <time>2015-12-06T02:24:46ZZ</time>
 <name><![CDATA[加志]]></name>
</wpt>

<wpt lat="34.35527038574219" lon="129.26513671875">
 <time>2015-12-06T02:24:46ZZ</time>
 <name><![CDATA[加志々]]></name>
</wpt>

<wpt lat="33.398170471191406" lon="129.43495178222656">
 <time>2015-12-06T02:24:46ZZ</time>
 <name><![CDATA[加瀬川入口]]></name>
</wpt>

<wpt lat="33.266578674316406" lon="129.58311462402344">
 <time>2015-12-06T02:24:46ZZ</time>
 <name><![CDATA[加勢中央]]></name>
</wpt>

<wpt lat="32.62613296508789" lon="130.16299438476562">
 <time>2015-12-06T02:24:46ZZ</time>
 <name><![CDATA[加津佐]]></name>
</wpt>

<wpt lat="32.62409210205078" lon="130.16705322265625">
 <time>2015-12-06T02:24:46ZZ</time>
 <name><![CDATA[加津佐海水浴場前]]></name>
</wpt>

<wpt lat="32.63148498535156" lon="130.16696166992188">
 <time>2015-12-06T02:24:46ZZ</time>
 <name><![CDATA[加津佐学校前]]></name>
</wpt>

<wpt lat="32.63691711425781" lon="130.18170166015625">
 <time>2015-12-06T02:24:46ZZ</time>
 <name><![CDATA[加津佐橋]]></name>
</wpt>

<wpt lat="32.78487014770508" lon="130.36782836914062">
 <time>2015-12-06T02:24:46ZZ</time>
 <name><![CDATA[加美町]]></name>
</wpt>

<wpt lat="32.86096954345703" lon="128.91769409179688">
 <time>2015-12-06T02:24:46ZZ</time>
 <name><![CDATA[夏井]]></name>
</wpt>

<wpt lat="32.87502670288086" lon="129.67941284179688">
 <time>2015-12-06T02:24:46ZZ</time>
 <name><![CDATA[夏井]]></name>
</wpt>

<wpt lat="32.85985565185547" lon="128.9192657470703">
 <time>2015-12-06T02:24:46ZZ</time>
 <name><![CDATA[夏井入口]]></name>
</wpt>

<wpt lat="33.2021369934082" lon="129.67543029785156">
 <time>2015-12-06T02:24:46ZZ</time>
 <name><![CDATA[家畜保健所前]]></name>
</wpt>

<wpt lat="32.597496032714844" lon="130.17942810058594">
 <time>2015-12-06T02:24:46ZZ</time>
 <name><![CDATA[果樹試験場前]]></name>
</wpt>

<wpt lat="33.273765563964844" lon="129.5913543701172">
 <time>2015-12-06T02:24:46ZZ</time>
 <name><![CDATA[歌ヶ浦荘前]]></name>
</wpt>

<wpt lat="32.80146026611328" lon="130.35043334960938">
 <time>2015-12-06T02:24:46ZZ</time>
 <name><![CDATA[河原]]></name>
</wpt>

<wpt lat="32.840911865234375" lon="129.71060180664062">
 <time>2015-12-06T02:24:46ZZ</time>
 <name><![CDATA[河内]]></name>
</wpt>

<wpt lat="34.672210693359375" lon="129.4288330078125">
 <time>2015-12-06T02:24:46ZZ</time>
 <name><![CDATA[河内]]></name>
</wpt>

<wpt lat="32.71492385864258" lon="129.89776611328125">
 <time>2015-12-06T02:24:46ZZ</time>
 <name><![CDATA[河平]]></name>
</wpt>

<wpt lat="32.733848571777344" lon="128.77664184570312">
 <time>2015-12-06T02:24:46ZZ</time>
 <name><![CDATA[河務]]></name>
</wpt>

<wpt lat="32.954708099365234" lon="129.79881286621094">
 <time>2015-12-06T02:24:46ZZ</time>
 <name><![CDATA[火引の浦]]></name>
</wpt>

<wpt lat="33.296817779541016" lon="129.47549438476562">
 <time>2015-12-06T02:24:46ZZ</time>
 <name><![CDATA[火除]]></name>
</wpt>

<wpt lat="33.295955657958984" lon="129.46859741210938">
 <time>2015-12-06T02:24:46ZZ</time>
 <name><![CDATA[火除入口]]></name>
</wpt>

<wpt lat="33.10944366455078" lon="129.86866760253906">
 <time>2015-12-06T02:24:46ZZ</time>
 <name><![CDATA[火渡]]></name>
</wpt>

<wpt lat="32.84970474243164" lon="129.82521057128906">
 <time>2015-12-06T02:24:46ZZ</time>
 <name><![CDATA[火篭]]></name>
</wpt>

<wpt lat="32.773292541503906" lon="130.3654022216797">
 <time>2015-12-06T02:24:46ZZ</time>
 <name><![CDATA[花の丘団地前]]></name>
</wpt>

<wpt lat="32.80683898925781" lon="129.99981689453125">
 <time>2015-12-06T02:24:46ZZ</time>
 <name><![CDATA[花ノ木]]></name>
</wpt>

<wpt lat="33.18233871459961" lon="129.72486877441406">
 <time>2015-12-06T02:24:46ZZ</time>
 <name><![CDATA[花園中学校前]]></name>
</wpt>

<wpt lat="32.77092361450195" lon="129.84902954101562">
 <time>2015-12-06T02:24:46ZZ</time>
 <name><![CDATA[花園町]]></name>
</wpt>

<wpt lat="32.77302551269531" lon="129.8515625">
 <time>2015-12-06T02:24:46ZZ</time>
 <name><![CDATA[花園郵便局前]]></name>
</wpt>

<wpt lat="32.793243408203125" lon="129.86293029785156">
 <time>2015-12-06T02:24:46ZZ</time>
 <name><![CDATA[花丘町]]></name>
</wpt>

<wpt lat="33.14057922363281" lon="129.80355834960938">
 <time>2015-12-06T02:24:46ZZ</time>
 <name><![CDATA[花高一丁目]]></name>
</wpt>

<wpt lat="33.137123107910156" lon="129.8090362548828">
 <time>2015-12-06T02:24:46ZZ</time>
 <name><![CDATA[花高皆瀬]]></name>
</wpt>

<wpt lat="33.14268493652344" lon="129.80899047851562">
 <time>2015-12-06T02:24:46ZZ</time>
 <name><![CDATA[花高三丁目]]></name>
</wpt>

<wpt lat="33.1411247253418" lon="129.8125">
 <time>2015-12-06T02:24:46ZZ</time>
 <name><![CDATA[花高四丁目]]></name>
</wpt>

<wpt lat="33.1363639831543" lon="129.80625915527344">
 <time>2015-12-06T02:24:46ZZ</time>
 <name><![CDATA[花高浄水場前]]></name>
</wpt>

<wpt lat="33.1361198425293" lon="129.8034210205078">
 <time>2015-12-06T02:24:46ZZ</time>
 <name><![CDATA[花高団地入口]]></name>
</wpt>

<wpt lat="33.13850021362305" lon="129.81085205078125">
 <time>2015-12-06T02:24:46ZZ</time>
 <name><![CDATA[花高東]]></name>
</wpt>

<wpt lat="33.14289855957031" lon="129.80776977539062">
 <time>2015-12-06T02:24:46ZZ</time>
 <name><![CDATA[花高二丁目]]></name>
</wpt>

<wpt lat="32.78767013549805" lon="129.79750061035156">
 <time>2015-12-06T02:24:46ZZ</time>
 <name><![CDATA[花咲が丘]]></name>
</wpt>

<wpt lat="34.41496276855469" lon="129.2834930419922">
 <time>2015-12-06T02:24:46ZZ</time>
 <name><![CDATA[荷船]]></name>
</wpt>

<wpt lat="33.842628479003906" lon="129.69967651367188">
 <time>2015-12-06T02:24:46ZZ</time>
 <name><![CDATA[霞翠校前]]></name>
</wpt>

<wpt lat="32.65011978149414" lon="129.81800842285156">
 <time>2015-12-06T02:24:46ZZ</time>
 <name><![CDATA[蚊焼]]></name>
</wpt>

<wpt lat="32.652435302734375" lon="129.81724548339844">
 <time>2015-12-06T02:24:46ZZ</time>
 <name><![CDATA[蚊焼小学校前]]></name>
</wpt>

<wpt lat="32.65242385864258" lon="129.823974609375">
 <time>2015-12-06T02:24:46ZZ</time>
 <name><![CDATA[蚊焼入口]]></name>
</wpt>

<wpt lat="34.36936950683594" lon="129.36915588378906">
 <time>2015-12-06T02:24:46ZZ</time>
 <name><![CDATA[賀谷]]></name>
</wpt>

<wpt lat="32.72385787963867" lon="128.83230590820312">
 <time>2015-12-06T02:24:46ZZ</time>
 <name><![CDATA[会館前]]></name>
</wpt>

<wpt lat="34.36412048339844" lon="129.24240112304688">
 <time>2015-12-06T02:24:46ZZ</time>
 <name><![CDATA[廻]]></name>
</wpt>

<wpt lat="32.59177017211914" lon="129.75730895996094">
 <time>2015-12-06T02:24:46ZZ</time>
 <name><![CDATA[海の健康村]]></name>
</wpt>

<wpt lat="32.70235061645508" lon="129.7795867919922">
 <time>2015-12-06T02:24:46ZZ</time>
 <name><![CDATA[海の見えるホテル]]></name>
</wpt>

<wpt lat="33.744869232177734" lon="129.69081115722656">
 <time>2015-12-06T02:24:46ZZ</time>
 <name><![CDATA[海岸]]></name>
</wpt>

<wpt lat="32.73705291748047" lon="129.87496948242188">
 <time>2015-12-06T02:24:46ZZ</time>
 <name><![CDATA[海星高校前]]></name>
</wpt>

<wpt lat="32.7363166809082" lon="129.87542724609375">
 <time>2015-12-06T02:24:46ZZ</time>
 <name><![CDATA[海星修道院前]]></name>
</wpt>

<wpt lat="33.709983825683594" lon="129.7146453857422">
 <time>2015-12-06T02:24:46ZZ</time>
 <name><![CDATA[海豚鼻]]></name>
</wpt>

<wpt lat="32.69008255004883" lon="129.80349731445312">
 <time>2015-12-06T02:24:46ZZ</time>
 <name><![CDATA[海老瀬]]></name>
</wpt>

<wpt lat="33.04456329345703" lon="129.73046875">
 <time>2015-12-06T02:24:46ZZ</time>
 <name><![CDATA[皆割石]]></name>
</wpt>

<wpt lat="33.21302032470703" lon="129.701904296875">
 <time>2015-12-06T02:24:46ZZ</time>
 <name><![CDATA[皆瀬駅下]]></name>
</wpt>

<wpt lat="33.21260452270508" lon="129.69776916503906">
 <time>2015-12-06T02:24:46ZZ</time>
 <name><![CDATA[皆瀬局前]]></name>
</wpt>

<wpt lat="33.21330261230469" lon="129.69703674316406">
 <time>2015-12-06T02:24:46ZZ</time>
 <name><![CDATA[皆瀬小学校前]]></name>
</wpt>

<wpt lat="33.21260452270508" lon="129.69776916503906">
 <time>2015-12-06T02:24:46ZZ</time>
 <name><![CDATA[皆瀬郵便局前]]></name>
</wpt>

<wpt lat="32.82685852050781" lon="129.87400817871094">
 <time>2015-12-06T02:24:46ZZ</time>
 <name><![CDATA[皆前橋]]></name>
</wpt>

<wpt lat="32.82668685913086" lon="129.87332153320312">
 <time>2015-12-06T02:24:46ZZ</time>
 <name><![CDATA[皆前橋]]></name>
</wpt>

<wpt lat="32.72303009033203" lon="129.8844451904297">
 <time>2015-12-06T02:24:46ZZ</time>
 <name><![CDATA[開]]></name>
</wpt>

<wpt lat="33.23606491088867" lon="129.77992248535156">
 <time>2015-12-06T02:24:46ZZ</time>
 <name><![CDATA[開作]]></name>
</wpt>

<wpt lat="33.238136291503906" lon="129.78260803222656">
 <time>2015-12-06T02:24:46ZZ</time>
 <name><![CDATA[開作公民館前]]></name>
</wpt>

<wpt lat="33.29901123046875" lon="129.4616241455078">
 <time>2015-12-06T02:24:46ZZ</time>
 <name><![CDATA[開拓前]]></name>
</wpt>

<wpt lat="32.97279739379883" lon="129.13938903808594">
 <time>2015-12-06T02:24:46ZZ</time>
 <name><![CDATA[開拓団]]></name>
</wpt>

<wpt lat="32.89673614501953" lon="130.0580596923828">
 <time>2015-12-06T02:24:46ZZ</time>
 <name><![CDATA[開拓入口]]></name>
</wpt>

<wpt lat="32.78102111816406" lon="129.82435607910156">
 <time>2015-12-06T02:24:46ZZ</time>
 <name><![CDATA[開田]]></name>
</wpt>

<wpt lat="34.363731384277344" lon="129.27798461914062">
 <time>2015-12-06T02:24:46ZZ</time>
 <name><![CDATA[貝口]]></name>
</wpt>

<wpt lat="32.684165954589844" lon="130.3501434326172">
 <time>2015-12-06T02:24:46ZZ</time>
 <name><![CDATA[貝崎]]></name>
</wpt>

<wpt lat="32.61096954345703" lon="130.1911163330078">
 <time>2015-12-06T02:24:46ZZ</time>
 <name><![CDATA[貝瀬橋]]></name>
</wpt>

<wpt lat="32.71539306640625" lon="128.65321350097656">
 <time>2015-12-06T02:24:46ZZ</time>
 <name><![CDATA[貝津港待合所前]]></name>
</wpt>

<wpt lat="32.83030319213867" lon="130.01248168945312">
 <time>2015-12-06T02:24:46ZZ</time>
 <name><![CDATA[貝津団地前]]></name>
</wpt>

<wpt lat="32.837242126464844" lon="130.0130615234375">
 <time>2015-12-06T02:24:46ZZ</time>
 <name><![CDATA[貝津団地入口]]></name>
</wpt>

<wpt lat="32.877445220947266" lon="129.68043518066406">
 <time>2015-12-06T02:24:46ZZ</time>
 <name><![CDATA[外海行政センター]]></name>
</wpt>

<wpt lat="32.8778190612793" lon="129.6799774169922">
 <time>2015-12-06T02:24:46ZZ</time>
 <name><![CDATA[外海行政センター前]]></name>
</wpt>

<wpt lat="32.813079833984375" lon="129.84254455566406">
 <time>2015-12-06T02:24:46ZZ</time>
 <name><![CDATA[外語大学入口]]></name>
</wpt>

<wpt lat="32.92021560668945" lon="129.61038208007812">
 <time>2015-12-06T02:24:46ZZ</time>
 <name><![CDATA[外平公民館]]></name>
</wpt>

<wpt lat="32.677364349365234" lon="128.73182678222656">
 <time>2015-12-06T02:24:46ZZ</time>
 <name><![CDATA[柿ノ木場]]></name>
</wpt>

<wpt lat="33.209815979003906" lon="129.7116241455078">
 <time>2015-12-06T02:24:46ZZ</time>
 <name><![CDATA[柿田原]]></name>
</wpt>

<wpt lat="32.77454376220703" lon="129.8025360107422">
 <time>2015-12-06T02:24:46ZZ</time>
 <name><![CDATA[柿泊]]></name>
</wpt>

<wpt lat="33.19844436645508" lon="129.3955841064453">
 <time>2015-12-06T02:24:46ZZ</time>
 <name><![CDATA[柿泊]]></name>
</wpt>

<wpt lat="33.29210662841797" lon="129.73179626464844">
 <time>2015-12-06T02:24:46ZZ</time>
 <name><![CDATA[柿木田]]></name>
</wpt>

<wpt lat="33.022274017333984" lon="129.56976318359375">
 <time>2015-12-06T02:24:46ZZ</time>
 <name><![CDATA[蛎の浦]]></name>
</wpt>

<wpt lat="33.0208740234375" lon="129.56719970703125">
 <time>2015-12-06T02:24:46ZZ</time>
 <name><![CDATA[蛎の浦桟橋]]></name>
</wpt>

<wpt lat="32.77889633178711" lon="129.82029724121094">
 <time>2015-12-06T02:24:46ZZ</time>
 <name><![CDATA[角の尾]]></name>
</wpt>

<wpt lat="32.780025482177734" lon="129.88320922851562">
 <time>2015-12-06T02:24:46ZZ</time>
 <name><![CDATA[角崎南]]></name>
</wpt>

<wpt lat="33.3216552734375" lon="129.68072509765625">
 <time>2015-12-06T02:24:46ZZ</time>
 <name><![CDATA[郭公尾公民館前]]></name>
</wpt>

<wpt lat="34.618614196777344" lon="129.35415649414062">
 <time>2015-12-06T02:24:46ZZ</time>
 <name><![CDATA[学校前]]></name>
</wpt>

<wpt lat="32.82719802856445" lon="129.97552490234375">
 <time>2015-12-06T02:24:46ZZ</time>
 <name><![CDATA[学校前]]></name>
</wpt>

<wpt lat="32.706390380859375" lon="129.7769012451172">
 <time>2015-12-06T02:24:46ZZ</time>
 <name><![CDATA[学校前]]></name>
</wpt>

<wpt lat="33.482059478759766" lon="129.5482940673828">
 <time>2015-12-06T02:24:46ZZ</time>
 <name><![CDATA[学校前]]></name>
</wpt>

<wpt lat="32.906593322753906" lon="129.97503662109375">
 <time>2015-12-06T02:24:46ZZ</time>
 <name><![CDATA[学校入口]]></name>
</wpt>

<wpt lat="33.193939208984375" lon="129.71636962890625">
 <time>2015-12-06T02:24:46ZZ</time>
 <name><![CDATA[学振前]]></name>
</wpt>

<wpt lat="32.58715057373047" lon="128.76466369628906">
 <time>2015-12-06T02:24:46ZZ</time>
 <name><![CDATA[岳]]></name>
</wpt>

<wpt lat="33.04121017456055" lon="129.69244384765625">
 <time>2015-12-06T02:24:46ZZ</time>
 <name><![CDATA[岳]]></name>
</wpt>

<wpt lat="32.7584228515625" lon="130.24183654785156">
 <time>2015-12-06T02:24:46ZZ</time>
 <name><![CDATA[岳]]></name>
</wpt>

<wpt lat="33.73807144165039" lon="129.70376586914062">
 <time>2015-12-06T02:24:46ZZ</time>
 <name><![CDATA[岳ノ辻登山口]]></name>
</wpt>

<wpt lat="33.088897705078125" lon="129.7556915283203">
 <time>2015-12-06T02:24:46ZZ</time>
 <name><![CDATA[岳の田]]></name>
</wpt>

<wpt lat="33.22834777832031" lon="129.56735229492188">
 <time>2015-12-06T02:24:46ZZ</time>
 <name><![CDATA[岳下]]></name>
</wpt>

<wpt lat="32.77360916137695" lon="128.67074584960938">
 <time>2015-12-06T02:24:46ZZ</time>
 <name><![CDATA[岳教会前]]></name>
</wpt>

<wpt lat="32.901981353759766" lon="129.72970581054688">
 <time>2015-12-06T02:24:46ZZ</time>
 <name><![CDATA[岳口]]></name>
</wpt>

<wpt lat="32.75804901123047" lon="130.2269287109375">
 <time>2015-12-06T02:24:46ZZ</time>
 <name><![CDATA[岳口]]></name>
</wpt>

<wpt lat="32.90803527832031" lon="129.67579650878906">
 <time>2015-12-06T02:24:46ZZ</time>
 <name><![CDATA[岳集会所前]]></name>
</wpt>

<wpt lat="32.636390686035156" lon="129.80300903320312">
 <time>2015-12-06T02:24:46ZZ</time>
 <name><![CDATA[岳路]]></name>
</wpt>

<wpt lat="32.641422271728516" lon="129.80909729003906">
 <time>2015-12-06T02:24:46ZZ</time>
 <name><![CDATA[岳路海水浴場入口]]></name>
</wpt>

<wpt lat="32.63814926147461" lon="129.80027770996094">
 <time>2015-12-06T02:24:46ZZ</time>
 <name><![CDATA[岳路公民館前]]></name>
</wpt>

<wpt lat="32.6354866027832" lon="129.7994842529297">
 <time>2015-12-06T02:24:46ZZ</time>
 <name><![CDATA[岳路南]]></name>
</wpt>

<wpt lat="32.857418060302734" lon="128.94375610351562">
 <time>2015-12-06T02:24:46ZZ</time>
 <name><![CDATA[楽古尻]]></name>
</wpt>

<wpt lat="33.17625427246094" lon="129.64651489257812">
 <time>2015-12-06T02:24:46ZZ</time>
 <name><![CDATA[笠松入口]]></name>
</wpt>

<wpt lat="32.93532180786133" lon="129.64083862304688">
 <time>2015-12-06T02:24:46ZZ</time>
 <name><![CDATA[樫の浦]]></name>
</wpt>

<wpt lat="32.85226058959961" lon="129.7603302001953">
 <time>2015-12-06T02:24:46ZZ</time>
 <name><![CDATA[樫の久保]]></name>
</wpt>

<wpt lat="32.87305450439453" lon="129.0118865966797">
 <time>2015-12-06T02:24:46ZZ</time>
 <name><![CDATA[樫ノ口]]></name>
</wpt>

<wpt lat="32.837318420410156" lon="128.9337158203125">
 <time>2015-12-06T02:24:46ZZ</time>
 <name><![CDATA[樫ノ木山]]></name>
</wpt>

<wpt lat="32.81365966796875" lon="129.73654174804688">
 <time>2015-12-06T02:24:46ZZ</time>
 <name><![CDATA[樫山]]></name>
</wpt>

<wpt lat="32.74956130981445" lon="128.84481811523438">
 <time>2015-12-06T02:24:46ZZ</time>
 <name><![CDATA[樫之浦]]></name>
</wpt>

<wpt lat="33.134891510009766" lon="129.8123016357422">
 <time>2015-12-06T02:24:46ZZ</time>
 <name><![CDATA[梶の川]]></name>
</wpt>

<wpt lat="32.67053985595703" lon="130.18804931640625">
 <time>2015-12-06T02:24:46ZZ</time>
 <name><![CDATA[割石原]]></name>
</wpt>

<wpt lat="32.7697639465332" lon="129.86146545410156">
 <time>2015-12-06T02:24:46ZZ</time>
 <name><![CDATA[活水下]]></name>
</wpt>

<wpt lat="32.73811721801758" lon="129.8747100830078">
 <time>2015-12-06T02:24:46ZZ</time>
 <name><![CDATA[活水大学4号館前]]></name>
</wpt>

<wpt lat="33.34144973754883" lon="129.78994750976562">
 <time>2015-12-06T02:24:46ZZ</time>
 <name><![CDATA[滑栄入口]]></name>
</wpt>

<wpt lat="32.806640625" lon="129.83482360839844">
 <time>2015-12-06T02:24:46ZZ</time>
 <name><![CDATA[滑石ふれあいセンター前]]></name>
</wpt>

<wpt lat="32.80710983276367" lon="129.84507751464844">
 <time>2015-12-06T02:24:46ZZ</time>
 <name><![CDATA[滑石口]]></name>
</wpt>

<wpt lat="32.80516052246094" lon="129.8258819580078">
 <time>2015-12-06T02:24:46ZZ</time>
 <name><![CDATA[滑石四丁目]]></name>
</wpt>

<wpt lat="32.806541442871094" lon="129.8294677734375">
 <time>2015-12-06T02:24:46ZZ</time>
 <name><![CDATA[滑石四丁目下]]></name>
</wpt>

<wpt lat="32.7196044921875" lon="129.89532470703125">
 <time>2015-12-06T02:24:46ZZ</time>
 <name><![CDATA[滑川]]></name>
</wpt>

<wpt lat="32.56488800048828" lon="129.78575134277344">
 <time>2015-12-06T02:24:46ZZ</time>
 <name><![CDATA[樺島]]></name>
</wpt>

<wpt lat="33.25001525878906" lon="129.1257781982422">
 <time>2015-12-06T02:24:46ZZ</time>
 <name><![CDATA[蒲浦]]></name>
</wpt>

<wpt lat="33.254329681396484" lon="129.1251983642578">
 <time>2015-12-06T02:24:46ZZ</time>
 <name><![CDATA[蒲浦入口]]></name>
</wpt>

<wpt lat="32.95090866088867" lon="130.2006072998047">
 <time>2015-12-06T02:24:46ZZ</time>
 <name><![CDATA[釜]]></name>
</wpt>

<wpt lat="32.77872085571289" lon="130.19410705566406">
 <time>2015-12-06T02:24:46ZZ</time>
 <name><![CDATA[釜]]></name>
</wpt>

<wpt lat="32.585079193115234" lon="129.75088500976562">
 <time>2015-12-06T02:24:46ZZ</time>
 <name><![CDATA[釜ヶ浦]]></name>
</wpt>

<wpt lat="32.88852310180664" lon="129.7183074951172">
 <time>2015-12-06T02:24:46ZZ</time>
 <name><![CDATA[釜の庭]]></name>
</wpt>

<wpt lat="32.833709716796875" lon="130.13479614257812">
 <time>2015-12-06T02:24:46ZZ</time>
 <name><![CDATA[釜ノ鼻]]></name>
</wpt>

<wpt lat="32.833709716796875" lon="130.13479614257812">
 <time>2015-12-06T02:24:46ZZ</time>
 <name><![CDATA[釜の鼻]]></name>
</wpt>

<wpt lat="32.939640045166016" lon="129.61495971679688">
 <time>2015-12-06T02:24:46ZZ</time>
 <name><![CDATA[釜浦桟橋前]]></name>
</wpt>

<wpt lat="33.16582489013672" lon="129.69638061523438">
 <time>2015-12-06T02:24:46ZZ</time>
 <name><![CDATA[釜須ヶ浦]]></name>
</wpt>

<wpt lat="32.88550567626953" lon="129.97190856933594">
 <time>2015-12-06T02:24:46ZZ</time>
 <name><![CDATA[釜川内]]></name>
</wpt>

<wpt lat="33.283634185791016" lon="129.48519897460938">
 <time>2015-12-06T02:24:46ZZ</time>
 <name><![CDATA[鎌の首]]></name>
</wpt>

<wpt lat="33.831851959228516" lon="129.69908142089844">
 <time>2015-12-06T02:24:46ZZ</time>
 <name><![CDATA[鎌田]]></name>
</wpt>

<wpt lat="32.6820068359375" lon="128.807373046875">
 <time>2015-12-06T02:24:46ZZ</time>
 <name><![CDATA[鎌田]]></name>
</wpt>

<wpt lat="33.203704833984375" lon="129.41880798339844">
 <time>2015-12-06T02:24:46ZZ</time>
 <name><![CDATA[鴨の首]]></name>
</wpt>

<wpt lat="34.33368682861328" lon="129.382568359375">
 <time>2015-12-06T02:24:46ZZ</time>
 <name><![CDATA[鴨居瀬]]></name>
</wpt>

<wpt lat="34.34280776977539" lon="129.3634490966797">
 <time>2015-12-06T02:24:46ZZ</time>
 <name><![CDATA[鴨居瀬入口]]></name>
</wpt>

<wpt lat="33.32063293457031" lon="129.7034912109375">
 <time>2015-12-06T02:24:46ZZ</time>
 <name><![CDATA[栢の木]]></name>
</wpt>

<wpt lat="32.981964111328125" lon="130.0244140625">
 <time>2015-12-06T02:24:46ZZ</time>
 <name><![CDATA[萱瀬ダム]]></name>
</wpt>

<wpt lat="33.79704284667969" lon="129.67599487304688">
 <time>2015-12-06T02:24:46ZZ</time>
 <name><![CDATA[刈田院橋]]></name>
</wpt>

<wpt lat="32.91897201538086" lon="129.95870971679688">
 <time>2015-12-06T02:24:46ZZ</time>
 <name><![CDATA[乾馬場]]></name>
</wpt>