<?xml version="1.0" encoding="UTF-8"?>
<kml xmlns="http://www.opengis.net/kml/2.2">
<Document>
<name><![CDATA[バス停 : 山口]]></name>
<Folder>
<name>Placemarks</name>
<Placemark>
<name>小島</name>
<description></description>
<Point>
<coordinates>131.69598388671875,34.603919982910156,0</coordinates>
</Point>
</Placemark>
<Placemark>
<name>畠田</name>
<description></description>
<Point>
<coordinates>131.6999053955078,34.60295104980469,0</coordinates>
</Point>
</Placemark>
<Placemark>
<name>保田</name>
<description></description>
<Point>
<coordinates>131.71018981933594,34.6014518737793,0</coordinates>
</Point>
</Placemark>
<Placemark>
<name>北谷</name>
<description></description>
<Point>
<coordinates>131.61573791503906,34.62630844116211,0</coordinates>
</Point>
</Placemark>
<Placemark>
<name>帆柱</name>
<description></description>
<Point>
<coordinates>131.63633728027344,34.62629318237305,0</coordinates>
</Point>
</Placemark>
<Placemark>
<name>江津</name>
<description></description>
<Point>
<coordinates>131.64248657226562,34.634586334228516,0</coordinates>
</Point>
</Placemark>
<Placemark>
<name>尾浦入口</name>
<description></description>
<Point>
<coordinates>131.6463623046875,34.63885498046875,0</coordinates>
</Point>
</Placemark>
<Placemark>
<name>江崎港</name>
<description></description>
<Point>
<coordinates>131.64398193359375,34.64009475708008,0</coordinates>
</Point>
</Placemark>
<Placemark>
<name>漁港橋</name>
<description></description>
<Point>
<coordinates>131.6458740234375,34.64028549194336,0</coordinates>
</Point>
</Placemark>
<Placemark>
<name>江崎駅入口</name>
<description></description>
<Point>
<coordinates>131.6586151123047,34.642337799072266,0</coordinates>
</Point>
</Placemark>
<Placemark>
<name>須潟</name>
<description></description>
<Point>
<coordinates>131.6608428955078,34.643917083740234,0</coordinates>
</Point>
</Placemark>
<Placemark>
<name>市味</name>
<description></description>
<Point>
<coordinates>131.6732635498047,34.65528106689453,0</coordinates>
</Point>
</Placemark>
<Placemark>
<name>奈古駅</name>
<description></description>
<Point>
<coordinates>131.47357177734375,34.50386047363281,0</coordinates>
</Point>
</Placemark>
<Placemark>
<name>大井馬場</name>
<description></description>
<Point>
<coordinates>131.44805908203125,34.47432327270508,0</coordinates>
</Point>
</Placemark>
<Placemark>
<name>越ヶ浜入口</name>
<description></description>
<Point>
<coordinates>131.41436767578125,34.44642639160156,0</coordinates>
</Point>
</Placemark>
<Placemark>
<name>東萩駅</name>
<description></description>
<Point>
<coordinates>131.4101104736328,34.41686248779297,0</coordinates>
</Point>
</Placemark>
<Placemark>
<name>深谷パーキング</name>
<description></description>
<Point>
<coordinates>132.0142059326172,34.384071350097656,0</coordinates>
</Point>
</Placemark>
<Placemark>
<name>唐戸</name>
<description></description>
<Point>
<coordinates>130.9424285888672,33.95692825317383,0</coordinates>
</Point>
</Placemark>
<Placemark>
<name>市立美術館</name>
<description></description>
<Point>
<coordinates>130.9916229248047,33.9893684387207,0</coordinates>
</Point>
</Placemark>
<Placemark>
<name>美祢西インター</name>
<description></description>
<Point>
<coordinates>131.13919067382812,34.10926818847656,0</coordinates>
</Point>
</Placemark>
<Placemark>
<name>美祢インター</name>
<description></description>
<Point>
<coordinates>131.24822998046875,34.170570373535156,0</coordinates>
</Point>
</Placemark>
<Placemark>
<name>真名</name>
<description></description>
<Point>
<coordinates>131.3260040283203,34.16611099243164,0</coordinates>
</Point>
</Placemark>
<Placemark>
<name>三条岡</name>
<description></description>
<Point>
<coordinates>131.40899658203125,34.12487030029297,0</coordinates>
</Point>
</Placemark>
<Placemark>
<name>湯田温泉</name>
<description></description>
<Point>
<coordinates>131.4578399658203,34.16508483886719,0</coordinates>
</Point>
</Placemark>
<Placemark>
<name>NTT山口前</name>
<description></description>
<Point>
<coordinates>131.46234130859375,34.167823791503906,0</coordinates>
</Point>
</Placemark>
<Placemark>
<name>中国電力前</name>
<description></description>
<Point>
<coordinates>131.4733428955078,34.17607879638672,0</coordinates>
</Point>
</Placemark>
<Placemark>
<name>山口県庁前</name>
<description></description>
<Point>
<coordinates>131.471923828125,34.18351745605469,0</coordinates>
</Point>
</Placemark>
<Placemark>
<name>米屋町</name>
<description></description>
<Point>
<coordinates>131.47633361816406,34.17670822143555,0</coordinates>
</Point>
</Placemark>
<Placemark>
<name>山口駅</name>
<description></description>
<Point>
<coordinates>131.48033142089844,34.1724853515625,0</coordinates>
</Point>
</Placemark>
<Placemark>
<name>周防灘PA</name>
<description></description>
<Point>
<coordinates>131.11367797851562,34.02931213378906,0</coordinates>
</Point>
</Placemark>
<Placemark>
<name>小野田インター</name>
<description></description>
<Point>
<coordinates>131.18429565429688,34.02279281616211,0</coordinates>
</Point>
</Placemark>
<Placemark>
<name>宇部インター</name>
<description></description>
<Point>
<coordinates>131.2821807861328,33.993064880371094,0</coordinates>
</Point>
</Placemark>
<Placemark>
<name>山口宇部空港</name>
<description></description>
<Point>
<coordinates>131.27272033691406,33.93246078491211,0</coordinates>
</Point>
</Placemark>
<Placemark>
<name>フジグラン宇部</name>
<description></description>
<Point>
<coordinates>131.25686645507812,33.93162536621094,0</coordinates>
</Point>
</Placemark>
<Placemark>
<name>小野田駅</name>
<description></description>
<Point>
<coordinates>131.18482971191406,34.00702667236328,0</coordinates>
</Point>
</Placemark>
<Placemark>
<name>新山口駅</name>
<description></description>
<Point>
<coordinates>131.3956298828125,34.094364166259766,0</coordinates>
</Point>
</Placemark>
<Placemark>
<name>大学病院前（山口）</name>
<description></description>
<Point>
<coordinates>131.24786376953125,33.96038818359375,0</coordinates>
</Point>
</Placemark>
<Placemark>
<name>東駅</name>
<description></description>
<Point>
<coordinates>130.92991638183594,33.96800231933594,0</coordinates>
</Point>
</Placemark>
<Placemark>
<name>宝蔵寺</name>
<description></description>
<Point>
<coordinates>130.937744140625,33.97922134399414,0</coordinates>
</Point>
</Placemark>
<Placemark>
<name>常盤公園入口</name>
<description></description>
<Point>
<coordinates>131.28099060058594,33.94343566894531,0</coordinates>
</Point>
</Placemark>
<Placemark>
<name>流川</name>
<description></description>
<Point>
<coordinates>131.19969177246094,33.9754638671875,0</coordinates>
</Point>
</Placemark>
<Placemark>
<name>東割</name>
<description></description>
<Point>
<coordinates>131.21609497070312,33.977333068847656,0</coordinates>
</Point>
</Placemark>
<Placemark>
<name>小野田市役所前</name>
<description></description>
<Point>
<coordinates>131.18247985839844,34.00299835205078,0</coordinates>
</Point>
</Placemark>
<Placemark>
<name>高速小月</name>
<description></description>
<Point>
<coordinates>131.0389404296875,34.0810546875,0</coordinates>
</Point>
</Placemark>
<Placemark>
<name>長門吉田</name>
<description></description>
<Point>
<coordinates>131.0690460205078,34.094879150390625,0</coordinates>
</Point>
</Placemark>
<Placemark>
<name>センタービル前（中電前）</name>
<description></description>
<Point>
<coordinates>131.4733428955078,34.17607879638672,0</coordinates>
</Point>
</Placemark>
<Placemark>
<name>下松</name>
<description></description>
<Point>
<coordinates>131.86944580078125,34.013816833496094,0</coordinates>
</Point>
</Placemark>
<Placemark>
<name>下松駅前</name>
<description></description>
<Point>
<coordinates>131.8673095703125,34.009033203125,0</coordinates>
</Point>
</Placemark>
<Placemark>
<name>東豊井</name>
<description></description>
<Point>
<coordinates>131.8739776611328,33.99795150756836,0</coordinates>
</Point>
</Placemark>
<Placemark>
<name>虹ヶ浜</name>
<description></description>
<Point>
<coordinates>131.91171264648438,33.97219467163086,0</coordinates>
</Point>
</Placemark>
<Placemark>
<name>光駅前</name>
<description></description>
<Point>
<coordinates>131.91419982910156,33.97261047363281,0</coordinates>
</Point>
</Placemark>
<Placemark>
<name>光</name>
<description></description>
<Point>
<coordinates>131.9163818359375,33.972965240478516,0</coordinates>
</Point>
</Placemark>
<Placemark>
<name>西河原</name>
<description></description>
<Point>
<coordinates>131.92205810546875,33.97236251831055,0</coordinates>
</Point>
</Placemark>
<Placemark>
<name>筒井</name>
<description></description>
<Point>
<coordinates>131.92405700683594,33.971805572509766,0</coordinates>
</Point>
</Placemark>
<Placemark>
<name>浅江千歳橋</name>
<description></description>
<Point>
<coordinates>131.9295654296875,33.970314025878906,0</coordinates>
</Point>
</Placemark>
<Placemark>
<name>市役所前</name>
<description></description>
<Point>
<coordinates>131.94244384765625,33.96100997924805,0</coordinates>
</Point>
</Placemark>
<Placemark>
<name>光郵便局前</name>
<description></description>
<Point>
<coordinates>131.94558715820312,33.95895004272461,0</coordinates>
</Point>
</Placemark>
<Placemark>
<name>警察署</name>
<description></description>
<Point>
<coordinates>131.94911193847656,33.95671463012695,0</coordinates>
</Point>
</Placemark>
<Placemark>
<name>新宮</name>
<description></description>
<Point>
<coordinates>131.96035766601562,33.94938278198242,0</coordinates>
</Point>
</Placemark>
<Placemark>
<name>東部いこいの家前</name>
<description></description>
<Point>
<coordinates>131.96771240234375,33.94033432006836,0</coordinates>
</Point>
</Placemark>
<Placemark>
<name>松原口</name>
<description></description>
<Point>
<coordinates>131.96932983398438,33.93789291381836,0</coordinates>
</Point>
</Placemark>
<Placemark>
<name>室積西ノ浜</name>
<description></description>
<Point>
<coordinates>131.97129821777344,33.932334899902344,0</coordinates>
</Point>
</Placemark>
<Placemark>
<name>室積</name>
<description></description>
<Point>
<coordinates>131.972900390625,33.930206298828125,0</coordinates>
</Point>
</Placemark>
<Placemark>
<name>室積小学校前</name>
<description></description>
<Point>
<coordinates>131.9695281982422,33.9272575378418,0</coordinates>
</Point>
</Placemark>
<Placemark>
<name>山根町</name>
<description></description>
<Point>
<coordinates>131.96812438964844,33.92473602294922,0</coordinates>
</Point>
</Placemark>
<Placemark>
<name>公園口</name>
<description></description>
<Point>
<coordinates>131.9689483642578,33.92128372192383,0</coordinates>
</Point>
</Placemark>
<Placemark>
<name>山口</name>
<description></description>
<Point>
<coordinates>131.48033142089844,34.1724853515625,0</coordinates>
</Point>
</Placemark>
<Placemark>
<name>今市通</name>
<description></description>
<Point>
<coordinates>131.4786376953125,34.17454528808594,0</coordinates>
</Point>
</Placemark>
<Placemark>
<name>県庁前</name>
<description></description>
<Point>
<coordinates>131.471923828125,34.18351745605469,0</coordinates>
</Point>
</Placemark>
<Placemark>
<name>センタービル前</name>
<description></description>
<Point>
<coordinates>131.47430419921875,34.17666244506836,0</coordinates>
</Point>
</Placemark>
<Placemark>
<name>中電前</name>
<description></description>
<Point>
<coordinates>131.46234130859375,34.167823791503906,0</coordinates>
</Point>
</Placemark>
<Placemark>
<name>下湯田</name>
<description></description>
<Point>
<coordinates>131.45565795898438,34.16371154785156,0</coordinates>
</Point>
</Placemark>
<Placemark>
<name>松ヶ鼻</name>
<description></description>
<Point>
<coordinates>131.4461212158203,34.164695739746094,0</coordinates>
</Point>
</Placemark>
<Placemark>
<name>吉敷</name>
<description></description>
<Point>
<coordinates>131.43357849121094,34.16743469238281,0</coordinates>
</Point>
</Placemark>
<Placemark>
<name>赤田</name>
<description></description>
<Point>
<coordinates>131.4311065673828,34.17211151123047,0</coordinates>
</Point>
</Placemark>
<Placemark>
<name>赤田公民館前</name>
<description></description>
<Point>
<coordinates>131.42933654785156,34.17641067504883,0</coordinates>
</Point>
</Placemark>
<Placemark>
<name>四ノ宮前</name>
<description></description>
<Point>
<coordinates>131.43048095703125,34.18012619018555,0</coordinates>
</Point>
</Placemark>
<Placemark>
<name>中尾口</name>
<description></description>
<Point>
<coordinates>131.43020629882812,34.185367584228516,0</coordinates>
</Point>
</Placemark>
<Placemark>
<name>吉敷畑</name>
<description></description>
<Point>
<coordinates>131.41543579101562,34.1983757019043,0</coordinates>
</Point>
</Placemark>
<Placemark>
<name>長門大石</name>
<description></description>
<Point>
<coordinates>131.38943481445312,34.19943618774414,0</coordinates>
</Point>
</Placemark>
<Placemark>
<name>下大石</name>
<description></description>
<Point>
<coordinates>131.38504028320312,34.20297622680664,0</coordinates>
</Point>
</Placemark>
<Placemark>
<name>影平</name>
<description></description>
<Point>
<coordinates>131.37939453125,34.20732498168945,0</coordinates>
</Point>
</Placemark>
<Placemark>
<name>薬王寺</name>
<description></description>
<Point>
<coordinates>131.37481689453125,34.21199035644531,0</coordinates>
</Point>
</Placemark>
<Placemark>
<name>四ノ瀬</name>
<description></description>
<Point>
<coordinates>131.36456298828125,34.20232009887695,0</coordinates>
</Point>
</Placemark>
<Placemark>
<name>綾木</name>
<description></description>
<Point>
<coordinates>131.34881591796875,34.197933197021484,0</coordinates>
</Point>
</Placemark>
<Placemark>
<name>長門高山</name>
<description></description>
<Point>
<coordinates>131.35211181640625,34.202510833740234,0</coordinates>
</Point>
</Placemark>
<Placemark>
<name>温湯</name>
<description></description>
<Point>
<coordinates>131.349365234375,34.2148551940918,0</coordinates>
</Point>
</Placemark>
<Placemark>
<name>美東病院前</name>
<description></description>
<Point>
<coordinates>131.34078979492188,34.220298767089844,0</coordinates>
</Point>
</Placemark>
<Placemark>
<name>平ヶ谷</name>
<description></description>
<Point>
<coordinates>131.33070373535156,34.21742630004883,0</coordinates>
</Point>
</Placemark>
<Placemark>
<name>八重ヶ原</name>
<description></description>
<Point>
<coordinates>131.322998046875,34.213844299316406,0</coordinates>
</Point>
</Placemark>
<Placemark>
<name>上八重</name>
<description></description>
<Point>
<coordinates>131.3135223388672,34.214630126953125,0</coordinates>
</Point>
</Placemark>
<Placemark>
<name>下八重</name>
<description></description>
<Point>
<coordinates>131.31092834472656,34.21332931518555,0</coordinates>
</Point>
</Placemark>
<Placemark>
<name>秋吉小前</name>
<description></description>
<Point>
<coordinates>131.3074493408203,34.213226318359375,0</coordinates>
</Point>
</Placemark>
<Placemark>
<name>旦</name>
<description></description>
<Point>
<coordinates>131.29006958007812,34.20661926269531,0</coordinates>
</Point>
</Placemark>
<Placemark>
<name>内ヶ島</name>
<description></description>
<Point>
<coordinates>131.2871551513672,34.20056915283203,0</coordinates>
</Point>
</Placemark>
<Placemark>
<name>照岡</name>
<description></description>
<Point>
<coordinates>131.28160095214844,34.19803237915039,0</coordinates>
</Point>
</Placemark>
<Placemark>
<name>堀之内</name>
<description></description>
<Point>
<coordinates>131.27980041503906,34.1963005065918,0</coordinates>
</Point>
</Placemark>
<Placemark>
<name>岩永</name>
<description></description>
<Point>
<coordinates>131.27716064453125,34.18846130371094,0</coordinates>
</Point>
</Placemark>
<Placemark>
<name>上曾原</name>
<description></description>
<Point>
<coordinates>131.26553344726562,34.17691421508789,0</coordinates>
</Point>
</Placemark>
<Placemark>
<name>下曾原</name>
<description></description>
<Point>
<coordinates>131.25421142578125,34.17342758178711,0</coordinates>
</Point>
</Placemark>
<Placemark>
<name>相川</name>
<description></description>
<Point>
<coordinates>131.2440948486328,34.17348861694336,0</coordinates>
</Point>
</Placemark>
<Placemark>
<name>野崎</name>
<description></description>
<Point>
<coordinates>131.23585510253906,34.17145538330078,0</coordinates>
</Point>
</Placemark>
<Placemark>
<name>北川</name>
<description></description>
<Point>
<coordinates>131.2300567626953,34.16804504394531,0</coordinates>
</Point>
</Placemark>
<Placemark>
<name>伊佐中学校前</name>
<description></description>
<Point>
<coordinates>131.22682189941406,34.167625427246094,0</coordinates>
</Point>
</Placemark>
<Placemark>
<name>伊佐町</name>
<description></description>
<Point>
<coordinates>131.22145080566406,34.16615295410156,0</coordinates>
</Point>
</Placemark>
<Placemark>
<name>美祢警察署前</name>
<description></description>
<Point>
<coordinates>131.2084503173828,34.16712951660156,0</coordinates>
</Point>
</Placemark>
<Placemark>
<name>美祢市役所前</name>
<description></description>
<Point>
<coordinates>131.20555114746094,34.16709899902344,0</coordinates>
</Point>
</Placemark>
<Placemark>
<name>美祢</name>
<description></description>
<Point>
<coordinates>131.20437622070312,34.16902542114258,0</coordinates>
</Point>
</Placemark>
<Placemark>
<name>東萩</name>
<description></description>
<Point>
<coordinates>131.4101104736328,34.41686248779297,0</coordinates>
</Point>
</Placemark>
<Placemark>
<name>浮島</name>
<description></description>
<Point>
<coordinates>131.4040985107422,34.417232513427734,0</coordinates>
</Point>
</Placemark>
<Placemark>
<name>荻吉田町</name>
<description></description>
<Point>
<coordinates>131.4033660888672,34.41395950317383,0</coordinates>
</Point>
</Placemark>
<Placemark>
<name>荻橋本町</name>
<description></description>
<Point>
<coordinates>131.40223693847656,34.40379333496094,0</coordinates>
</Point>
</Placemark>
<Placemark>
<name>萩</name>
<description></description>
<Point>
<coordinates>131.40110778808594,34.394126892089844,0</coordinates>
</Point>
</Placemark>
<Placemark>
<name>立野渡</name>
<description></description>
<Point>
<coordinates>131.4381561279297,34.374000549316406,0</coordinates>
</Point>
</Placemark>
<Placemark>
<name>長門峡北口</name>
<description></description>
<Point>
<coordinates>131.4404296875,34.362491607666016,0</coordinates>
</Point>
</Placemark>
<Placemark>
<name>明木</name>
<description></description>
<Point>
<coordinates>131.41407775878906,34.34420394897461,0</coordinates>
</Point>
</Placemark>
<Placemark>
<name>牛地</name>
<description></description>
<Point>
<coordinates>131.41232299804688,34.34194564819336,0</coordinates>
</Point>
</Placemark>
<Placemark>
<name>明木</name>
<description></description>
<Point>
<coordinates>131.41571044921875,34.341556549072266,0</coordinates>
</Point>
</Placemark>
<Placemark>
<name>下菅蓋</name>
<description></description>
<Point>
<coordinates>131.41050720214844,34.33538055419922,0</coordinates>
</Point>
</Placemark>
<Placemark>
<name>菅蓋</name>
<description></description>
<Point>
<coordinates>131.40866088867188,34.33198547363281,0</coordinates>
</Point>
</Placemark>
<Placemark>
<name>角力場</name>
<description></description>
<Point>
<coordinates>131.40155029296875,34.326133728027344,0</coordinates>
</Point>
</Placemark>
<Placemark>
<name>小野山</name>
<description></description>
<Point>
<coordinates>131.40298461914062,34.31971740722656,0</coordinates>
</Point>
</Placemark>
<Placemark>
<name>同前</name>
<description></description>
<Point>
<coordinates>131.4155731201172,34.312896728515625,0</coordinates>
</Point>
</Placemark>
<Placemark>
<name>古戦場</name>
<description></description>
<Point>
<coordinates>131.42282104492188,34.31282424926758,0</coordinates>
</Point>
</Placemark>
<Placemark>
<name>釿切</name>
<description></description>
<Point>
<coordinates>131.43826293945312,34.31914138793945,0</coordinates>
</Point>
</Placemark>
<Placemark>
<name>中の峠</name>
<description></description>
<Point>
<coordinates>131.44496154785156,34.315895080566406,0</coordinates>
</Point>
</Placemark>
<Placemark>
<name>新茶屋</name>
<description></description>
<Point>
<coordinates>131.45333862304688,34.3084716796875,0</coordinates>
</Point>
</Placemark>
<Placemark>
<name>根引</name>
<description></description>
<Point>
<coordinates>131.45965576171875,34.304264068603516,0</coordinates>
</Point>
</Placemark>
<Placemark>
<name>与三原</name>
<description></description>
<Point>
<coordinates>131.4583740234375,34.29798126220703,0</coordinates>
</Point>
</Placemark>
<Placemark>
<name>小松ヶ谷</name>
<description></description>
<Point>
<coordinates>131.45791625976562,34.28832244873047,0</coordinates>
</Point>
</Placemark>
<Placemark>
<name>佐々並</name>
<description></description>
<Point>
<coordinates>131.4626007080078,34.2850227355957,0</coordinates>
</Point>
</Placemark>
<Placemark>
<name>板橋口</name>
<description></description>
<Point>
<coordinates>131.4693145751953,34.2811164855957,0</coordinates>
</Point>
</Placemark>
<Placemark>
<name>大迫口</name>
<description></description>
<Point>
<coordinates>131.4738311767578,34.2722282409668,0</coordinates>
</Point>
</Placemark>
<Placemark>
<name>中作</name>
<description></description>
<Point>
<coordinates>131.4735565185547,34.26505661010742,0</coordinates>
</Point>
</Placemark>
<Placemark>
<name>日南瀬</name>
<description></description>
<Point>
<coordinates>131.47821044921875,34.26213836669922,0</coordinates>
</Point>
</Placemark>
<Placemark>
<name>下小木原</name>
<description></description>
<Point>
<coordinates>131.4873504638672,34.25218963623047,0</coordinates>
</Point>
</Placemark>
<Placemark>
<name>上小木原</name>
<description></description>
<Point>
<coordinates>131.49105834960938,34.24623489379883,0</coordinates>
</Point>
</Placemark>
<Placemark>
<name>宮野大峠</name>
<description></description>
<Point>
<coordinates>131.52276611328125,34.25089645385742,0</coordinates>
</Point>
</Placemark>
<Placemark>
<name>向田橋</name>
<description></description>
<Point>
<coordinates>131.52049255371094,34.241302490234375,0</coordinates>
</Point>
</Placemark>
<Placemark>
<name>奥湯田温泉口</name>
<description></description>
<Point>
<coordinates>131.51492309570312,34.22246170043945,0</coordinates>
</Point>
</Placemark>
<Placemark>
<name>七房</name>
<description></description>
<Point>
<coordinates>131.51754760742188,34.21291732788086,0</coordinates>
</Point>
</Placemark>
<Placemark>
<name>宮野新橋</name>
<description></description>
<Point>
<coordinates>131.51272583007812,34.20587921142578,0</coordinates>
</Point>
</Placemark>
<Placemark>
<name>スポーツの森前</name>
<description></description>
<Point>
<coordinates>131.50892639160156,34.20303726196289,0</coordinates>
</Point>
</Placemark>
<Placemark>
<name>宮野中学校前</name>
<description></description>
<Point>
<coordinates>131.5023956298828,34.19668197631836,0</coordinates>
</Point>
</Placemark>
<Placemark>
<name>折本</name>
<description></description>
<Point>
<coordinates>131.49539184570312,34.189422607421875,0</coordinates>
</Point>
</Placemark>
<Placemark>
<name>三の宮前</name>
<description></description>
<Point>
<coordinates>131.4919891357422,34.187538146972656,0</coordinates>
</Point>
</Placemark>
<Placemark>
<name>日赤前</name>
<description></description>
<Point>
<coordinates>131.4846954345703,34.18376922607422,0</coordinates>
</Point>
</Placemark>
<Placemark>
<name>山口自衛隊前</name>
<description></description>
<Point>
<coordinates>131.48252868652344,34.18618392944336,0</coordinates>
</Point>
</Placemark>
<Placemark>
<name>新山口駅新幹線口</name>
<description></description>
<Point>
<coordinates>131.3956298828125,34.094364166259766,0</coordinates>
</Point>
</Placemark>
<Placemark>
<name>荒高</name>
<description></description>
<Point>
<coordinates>131.4725799560547,34.1723747253418,0</coordinates>
</Point>
</Placemark>
<Placemark>
<name>宮島町</name>
<description></description>
<Point>
<coordinates>131.47906494140625,34.167083740234375,0</coordinates>
</Point>
</Placemark>
<Placemark>
<name>御堀橋</name>
<description></description>
<Point>
<coordinates>131.48690795898438,34.16383743286133,0</coordinates>
</Point>
</Placemark>
<Placemark>
<name>千坊</name>
<description></description>
<Point>
<coordinates>131.4913787841797,34.158592224121094,0</coordinates>
</Point>
</Placemark>
<Placemark>
<name>ゆめタウン山口</name>
<description></description>
<Point>
<coordinates>131.49359130859375,34.15758514404297,0</coordinates>
</Point>
</Placemark>
<Placemark>
<name>光円寺前</name>
<description></description>
<Point>
<coordinates>131.50157165527344,34.15573501586914,0</coordinates>
</Point>
</Placemark>
<Placemark>
<name>大内中学校前</name>
<description></description>
<Point>
<coordinates>131.5164031982422,34.152286529541016,0</coordinates>
</Point>
</Placemark>
<Placemark>
<name>黒谷口</name>
<description></description>
<Point>
<coordinates>131.298828125,34.232337951660156,0</coordinates>
</Point>
</Placemark>
<Placemark>
<name>秋吉台</name>
<description></description>
<Point>
<coordinates>131.3054962158203,34.23372268676758,0</coordinates>
</Point>
</Placemark>
<Placemark>
<name>湯田温泉駅入口</name>
<description></description>
<Point>
<coordinates>131.45974731445312,34.15770721435547,0</coordinates>
</Point>
</Placemark>
<Placemark>
<name>湯田温泉</name>
<description></description>
<Point>
<coordinates>131.4595947265625,34.160518646240234,0</coordinates>
</Point>
</Placemark>
<Placemark>
<name>あいわたせ</name>
<description></description>
<Point>
<coordinates>131.46144104003906,34.15604782104492,0</coordinates>
</Point>
</Placemark>
<Placemark>
<name>台</name>
<description></description>
<Point>
<coordinates>131.46466064453125,34.15248489379883,0</coordinates>
</Point>
</Placemark>
<Placemark>
<name>山口大学前（房府方面のみ）</name>
<description></description>
<Point>
<coordinates>131.46607971191406,34.15062713623047,0</coordinates>
</Point>
</Placemark>
<Placemark>
<name>山口大学</name>
<description></description>
<Point>
<coordinates>131.46676635742188,34.148651123046875,0</coordinates>
</Point>
</Placemark>
<Placemark>
<name>柊</name>
<description></description>
<Point>
<coordinates>131.5201416015625,34.147804260253906,0</coordinates>
</Point>
</Placemark>
<Placemark>
<name>鯖地</name>
<description></description>
<Point>
<coordinates>131.52291870117188,34.14042282104492,0</coordinates>
</Point>
</Placemark>
<Placemark>
<name>鳴滝</name>
<description></description>
<Point>
<coordinates>131.52586364746094,34.13225555419922,0</coordinates>
</Point>
</Placemark>
<Placemark>
<name>下鯖山</name>
<description></description>
<Point>
<coordinates>131.53073120117188,34.119869232177734,0</coordinates>
</Point>
</Placemark>
<Placemark>
<name>禅昌寺前</name>
<description></description>
<Point>
<coordinates>131.5321807861328,34.11686706542969,0</coordinates>
</Point>
</Placemark>
<Placemark>
<name>上鯖山</name>
<description></description>
<Point>
<coordinates>131.53579711914062,34.109580993652344,0</coordinates>
</Point>
</Placemark>
<Placemark>
<name>洞道北口</name>
<description></description>
<Point>
<coordinates>131.53965759277344,34.1023063659668,0</coordinates>
</Point>
</Placemark>
<Placemark>
<name>上勝坂</name>
<description></description>
<Point>
<coordinates>131.54759216308594,34.087188720703125,0</coordinates>
</Point>
</Placemark>
<Placemark>
<name>勝坂</name>
<description></description>
<Point>
<coordinates>131.55091857910156,34.08047866821289,0</coordinates>
</Point>
</Placemark>
<Placemark>
<name>防府新橋</name>
<description></description>
<Point>
<coordinates>131.55824279785156,34.063026428222656,0</coordinates>
</Point>
</Placemark>
<Placemark>
<name>防府</name>
<description></description>
<Point>
<coordinates>131.56912231445312,34.05288314819336,0</coordinates>
</Point>
</Placemark>
<Placemark>
<name>新川</name>
<description></description>
<Point>
<coordinates>131.40762329101562,34.420326232910156,0</coordinates>
</Point>
</Placemark>
<Placemark>
<name>熊毛インター</name>
<description></description>
<Point>
<coordinates>131.9705810546875,34.03480529785156,0</coordinates>
</Point>
</Placemark>
<Placemark>
<name>徳山東インター</name>
<description></description>
<Point>
<coordinates>131.85487365722656,34.044979095458984,0</coordinates>
</Point>
</Placemark>
<Placemark>
<name>秋本</name>
<description></description>
<Point>
<coordinates>131.8437957763672,34.039398193359375,0</coordinates>
</Point>
</Placemark>
<Placemark>
<name>馬屋（徳山大学入口）</name>
<description></description>
<Point>
<coordinates>131.8427276611328,34.04728317260742,0</coordinates>
</Point>
</Placemark>
<Placemark>
<name>周陽町中央病院入口</name>
<description></description>
<Point>
<coordinates>131.834228515625,34.048805236816406,0</coordinates>
</Point>
</Placemark>
<Placemark>
<name>扇町</name>
<description></description>
<Point>
<coordinates>131.82485961914062,34.052696228027344,0</coordinates>
</Point>
</Placemark>
<Placemark>
<name>東辻</name>
<description></description>
<Point>
<coordinates>131.81752014160156,34.05717086791992,0</coordinates>
</Point>
</Placemark>
<Placemark>
<name>市役所前</name>
<description></description>
<Point>
<coordinates>131.80633544921875,34.05426025390625,0</coordinates>
</Point>
</Placemark>
<Placemark>
<name>徳山駅前</name>
<description></description>
<Point>
<coordinates>131.8031463623047,34.05182647705078,0</coordinates>
</Point>
</Placemark>
<Placemark>
<name>徳山港</name>
<description></description>
<Point>
<coordinates>131.79977416992188,34.04956817626953,0</coordinates>
</Point>
</Placemark>
<Placemark>
<name>鮎谷</name>
<description></description>
<Point>
<coordinates>132.07736206054688,34.220863342285156,0</coordinates>
</Point>
</Placemark>
<Placemark>
<name>東谷口</name>
<description></description>
<Point>
<coordinates>132.08157348632812,34.21994400024414,0</coordinates>
</Point>
</Placemark>
<Placemark>
<name>坂上高校前</name>
<description></description>
<Point>
<coordinates>132.0851287841797,34.22170639038086,0</coordinates>
</Point>
</Placemark>
<Placemark>
<name>名坪</name>
<description></description>
<Point>
<coordinates>132.08935546875,34.22294998168945,0</coordinates>
</Point>
</Placemark>
<Placemark>
<name>向原口</name>
<description></description>
<Point>
<coordinates>132.09156799316406,34.223052978515625,0</coordinates>
</Point>
</Placemark>
<Placemark>
<name>小田口</name>
<description></description>
<Point>
<coordinates>132.09625244140625,34.223289489746094,0</coordinates>
</Point>
</Placemark>
<Placemark>
<name>下迫</name>
<description></description>
<Point>
<coordinates>132.09884643554688,34.22416305541992,0</coordinates>
</Point>
</Placemark>
<Placemark>
<name>周坊坂上</name>
<description></description>
<Point>
<coordinates>132.1026611328125,34.22482681274414,0</coordinates>
</Point>
</Placemark>
<Placemark>
<name>上佐坂</name>
<description></description>
<Point>
<coordinates>132.10581970214844,34.22547149658203,0</coordinates>
</Point>
</Placemark>
<Placemark>
<name>佐坂</name>
<description></description>
<Point>
<coordinates>132.111328125,34.22914505004883,0</coordinates>
</Point>
</Placemark>
<Placemark>
<name>中佐坂</name>
<description></description>
<Point>
<coordinates>132.1150360107422,34.23091125488281,0</coordinates>
</Point>
</Placemark>
<Placemark>
<name>下佐坂</name>
<description></description>
<Point>
<coordinates>132.12220764160156,34.23466491699219,0</coordinates>
</Point>
</Placemark>
<Placemark>
<name>中垣内</name>
<description></description>
<Point>
<coordinates>132.12588500976562,34.23805618286133,0</coordinates>
</Point>
</Placemark>
<Placemark>
<name>黒沢</name>
<description></description>
<Point>
<coordinates>132.12770080566406,34.24087142944336,0</coordinates>
</Point>
</Placemark>
<Placemark>
<name>日光寺山団地</name>
<description></description>
<Point>
<coordinates>132.1314239501953,34.241207122802734,0</coordinates>
</Point>
</Placemark>
<Placemark>
<name>根岸</name>
<description></description>
<Point>
<coordinates>132.1337127685547,34.24193572998047,0</coordinates>
</Point>
</Placemark>
<Placemark>
<name>百合谷口</name>
<description></description>
<Point>
<coordinates>132.13995361328125,34.236324310302734,0</coordinates>
</Point>
</Placemark>
<Placemark>
<name>周南市役所前</name>
<description></description>
<Point>
<coordinates>131.80677795410156,34.05491638183594,0</coordinates>
</Point>
</Placemark>
<Placemark>
<name>柳井市役所前</name>
<description></description>
<Point>
<coordinates>132.1009979248047,33.96342086791992,0</coordinates>
</Point>
</Placemark>
<Placemark>
<name>柳井保健所前</name>
<description></description>
<Point>
<coordinates>132.0980987548828,33.967613220214844,0</coordinates>
</Point>
</Placemark>
<Placemark>
<name>土穂石</name>
<description></description>
<Point>
<coordinates>132.09471130371094,33.970001220703125,0</coordinates>
</Point>
</Placemark>
<Placemark>
<name>新庄</name>
<description></description>
<Point>
<coordinates>132.0895538330078,33.970664978027344,0</coordinates>
</Point>
</Placemark>
<Placemark>
<name>新庄西</name>
<description></description>
<Point>
<coordinates>132.08351135253906,33.97035217285156,0</coordinates>
</Point>
</Placemark>
<Placemark>
<name>余田東</name>
<description></description>
<Point>
<coordinates>132.07388305664062,33.970252990722656,0</coordinates>
</Point>
</Placemark>
<Placemark>
<name>余田</name>
<description></description>
<Point>
<coordinates>132.069091796875,33.96854019165039,0</coordinates>
</Point>
</Placemark>
<Placemark>
<name>尾林</name>
<description></description>
<Point>
<coordinates>132.0683135986328,33.96145248413086,0</coordinates>
</Point>
</Placemark>
<Placemark>
<name>坂本病院</name>
<description></description>
<Point>
<coordinates>132.0668487548828,33.95969009399414,0</coordinates>
</Point>
</Placemark>
<Placemark>
<name>八和田東</name>
<description></description>
<Point>
<coordinates>132.06153869628906,33.96477508544922,0</coordinates>
</Point>
</Placemark>
<Placemark>
<name>八和田</name>
<description></description>
<Point>
<coordinates>132.05938720703125,33.96358871459961,0</coordinates>
</Point>
</Placemark>
<Placemark>
<name>土井の内</name>
<description></description>
<Point>
<coordinates>132.05450439453125,33.95623779296875,0</coordinates>
</Point>
</Placemark>
<Placemark>
<name>本町</name>
<description></description>
<Point>
<coordinates>132.05152893066406,33.95491027832031,0</coordinates>
</Point>
</Placemark>
<Placemark>
<name>砂田東</name>
<description></description>
<Point>
<coordinates>132.0482635498047,33.95564651489258,0</coordinates>
</Point>
</Placemark>
<Placemark>
<name>柳井駅前</name>
<description></description>
<Point>
<coordinates>132.10618591308594,33.96605682373047,0</coordinates>
</Point>
</Placemark>
<Placemark>
<name>北浜</name>
<description></description>
<Point>
<coordinates>132.11415100097656,33.96403503417969,0</coordinates>
</Point>
</Placemark>
<Placemark>
<name>自動車学校前</name>
<description></description>
<Point>
<coordinates>132.1203155517578,33.9624137878418,0</coordinates>
</Point>
</Placemark>
<Placemark>
<name>宮本</name>
<description></description>
<Point>
<coordinates>132.1239776611328,33.96099090576172,0</coordinates>
</Point>
</Placemark>
<Placemark>
<name>白潟</name>
<description></description>
<Point>
<coordinates>132.1294708251953,33.958683013916016,0</coordinates>
</Point>
</Placemark>
<Placemark>
<name>柳井港</name>
<description></description>
<Point>
<coordinates>132.13328552246094,33.95746994018555,0</coordinates>
</Point>
</Placemark>
<Placemark>
<name>遠崎</name>
<description></description>
<Point>
<coordinates>132.1440887451172,33.95648956298828,0</coordinates>
</Point>
</Placemark>
<Placemark>
<name>遠崎東</name>
<description></description>
<Point>
<coordinates>132.14828491210938,33.95649719238281,0</coordinates>
</Point>
</Placemark>
<Placemark>
<name>本町</name>
<description></description>
<Point>
<coordinates>132.16827392578125,33.96053695678711,0</coordinates>
</Point>
</Placemark>
<Placemark>
<name>住吉町</name>
<description></description>
<Point>
<coordinates>132.17173767089844,33.96162033081055,0</coordinates>
</Point>
</Placemark>
<Placemark>
<name>大畠駅</name>
<description></description>
<Point>
<coordinates>132.18115234375,33.96346664428711,0</coordinates>
</Point>
</Placemark>
<Placemark>
<name>西の浜</name>
<description></description>
<Point>
<coordinates>132.2028350830078,33.947628021240234,0</coordinates>
</Point>
</Placemark>
<Placemark>
<name>周防中村</name>
<description></description>
<Point>
<coordinates>132.20558166503906,33.947208404541016,0</coordinates>
</Point>
</Placemark>
<Placemark>
<name>三蒲</name>
<description></description>
<Point>
<coordinates>132.20953369140625,33.947425842285156,0</coordinates>
</Point>
</Placemark>
<Placemark>
<name>周防東浜</name>
<description></description>
<Point>
<coordinates>132.21298217773438,33.95028305053711,0</coordinates>
</Point>
</Placemark>
<Placemark>
<name>西椋野</name>
<description></description>
<Point>
<coordinates>132.220947265625,33.958492279052734,0</coordinates>
</Point>
</Placemark>
<Placemark>
<name>周防椋野</name>
<description></description>
<Point>
<coordinates>132.2263641357422,33.957950592041016,0</coordinates>
</Point>
</Placemark>
<Placemark>
<name>東椋野</name>
<description></description>
<Point>
<coordinates>132.22952270507812,33.95864486694336,0</coordinates>
</Point>
</Placemark>
<Placemark>
<name>新椋野</name>
<description></description>
<Point>
<coordinates>132.23193359375,33.96378707885742,0</coordinates>
</Point>
</Placemark>
<Placemark>
<name>宗光西</name>
<description></description>
<Point>
<coordinates>132.2473907470703,33.9547233581543,0</coordinates>
</Point>
</Placemark>
<Placemark>
<name>宗光</name>
<description></description>
<Point>
<coordinates>132.25198364257812,33.952186584472656,0</coordinates>
</Point>
</Placemark>
<Placemark>
<name>流田</name>
<description></description>
<Point>
<coordinates>132.25784301757812,33.950111389160156,0</coordinates>
</Point>
</Placemark>
<Placemark>
<name>総合庁舎前</name>
<description></description>
<Point>
<coordinates>132.26004028320312,33.949398040771484,0</coordinates>
</Point>
</Placemark>
<Placemark>
<name>天神前</name>
<description></description>
<Point>
<coordinates>132.26495361328125,33.94822692871094,0</coordinates>
</Point>
</Placemark>
<Placemark>
<name>周防久賀</name>
<description></description>
<Point>
<coordinates>132.26937866210938,33.94790267944336,0</coordinates>
</Point>
</Placemark>
<Placemark>
<name>周防八幡</name>
<description></description>
<Point>
<coordinates>132.27304077148438,33.94812774658203,0</coordinates>
</Point>
</Placemark>
<Placemark>
<name>午神前</name>
<description></description>
<Point>
<coordinates>132.28684997558594,33.94864273071289,0</coordinates>
</Point>
</Placemark>
<Placemark>
<name>周防大崎</name>
<description></description>
<Point>
<coordinates>132.28736877441406,33.945159912109375,0</coordinates>
</Point>
</Placemark>
<Placemark>
<name>周防白石</name>
<description></description>
<Point>
<coordinates>132.2876434326172,33.940956115722656,0</coordinates>
</Point>
</Placemark>
<Placemark>
<name>周防長浜</name>
<description></description>
<Point>
<coordinates>132.2964324951172,33.934818267822266,0</coordinates>
</Point>
</Placemark>
<Placemark>
<name>日前</name>
<description></description>
<Point>
<coordinates>132.2985382080078,33.92058563232422,0</coordinates>
</Point>
</Placemark>
<Placemark>
<name>白鳥口</name>
<description></description>
<Point>
<coordinates>132.30006408691406,33.91874694824219,0</coordinates>
</Point>
</Placemark>
<Placemark>
<name>土居口</name>
<description></description>
<Point>
<coordinates>132.3031463623047,33.91622543334961,0</coordinates>
</Point>
</Placemark>
<Placemark>
<name>安高</name>
<description></description>
<Point>
<coordinates>132.2912139892578,33.90207290649414,0</coordinates>
</Point>
</Placemark>
<Placemark>
<name>和戸</name>
<description></description>
<Point>
<coordinates>132.28102111816406,33.90077590942383,0</coordinates>
</Point>
</Placemark>
<Placemark>
<name>周防大島町橘庁舎前</name>
<description></description>
<Point>
<coordinates>132.2795867919922,33.89858627319336,0</coordinates>
</Point>
</Placemark>
<Placemark>
<name>町立病院前</name>
<description></description>
<Point>
<coordinates>132.2799530029297,33.89750671386719,0</coordinates>
</Point>
</Placemark>
<Placemark>
<name>周防土居</name>
<description></description>
<Point>
<coordinates>132.30686950683594,33.91336441040039,0</coordinates>
</Point>
</Placemark>
<Placemark>
<name>油良西</name>
<description></description>
<Point>
<coordinates>132.3152313232422,33.90556716918945,0</coordinates>
</Point>
</Placemark>
<Placemark>
<name>周防油良</name>
<description></description>
<Point>
<coordinates>132.3175506591797,33.903106689453125,0</coordinates>
</Point>
</Placemark>
<Placemark>
<name>油良東</name>
<description></description>
<Point>
<coordinates>132.32276916503906,33.90215301513672,0</coordinates>
</Point>
</Placemark>
<Placemark>
<name>下田口</name>
<description></description>
<Point>
<coordinates>132.33523559570312,33.9014778137207,0</coordinates>
</Point>
</Placemark>
<Placemark>
<name>周防下田</name>
<description></description>
<Point>
<coordinates>132.338623046875,33.902557373046875,0</coordinates>
</Point>
</Placemark>
<Placemark>
<name>周防長崎</name>
<description></description>
<Point>
<coordinates>132.34048461914062,33.90298843383789,0</coordinates>
</Point>
</Placemark>
<Placemark>
<name>森野小学校前</name>
<description></description>
<Point>
<coordinates>132.35775756835938,33.91021728515625,0</coordinates>
</Point>
</Placemark>
<Placemark>
<name>森野</name>
<description></description>
<Point>
<coordinates>132.35816955566406,33.911983489990234,0</coordinates>
</Point>
</Placemark>
<Placemark>
<name>神浦</name>
<description></description>
<Point>
<coordinates>132.37582397460938,33.92454528808594,0</coordinates>
</Point>
</Placemark>
<Placemark>
<name>和佐</name>
<description></description>
<Point>
<coordinates>132.37965393066406,33.9161262512207,0</coordinates>
</Point>
</Placemark>
<Placemark>
<name>和佐東</name>
<description></description>
<Point>
<coordinates>132.3834686279297,33.91584014892578,0</coordinates>
</Point>
</Placemark>
<Placemark>
<name>小泊港</name>
<description></description>
<Point>
<coordinates>132.389892578125,33.915855407714844,0</coordinates>
</Point>
</Placemark>
<Placemark>
<name>小泊</name>
<description></description>
<Point>
<coordinates>132.3935089111328,33.91785430908203,0</coordinates>
</Point>
</Placemark>
<Placemark>
<name>内入</name>
<description></description>
<Point>
<coordinates>132.39549255371094,33.925907135009766,0</coordinates>
</Point>
</Placemark>
<Placemark>
<name>周防和田</name>
<description></description>
<Point>
<coordinates>132.4039306640625,33.93000793457031,0</coordinates>
</Point>
</Placemark>
<Placemark>
<name>逗子ヶ浜</name>
<description></description>
<Point>
<coordinates>132.40390014648438,33.940372467041016,0</coordinates>
</Point>
</Placemark>
<Placemark>
<name>小伊保田</name>
<description></description>
<Point>
<coordinates>132.43026733398438,33.950279235839844,0</coordinates>
</Point>
</Placemark>
<Placemark>
<name>陸奥記念館前</name>
<description></description>
<Point>
<coordinates>132.43739318847656,33.950096130371094,0</coordinates>
</Point>
</Placemark>
<Placemark>
<name>西伊保田</name>
<description></description>
<Point>
<coordinates>132.43841552734375,33.94369125366211,0</coordinates>
</Point>
</Placemark>
<Placemark>
<name>伊保田港</name>
<description></description>
<Point>
<coordinates>132.4390411376953,33.9437255859375,0</coordinates>
</Point>
</Placemark>
<Placemark>
<name>伊保田</name>
<description></description>
<Point>
<coordinates>132.43946838378906,33.94297790527344,0</coordinates>
</Point>
</Placemark>
<Placemark>
<name>油田郵便局前</name>
<description></description>
<Point>
<coordinates>132.4381103515625,33.941959381103516,0</coordinates>
</Point>
</Placemark>
<Placemark>
<name>周防油宇</name>
<description></description>
<Point>
<coordinates>132.4381866455078,33.933956146240234,0</coordinates>
</Point>
</Placemark>
<Placemark>
<name>ユメタウン柳井前</name>
<description></description>
<Point>
<coordinates>132.10484313964844,33.96236038208008,0</coordinates>
</Point>
</Placemark>
<Placemark>
<name>前小田</name>
<description></description>
<Point>
<coordinates>132.1197967529297,33.94620132446289,0</coordinates>
</Point>
</Placemark>
<Placemark>
<name>赤石</name>
<description></description>
<Point>
<coordinates>132.12051391601562,33.944698333740234,0</coordinates>
</Point>
</Placemark>
<Placemark>
<name>伊保庄マリンパーク前</name>
<description></description>
<Point>
<coordinates>132.1239776611328,33.939090728759766,0</coordinates>
</Point>
</Placemark>
<Placemark>
<name>上八</name>
<description></description>
<Point>
<coordinates>132.1243896484375,33.936492919921875,0</coordinates>
</Point>
</Placemark>
<Placemark>
<name>小野</name>
<description></description>
<Point>
<coordinates>132.1248321533203,33.92620086669922,0</coordinates>
</Point>
</Placemark>
<Placemark>
<name>柳井南小前</name>
<description></description>
<Point>
<coordinates>132.12533569335938,33.92261505126953,0</coordinates>
</Point>
</Placemark>
<Placemark>
<name>近長</name>
<description></description>
<Point>
<coordinates>132.12631225585938,33.91647720336914,0</coordinates>
</Point>
</Placemark>
<Placemark>
<name>国立病院前</name>
<description></description>
<Point>
<coordinates>132.1268310546875,33.91188049316406,0</coordinates>
</Point>
</Placemark>
<Placemark>
<name>青木</name>
<description></description>
<Point>
<coordinates>132.1259307861328,33.90617752075195,0</coordinates>
</Point>
</Placemark>
<Placemark>
<name>合中</name>
<description></description>
<Point>
<coordinates>132.12652587890625,33.90349197387695,0</coordinates>
</Point>
</Placemark>
<Placemark>
<name>阿月</name>
<description></description>
<Point>
<coordinates>132.1267852783203,33.90088653564453,0</coordinates>
</Point>
</Placemark>
<Placemark>
<name>松浦</name>
<description></description>
<Point>
<coordinates>132.12692260742188,33.89739990234375,0</coordinates>
</Point>
</Placemark>
<Placemark>
<name>宇積</name>
<description></description>
<Point>
<coordinates>132.12600708007812,33.89057159423828,0</coordinates>
</Point>
</Placemark>
<Placemark>
<name>湯原</name>
<description></description>
<Point>
<coordinates>132.12969970703125,33.88531494140625,0</coordinates>
</Point>
</Placemark>
<Placemark>
<name>相の浦小前</name>
<description></description>
<Point>
<coordinates>132.14581298828125,33.86865997314453,0</coordinates>
</Point>
</Placemark>
<Placemark>
<name>西沖割</name>
<description></description>
<Point>
<coordinates>132.1034393310547,33.96162796020508,0</coordinates>
</Point>
</Placemark>
<Placemark>
<name>西高須</name>
<description></description>
<Point>
<coordinates>132.1101837158203,33.95735168457031,0</coordinates>
</Point>
</Placemark>
<Placemark>
<name>高須</name>
<description></description>
<Point>
<coordinates>132.1151885986328,33.954795837402344,0</coordinates>
</Point>
</Placemark>
<Placemark>
<name>小田</name>
<description></description>
<Point>
<coordinates>132.11648559570312,33.95146942138672,0</coordinates>
</Point>
</Placemark>
<Placemark>
<name>相の浦</name>
<description></description>
<Point>
<coordinates>132.14688110351562,33.86620330810547,0</coordinates>
</Point>
</Placemark>
<Placemark>
<name>池の浦</name>
<description></description>
<Point>
<coordinates>132.15724182128906,33.84812545776367,0</coordinates>
</Point>
</Placemark>
<Placemark>
<name>周東病院前</name>
<description></description>
<Point>
<coordinates>132.09706115722656,33.95854568481445,0</coordinates>
</Point>
</Placemark>
<Placemark>
<name>田布呂木</name>
<description></description>
<Point>
<coordinates>132.09439086914062,33.95491027832031,0</coordinates>
</Point>
</Placemark>
<Placemark>
<name>宇佐木</name>
<description></description>
<Point>
<coordinates>132.09031677246094,33.95088577270508,0</coordinates>
</Point>
</Placemark>
<Placemark>
<name>松尾</name>
<description></description>
<Point>
<coordinates>132.09017944335938,33.946189880371094,0</coordinates>
</Point>
</Placemark>
<Placemark>
<name>北村</name>
<description></description>
<Point>
<coordinates>132.09048461914062,33.94289016723633,0</coordinates>
</Point>
</Placemark>
<Placemark>
<name>今井</name>
<description></description>
<Point>
<coordinates>132.0905303955078,33.93869400024414,0</coordinates>
</Point>
</Placemark>
<Placemark>
<name>弁上</name>
<description></description>
<Point>
<coordinates>132.0889129638672,33.935028076171875,0</coordinates>
</Point>
</Placemark>
<Placemark>
<name>大野中村</name>
<description></description>
<Point>
<coordinates>132.088134765625,33.93162155151367,0</coordinates>
</Point>
</Placemark>
<Placemark>
<name>南</name>
<description></description>
<Point>
<coordinates>132.08056640625,33.93238067626953,0</coordinates>
</Point>
</Placemark>
<Placemark>
<name>平生小前</name>
<description></description>
<Point>
<coordinates>132.07699584960938,33.93454360961914,0</coordinates>
</Point>
</Placemark>
<Placemark>
<name>新町</name>
<description></description>
<Point>
<coordinates>132.07447814941406,33.93145751953125,0</coordinates>
</Point>
</Placemark>
<Placemark>
<name>小山</name>
<description></description>
<Point>
<coordinates>132.07156372070312,33.926734924316406,0</coordinates>
</Point>
</Placemark>
<Placemark>
<name>曽根</name>
<description></description>
<Point>
<coordinates>132.06939697265625,33.92399597167969,0</coordinates>
</Point>
</Placemark>
<Placemark>
<name>新地</name>
<description></description>
<Point>
<coordinates>132.06390380859375,33.92116928100586,0</coordinates>
</Point>
</Placemark>
<Placemark>
<name>水場東</name>
<description></description>
<Point>
<coordinates>132.05921936035156,33.92007064819336,0</coordinates>
</Point>
</Placemark>
<Placemark>
<name>水場</name>
<description></description>
<Point>
<coordinates>132.0558624267578,33.91807174682617,0</coordinates>
</Point>
</Placemark>
<Placemark>
<name>田名</name>
<description></description>
<Point>
<coordinates>132.05892944335938,33.91229248046875,0</coordinates>
</Point>
</Placemark>
<Placemark>
<name>丸山</name>
<description></description>
<Point>
<coordinates>132.06956481933594,33.90557861328125,0</coordinates>
</Point>
</Placemark>
<Placemark>
<name>名切</name>
<description></description>
<Point>
<coordinates>132.07582092285156,33.9042854309082,0</coordinates>
</Point>
</Placemark>
<Placemark>
<name>伊保木</name>
<description></description>
<Point>
<coordinates>132.07925415039062,33.900779724121094,0</coordinates>
</Point>
</Placemark>
<Placemark>
<name>宮の下</name>
<description></description>
<Point>
<coordinates>132.08045959472656,33.89731216430664,0</coordinates>
</Point>
</Placemark>
<Placemark>
<name>佐賀</name>
<description></description>
<Point>
<coordinates>132.0818328857422,33.89329147338867,0</coordinates>
</Point>
</Placemark>
<Placemark>
<name>魚見</name>
<description></description>
<Point>
<coordinates>132.08424377441406,33.891754150390625,0</coordinates>
</Point>
</Placemark>
<Placemark>
<name>佐賀東</name>
<description></description>
<Point>
<coordinates>132.08926391601562,33.890316009521484,0</coordinates>
</Point>
</Placemark>
<Placemark>
<name>大田</name>
<description></description>
<Point>
<coordinates>132.09092712402344,33.8889045715332,0</coordinates>
</Point>
</Placemark>
<Placemark>
<name>黒羽根</name>
<description></description>
<Point>
<coordinates>132.09751892089844,33.884315490722656,0</coordinates>
</Point>
</Placemark>
<Placemark>
<name>秋森</name>
<description></description>
<Point>
<coordinates>132.1102294921875,33.88051986694336,0</coordinates>
</Point>
</Placemark>
<Placemark>
<name>小郡</name>
<description></description>
<Point>
<coordinates>132.11590576171875,33.87873458862305,0</coordinates>
</Point>
</Placemark>
<Placemark>
<name>尾国</name>
<description></description>
<Point>
<coordinates>132.1204071044922,33.87403869628906,0</coordinates>
</Point>
</Placemark>
<Placemark>
<name>脇の浜</name>
<description></description>
<Point>
<coordinates>132.12078857421875,33.87173843383789,0</coordinates>
</Point>
</Placemark>
<Placemark>
<name>築廻</name>
<description></description>
<Point>
<coordinates>132.08444213867188,33.947113037109375,0</coordinates>
</Point>
</Placemark>
<Placemark>
<name>十三割</name>
<description></description>
<Point>
<coordinates>132.0789337158203,33.942020416259766,0</coordinates>
</Point>
</Placemark>
<Placemark>
<name>横土手</name>
<description></description>
<Point>
<coordinates>132.0769805908203,33.93671798706055,0</coordinates>
</Point>
</Placemark>
<Placemark>
<name>平生</name>
<description></description>
<Point>
<coordinates>132.07489013671875,33.93854904174805,0</coordinates>
</Point>
</Placemark>
<Placemark>
<name>尾熊毛</name>
<description></description>
<Point>
<coordinates>132.11720275878906,33.85094451904297,0</coordinates>
</Point>
</Placemark>
<Placemark>
<name>皇座山登山口</name>
<description></description>
<Point>
<coordinates>132.1180419921875,33.83920669555664,0</coordinates>
</Point>
</Placemark>
<Placemark>
<name>室津</name>
<description></description>
<Point>
<coordinates>132.1182403564453,33.838687896728516,0</coordinates>
</Point>
</Placemark>
<Placemark>
<name>瀬戸</name>
<description></description>
<Point>
<coordinates>132.11700439453125,33.83221435546875,0</coordinates>
</Point>
</Placemark>
<Placemark>
<name>上関大橋</name>
<description></description>
<Point>
<coordinates>132.11685180664062,33.830142974853516,0</coordinates>
</Point>
</Placemark>
<Placemark>
<name>天神前</name>
<description></description>
<Point>
<coordinates>132.11032104492188,33.83435821533203,0</coordinates>
</Point>
</Placemark>
<Placemark>
<name>十八割</name>
<description></description>
<Point>
<coordinates>132.0794677734375,33.943904876708984,0</coordinates>
</Point>
</Placemark>
<Placemark>
<name>ロックショッピングタウン</name>
<description></description>
<Point>
<coordinates>132.06993103027344,33.94173049926758,0</coordinates>
</Point>
</Placemark>
<Placemark>
<name>西浜</name>
<description></description>
<Point>
<coordinates>132.0693359375,33.93952941894531,0</coordinates>
</Point>
</Placemark>
<Placemark>
<name>大屋東</name>
<description></description>
<Point>
<coordinates>132.1283416748047,33.9671745300293,0</coordinates>
</Point>
</Placemark>
<Placemark>
<name>大屋上</name>
<description></description>
<Point>
<coordinates>132.1276397705078,33.96794128417969,0</coordinates>
</Point>
</Placemark>
<Placemark>
<name>大屋中</name>
<description></description>
<Point>
<coordinates>132.12486267089844,33.96792221069336,0</coordinates>
</Point>
</Placemark>
<Placemark>
<name>大屋下</name>
<description></description>
<Point>
<coordinates>132.1218719482422,33.966522216796875,0</coordinates>
</Point>
</Placemark>
<Placemark>
<name>大屋橋</name>
<description></description>
<Point>
<coordinates>132.1194610595703,33.965946197509766,0</coordinates>
</Point>
</Placemark>
<Placemark>
<name>大水道</name>
<description></description>
<Point>
<coordinates>132.11636352539062,33.96611022949219,0</coordinates>
</Point>
</Placemark>
<Placemark>
<name>新栄通</name>
<description></description>
<Point>
<coordinates>132.11502075195312,33.96518325805664,0</coordinates>
</Point>
</Placemark>
<Placemark>
<name>三角橋</name>
<description></description>
<Point>
<coordinates>132.1133575439453,33.96561050415039,0</coordinates>
</Point>
</Placemark>
<Placemark>
<name>天神並木通り</name>
<description></description>
<Point>
<coordinates>132.11268615722656,33.9670295715332,0</coordinates>
</Point>
</Placemark>
<Placemark>
<name>むろやの園</name>
<description></description>
<Point>
<coordinates>132.1092529296875,33.96794891357422,0</coordinates>
</Point>
</Placemark>
<Placemark>
<name>桜町</name>
<description></description>
<Point>
<coordinates>132.0754852294922,33.937068939208984,0</coordinates>
</Point>
</Placemark>
<Placemark>
<name>三枚浜</name>
<description></description>
<Point>
<coordinates>132.0703887939453,33.93448257446289,0</coordinates>
</Point>
</Placemark>
<Placemark>
<name>新市</name>
<description></description>
<Point>
<coordinates>132.06842041015625,33.93712615966797,0</coordinates>
</Point>
</Placemark>
<Placemark>
<name>八海</name>
<description></description>
<Point>
<coordinates>132.06153869628906,33.93620300292969,0</coordinates>
</Point>
</Placemark>
<Placemark>
<name>鳥越</name>
<description></description>
<Point>
<coordinates>132.05555725097656,33.93238830566406,0</coordinates>
</Point>
</Placemark>
<Placemark>
<name>米出</name>
<description></description>
<Point>
<coordinates>132.05064392089844,33.92652130126953,0</coordinates>
</Point>
</Placemark>
<Placemark>
<name>浜城</name>
<description></description>
<Point>
<coordinates>132.05078125,33.92306900024414,0</coordinates>
</Point>
</Placemark>
<Placemark>
<name>戎ヶ下</name>
<description></description>
<Point>
<coordinates>132.05111694335938,33.92058563232422,0</coordinates>
</Point>
</Placemark>
<Placemark>
<name>馬島渡船場前</name>
<description></description>
<Point>
<coordinates>132.04664611816406,33.915870666503906,0</coordinates>
</Point>
</Placemark>
<Placemark>
<name>別府</name>
<description></description>
<Point>
<coordinates>132.0413055419922,33.91175842285156,0</coordinates>
</Point>
</Placemark>
<Placemark>
<name>別府立石</name>
<description></description>
<Point>
<coordinates>132.03515625,33.90865707397461,0</coordinates>
</Point>
</Placemark>
<Placemark>
<name>五軒屋</name>
<description></description>
<Point>
<coordinates>132.0195770263672,33.90681838989258,0</coordinates>
</Point>
</Placemark>
<Placemark>
<name>伊保木</name>
<description></description>
<Point>
<coordinates>132.00741577148438,33.911659240722656,0</coordinates>
</Point>
</Placemark>
<Placemark>
<name>岩屋</name>
<description></description>
<Point>
<coordinates>131.99551391601562,33.91926193237305,0</coordinates>
</Point>
</Placemark>
<Placemark>
<name>かんぽの宿光前</name>
<description></description>
<Point>
<coordinates>131.98011779785156,33.929969787597656,0</coordinates>
</Point>
</Placemark>
<Placemark>
<name>江の浦</name>
<description></description>
<Point>
<coordinates>131.97720336914062,33.93067169189453,0</coordinates>
</Point>
</Placemark>
<Placemark>
<name>室積</name>
<description></description>
<Point>
<coordinates>131.97190856933594,33.93040084838867,0</coordinates>
</Point>
</Placemark>
<Placemark>
<name>西の浜</name>
<description></description>
<Point>
<coordinates>131.97129821777344,33.932334899902344,0</coordinates>
</Point>
</Placemark>
<Placemark>
<name>中松原</name>
<description></description>
<Point>
<coordinates>131.97047424316406,33.93500518798828,0</coordinates>
</Point>
</Placemark>
<Placemark>
<name>室積新開</name>
<description></description>
<Point>
<coordinates>131.9669952392578,33.94148254394531,0</coordinates>
</Point>
</Placemark>
<Placemark>
<name>西新開</name>
<description></description>
<Point>
<coordinates>131.96368408203125,33.94588851928711,0</coordinates>
</Point>
</Placemark>
<Placemark>
<name>戸仲</name>
<description></description>
<Point>
<coordinates>131.9569091796875,33.9516716003418,0</coordinates>
</Point>
</Placemark>
<Placemark>
<name>北河畑</name>
<description></description>
<Point>
<coordinates>131.9526824951172,33.95437240600586,0</coordinates>
</Point>
</Placemark>
<Placemark>
<name>光警察前</name>
<description></description>
<Point>
<coordinates>131.94911193847656,33.95671463012695,0</coordinates>
</Point>
</Placemark>
<Placemark>
<name>光局前</name>
<description></description>
<Point>
<coordinates>131.94558715820312,33.95895004272461,0</coordinates>
</Point>
</Placemark>
<Placemark>
<name>光製鉄前</name>
<description></description>
<Point>
<coordinates>131.93515014648438,33.96866226196289,0</coordinates>
</Point>
</Placemark>
<Placemark>
<name>島田市</name>
<description></description>
<Point>
<coordinates>131.933837890625,33.96914291381836,0</coordinates>
</Point>
</Placemark>
<Placemark>
<name>浅江</name>
<description></description>
<Point>
<coordinates>131.9264373779297,33.97113800048828,0</coordinates>
</Point>
</Placemark>
<Placemark>
<name>魚ヶ辺</name>
<description></description>
<Point>
<coordinates>131.89773559570312,33.97829055786133,0</coordinates>
</Point>
</Placemark>
<Placemark>
<name>東海岸通り</name>
<description></description>
<Point>
<coordinates>131.88632202148438,33.98999786376953,0</coordinates>
</Point>
</Placemark>
<Placemark>
<name>恋ヶ浜</name>
<description></description>
<Point>
<coordinates>131.87908935546875,33.994140625,0</coordinates>
</Point>
</Placemark>
<Placemark>
<name>豊井東</name>
<description></description>
<Point>
<coordinates>131.8739776611328,33.99795150756836,0</coordinates>
</Point>
</Placemark>
<Placemark>
<name>豊井</name>
<description></description>
<Point>
<coordinates>131.87130737304688,34.00235366821289,0</coordinates>
</Point>
</Placemark>
<Placemark>
<name>高砂町</name>
<description></description>
<Point>
<coordinates>131.86422729492188,34.00844955444336,0</coordinates>
</Point>
</Placemark>
<Placemark>
<name>玉鶴橋</name>
<description></description>
<Point>
<coordinates>131.8585662841797,34.01176834106445,0</coordinates>
</Point>
</Placemark>
<Placemark>
<name>平田橋</name>
<description></description>
<Point>
<coordinates>131.85487365722656,34.01377487182617,0</coordinates>
</Point>
</Placemark>
<Placemark>
<name>西開作</name>
<description></description>
<Point>
<coordinates>131.8468017578125,34.01580047607422,0</coordinates>
</Point>
</Placemark>
<Placemark>
<name>下松健康パーク前</name>
<description></description>
<Point>
<coordinates>131.84336853027344,34.01664352416992,0</coordinates>
</Point>
</Placemark>
<Placemark>
<name>荒神</name>
<description></description>
<Point>
<coordinates>131.84005737304688,34.01771545410156,0</coordinates>
</Point>
</Placemark>
<Placemark>
<name>ボートレース場入口</name>
<description></description>
<Point>
<coordinates>131.8373565673828,34.01871109008789,0</coordinates>
</Point>
</Placemark>
<Placemark>
<name>堀川</name>
<description></description>
<Point>
<coordinates>131.8314971923828,34.02434539794922,0</coordinates>
</Point>
</Placemark>
<Placemark>
<name>中町</name>
<description></description>
<Point>
<coordinates>131.8302764892578,34.027923583984375,0</coordinates>
</Point>
</Placemark>
<Placemark>
<name>櫛ヶ浜駅前</name>
<description></description>
<Point>
<coordinates>131.82879638671875,34.03059387207031,0</coordinates>
</Point>
</Placemark>
<Placemark>
<name>遠石八幡前</name>
<description></description>
<Point>
<coordinates>131.8228759765625,34.03855895996094,0</coordinates>
</Point>
</Placemark>
<Placemark>
<name>遠石一丁目</name>
<description></description>
<Point>
<coordinates>131.81948852539062,34.04037857055664,0</coordinates>
</Point>
</Placemark>
<Placemark>
<name>青山町</name>
<description></description>
<Point>
<coordinates>131.8168487548828,34.04259490966797,0</coordinates>
</Point>
</Placemark>
<Placemark>
<name>防長交通本社前</name>
<description></description>
<Point>
<coordinates>131.81399536132812,34.04499053955078,0</coordinates>
</Point>
</Placemark>
<Placemark>
<name>慶万</name>
<description></description>
<Point>
<coordinates>131.81239318847656,34.048458099365234,0</coordinates>
</Point>
</Placemark>
<Placemark>
<name>桜馬場</name>
<description></description>
<Point>
<coordinates>131.81089782714844,34.05242919921875,0</coordinates>
</Point>
</Placemark>
<Placemark>
<name>周防大島町大島庁舎前</name>
<description></description>
<Point>
<coordinates>132.19644165039062,33.92829513549805,0</coordinates>
</Point>
</Placemark>
<Placemark>
<name>大島郵便局前</name>
<description></description>
<Point>
<coordinates>132.19195556640625,33.930484771728516,0</coordinates>
</Point>
</Placemark>
<Placemark>
<name>明新橋</name>
<description></description>
<Point>
<coordinates>132.189208984375,33.92779541015625,0</coordinates>
</Point>
</Placemark>
<Placemark>
<name>水車</name>
<description></description>
<Point>
<coordinates>132.1871795654297,33.92543411254883,0</coordinates>
</Point>
</Placemark>
<Placemark>
<name>開作港</name>
<description></description>
<Point>
<coordinates>132.1819305419922,33.92847442626953,0</coordinates>
</Point>
</Placemark>
<Placemark>
<name>代の田</name>
<description></description>
<Point>
<coordinates>132.17735290527344,33.93003845214844,0</coordinates>
</Point>
</Placemark>
<Placemark>
<name>浜西</name>
<description></description>
<Point>
<coordinates>132.17654418945312,33.920345306396484,0</coordinates>
</Point>
</Placemark>
<Placemark>
<name>周防志佐</name>
<description></description>
<Point>
<coordinates>132.1774444580078,33.91684341430664,0</coordinates>
</Point>
</Placemark>
<Placemark>
<name>西日見</name>
<description></description>
<Point>
<coordinates>132.17657470703125,33.90571594238281,0</coordinates>
</Point>
</Placemark>
<Placemark>
<name>日見</name>
<description></description>
<Point>
<coordinates>132.18112182617188,33.898399353027344,0</coordinates>
</Point>
</Placemark>
<Placemark>
<name>海洋センター前</name>
<description></description>
<Point>
<coordinates>132.18504333496094,33.8949089050293,0</coordinates>
</Point>
</Placemark>
<Placemark>
<name>横見</name>
<description></description>
<Point>
<coordinates>132.18894958496094,33.891056060791016,0</coordinates>
</Point>
</Placemark>
<Placemark>
<name>沖浦</name>
<description></description>
<Point>
<coordinates>132.1973114013672,33.883792877197266,0</coordinates>
</Point>
</Placemark>
<Placemark>
<name>沖浦支所前</name>
<description></description>
<Point>
<coordinates>132.19996643066406,33.88220977783203,0</coordinates>
</Point>
</Placemark>
<Placemark>
<name>津海木</name>
<description></description>
<Point>
<coordinates>132.20547485351562,33.876060485839844,0</coordinates>
</Point>
</Placemark>
<Placemark>
<name>瀬戸</name>
<description></description>
<Point>
<coordinates>132.03335571289062,33.95695114135742,0</coordinates>
</Point>
</Placemark>
<Placemark>
<name>塩坪</name>
<description></description>
<Point>
<coordinates>132.05442810058594,33.95882034301758,0</coordinates>
</Point>
</Placemark>
<Placemark>
<name>東浦</name>
<description></description>
<Point>
<coordinates>132.05191040039062,33.958168029785156,0</coordinates>
</Point>
</Placemark>
<Placemark>
<name>祇園</name>
<description></description>
<Point>
<coordinates>132.048583984375,33.957740783691406,0</coordinates>
</Point>
</Placemark>
<Placemark>
<name>田布施駅前</name>
<description></description>
<Point>
<coordinates>132.0442657470703,33.95820999145508,0</coordinates>
</Point>
</Placemark>
<Placemark>
<name>砂田</name>
<description></description>
<Point>
<coordinates>132.042236328125,33.956302642822266,0</coordinates>
</Point>
</Placemark>
<Placemark>
<name>納所</name>
<description></description>
<Point>
<coordinates>132.02894592285156,33.95629119873047,0</coordinates>
</Point>
</Placemark>
<Placemark>
<name>観音橋</name>
<description></description>
<Point>
<coordinates>132.02650451660156,33.95872497558594,0</coordinates>
</Point>
</Placemark>
<Placemark>
<name>瓜迫</name>
<description></description>
<Point>
<coordinates>132.01983642578125,33.968345642089844,0</coordinates>
</Point>
</Placemark>
<Placemark>
<name>前原</name>
<description></description>
<Point>
<coordinates>132.012451171875,33.970970153808594,0</coordinates>
</Point>
</Placemark>
<Placemark>
<name>箕越</name>
<description></description>
<Point>
<coordinates>132.10333251953125,33.968143463134766,0</coordinates>
</Point>
</Placemark>
<Placemark>
<name>樋の上</name>
<description></description>
<Point>
<coordinates>132.10340881347656,33.970115661621094,0</coordinates>
</Point>
</Placemark>
<Placemark>
<name>柳井中学校前</name>
<description></description>
<Point>
<coordinates>132.1034393310547,33.97465515136719,0</coordinates>
</Point>
</Placemark>
<Placemark>
<name>国清</name>
<description></description>
<Point>
<coordinates>132.1033172607422,33.978153228759766,0</coordinates>
</Point>
</Placemark>
<Placemark>
<name>本通橋</name>
<description></description>
<Point>
<coordinates>132.10159301757812,33.981178283691406,0</coordinates>
</Point>
</Placemark>
<Placemark>
<name>落合</name>
<description></description>
<Point>
<coordinates>132.0975799560547,33.985633850097656,0</coordinates>
</Point>
</Placemark>
<Placemark>
<name>下政井</name>
<description></description>
<Point>
<coordinates>132.09796142578125,33.990238189697266,0</coordinates>
</Point>
</Placemark>
<Placemark>
<name>政井</name>
<description></description>
<Point>
<coordinates>132.09469604492188,33.994606018066406,0</coordinates>
</Point>
</Placemark>
<Placemark>
<name>横川</name>
<description></description>
<Point>
<coordinates>132.0888671875,33.99626922607422,0</coordinates>
</Point>
</Placemark>
<Placemark>
<name>黒杭</name>
<description></description>
<Point>
<coordinates>132.083984375,34.00075149536133,0</coordinates>
</Point>
</Placemark>
<Placemark>
<name>上黒杭</name>
<description></description>
<Point>
<coordinates>132.0797882080078,34.008766174316406,0</coordinates>
</Point>
</Placemark>
<Placemark>
<name>菅原農場</name>
<description></description>
<Point>
<coordinates>132.07740783691406,34.012393951416016,0</coordinates>
</Point>
</Placemark>
<Placemark>
<name>松ヶ谷</name>
<description></description>
<Point>
<coordinates>132.0736083984375,34.01704788208008,0</coordinates>
</Point>
</Placemark>
<Placemark>
<name>小行司</name>
<description></description>
<Point>
<coordinates>132.06947326660156,34.01884841918945,0</coordinates>
</Point>
</Placemark>
<Placemark>
<name>田尻</name>
<description></description>
<Point>
<coordinates>132.060791015625,34.02368927001953,0</coordinates>
</Point>
</Placemark>
<Placemark>
<name>大の口</name>
<description></description>
<Point>
<coordinates>132.1031036376953,34.01335144042969,0</coordinates>
</Point>
</Placemark>
<Placemark>
<name>大迫</name>
<description></description>
<Point>
<coordinates>132.10720825195312,34.02481460571289,0</coordinates>
</Point>
</Placemark>
<Placemark>
<name>中馬皿</name>
<description></description>
<Point>
<coordinates>132.1018829345703,33.99232482910156,0</coordinates>
</Point>
</Placemark>
<Placemark>
<name>上馬皿</name>
<description></description>
<Point>
<coordinates>132.10545349121094,33.994632720947266,0</coordinates>
</Point>
</Placemark>
<Placemark>
<name>板屋</name>
<description></description>
<Point>
<coordinates>132.11141967773438,33.998268127441406,0</coordinates>
</Point>
</Placemark>
<Placemark>
<name>西光寺</name>
<description></description>
<Point>
<coordinates>132.12071228027344,34.00301742553711,0</coordinates>
</Point>
</Placemark>
<Placemark>
<name>石井</name>
<description></description>
<Point>
<coordinates>132.12725830078125,34.00581741333008,0</coordinates>
</Point>
</Placemark>
<Placemark>
<name>上長野</name>
<description></description>
<Point>
<coordinates>132.1310272216797,34.01111602783203,0</coordinates>
</Point>
</Placemark>
<Placemark>
<name>柳井カントリー入口</name>
<description></description>
<Point>
<coordinates>132.13670349121094,34.017189025878906,0</coordinates>
</Point>
</Placemark>
<Placemark>
<name>長野</name>
<description></description>
<Point>
<coordinates>132.13592529296875,34.021324157714844,0</coordinates>
</Point>
</Placemark>
<Placemark>
<name>木部</name>
<description></description>
<Point>
<coordinates>132.12879943847656,34.0233039855957,0</coordinates>
</Point>
</Placemark>
<Placemark>
<name>宗兼</name>
<description></description>
<Point>
<coordinates>132.1212615966797,34.02886962890625,0</coordinates>
</Point>
</Placemark>
<Placemark>
<name>宮の前</name>
<description></description>
<Point>
<coordinates>132.11126708984375,34.02826690673828,0</coordinates>
</Point>
</Placemark>
<Placemark>
<name>宮ヶ原</name>
<description></description>
<Point>
<coordinates>132.1082305908203,34.02899932861328,0</coordinates>
</Point>
</Placemark>
<Placemark>
<name>旭</name>
<description></description>
<Point>
<coordinates>132.099609375,34.034725189208984,0</coordinates>
</Point>
</Placemark>
<Placemark>
<name>恵下</name>
<description></description>
<Point>
<coordinates>132.09776306152344,34.03643035888672,0</coordinates>
</Point>
</Placemark>
<Placemark>
<name>久可地</name>
<description></description>
<Point>
<coordinates>132.0950469970703,34.03886413574219,0</coordinates>
</Point>
</Placemark>
<Placemark>
<name>大久保</name>
<description></description>
<Point>
<coordinates>132.17210388183594,33.96954345703125,0</coordinates>
</Point>
</Placemark>
<Placemark>
<name>坂川</name>
<description></description>
<Point>
<coordinates>132.16531372070312,33.98185348510742,0</coordinates>
</Point>
</Placemark>
<Placemark>
<name>松ヶ段</name>
<description></description>
<Point>
<coordinates>132.16343688964844,33.986820220947266,0</coordinates>
</Point>
</Placemark>
<Placemark>
<name>忍道</name>
<description></description>
<Point>
<coordinates>132.1608428955078,33.99159622192383,0</coordinates>
</Point>
</Placemark>
<Placemark>
<name>東宮ヶ峠</name>
<description></description>
<Point>
<coordinates>132.157470703125,33.996543884277344,0</coordinates>
</Point>
</Placemark>
<Placemark>
<name>宮ヶ峠</name>
<description></description>
<Point>
<coordinates>132.15353393554688,33.99923324584961,0</coordinates>
</Point>
</Placemark>
<Placemark>
<name>小国</name>
<description></description>
<Point>
<coordinates>132.15359497070312,34.006134033203125,0</coordinates>
</Point>
</Placemark>
<Placemark>
<name>智雲院</name>
<description></description>
<Point>
<coordinates>132.15464782714844,34.0086784362793,0</coordinates>
</Point>
</Placemark>
<Placemark>
<name>大里</name>
<description></description>
<Point>
<coordinates>132.16348266601562,34.01240921020508,0</coordinates>
</Point>
</Placemark>
<Placemark>
<name>大原</name>
<description></description>
<Point>
<coordinates>132.15516662597656,34.021034240722656,0</coordinates>
</Point>
</Placemark>
<Placemark>
<name>神西小前</name>
<description></description>
<Point>
<coordinates>132.19007873535156,33.967647552490234,0</coordinates>
</Point>
</Placemark>
<Placemark>
<name>神代浜</name>
<description></description>
<Point>
<coordinates>132.19053649902344,33.97114562988281,0</coordinates>
</Point>
</Placemark>
<Placemark>
<name>中筋橋</name>
<description></description>
<Point>
<coordinates>132.18923950195312,33.976173400878906,0</coordinates>
</Point>
</Placemark>
<Placemark>
<name>東本宮公会堂前</name>
<description></description>
<Point>
<coordinates>132.18878173828125,33.97908401489258,0</coordinates>
</Point>
</Placemark>
<Placemark>
<name>岩尾滝</name>
<description></description>
<Point>
<coordinates>132.1873779296875,33.98606872558594,0</coordinates>
</Point>
</Placemark>
<Placemark>
<name>殿畑公会堂前</name>
<description></description>
<Point>
<coordinates>132.1824188232422,33.99375534057617,0</coordinates>
</Point>
</Placemark>
<Placemark>
<name>水梨</name>
<description></description>
<Point>
<coordinates>132.17921447753906,33.996639251708984,0</coordinates>
</Point>
</Placemark>
<Placemark>
<name>倉庫前</name>
<description></description>
<Point>
<coordinates>132.17469787597656,34.000858306884766,0</coordinates>
</Point>
</Placemark>
<Placemark>
<name>中山</name>
<description></description>
<Point>
<coordinates>132.1715545654297,34.00511932373047,0</coordinates>
</Point>
</Placemark>
<Placemark>
<name>尾崎原</name>
<description></description>
<Point>
<coordinates>132.16860961914062,34.00840377807617,0</coordinates>
</Point>
</Placemark>
<Placemark>
<name>西大原</name>
<description></description>
<Point>
<coordinates>132.1520233154297,34.01737594604492,0</coordinates>
</Point>
</Placemark>
<Placemark>
<name>折坂</name>
<description></description>
<Point>
<coordinates>132.15087890625,34.015167236328125,0</coordinates>
</Point>
</Placemark>
<Placemark>
<name>若杉</name>
<description></description>
<Point>
<coordinates>132.14193725585938,34.00612258911133,0</coordinates>
</Point>
</Placemark>
<Placemark>
<name>上若杉</name>
<description></description>
<Point>
<coordinates>132.13861083984375,34.004234313964844,0</coordinates>
</Point>
</Placemark>
<Placemark>
<name>新宮</name>
<description></description>
<Point>
<coordinates>132.13302612304688,34.00149917602539,0</coordinates>
</Point>
</Placemark>
<Placemark>
<name>割石</name>
<description></description>
<Point>
<coordinates>132.1288299560547,33.996376037597656,0</coordinates>
</Point>
</Placemark>
<Placemark>
<name>西谷</name>
<description></description>
<Point>
<coordinates>132.1201171875,33.996131896972656,0</coordinates>
</Point>
</Placemark>
<Placemark>
<name>安養院前</name>
<description></description>
<Point>
<coordinates>132.11624145507812,33.99457931518555,0</coordinates>
</Point>
</Placemark>
<Placemark>
<name>笠塚カープ練習場前</name>
<description></description>
<Point>
<coordinates>132.1475067138672,34.03541564941406,0</coordinates>
</Point>
</Placemark>
<Placemark>
<name>横吹</name>
<description></description>
<Point>
<coordinates>132.1566619873047,34.033748626708984,0</coordinates>
</Point>
</Placemark>
<Placemark>
<name>寺山</name>
<description></description>
<Point>
<coordinates>132.16119384765625,34.03289794921875,0</coordinates>
</Point>
</Placemark>
<Placemark>
<name>長田公会堂前</name>
<description></description>
<Point>
<coordinates>132.15953063964844,34.0291633605957,0</coordinates>
</Point>
</Placemark>
<Placemark>
<name>みどり病院前</name>
<description></description>
<Point>
<coordinates>132.15635681152344,34.02718734741211,0</coordinates>
</Point>
</Placemark>
<Placemark>
<name>岩倉</name>
<description></description>
<Point>
<coordinates>132.1621551513672,34.02460479736328,0</coordinates>
</Point>
</Placemark>
<Placemark>
<name>長田</name>
<description></description>
<Point>
<coordinates>132.16217041015625,34.027984619140625,0</coordinates>
</Point>
</Placemark>
<Placemark>
<name>老人福祉センター</name>
<description></description>
<Point>
<coordinates>132.16647338867188,34.02949142456055,0</coordinates>
</Point>
</Placemark>
<Placemark>
<name>由宇温泉</name>
<description></description>
<Point>
<coordinates>132.1675262451172,34.029930114746094,0</coordinates>
</Point>
</Placemark>
<Placemark>
<name>貞清</name>
<description></description>
<Point>
<coordinates>132.17080688476562,34.031951904296875,0</coordinates>
</Point>
</Placemark>
<Placemark>
<name>湯西小前</name>
<description></description>
<Point>
<coordinates>132.1763458251953,34.03602600097656,0</coordinates>
</Point>
</Placemark>
<Placemark>
<name>横道</name>
<description></description>
<Point>
<coordinates>132.1777801513672,34.038360595703125,0</coordinates>
</Point>
</Placemark>
<Placemark>
<name>寺迫</name>
<description></description>
<Point>
<coordinates>132.18399047851562,34.043087005615234,0</coordinates>
</Point>
</Placemark>
<Placemark>
<name>生屋</name>
<description></description>
<Point>
<coordinates>132.18751525878906,34.04460525512695,0</coordinates>
</Point>
</Placemark>
<Placemark>
<name>三軒屋</name>
<description></description>
<Point>
<coordinates>132.19186401367188,34.043827056884766,0</coordinates>
</Point>
</Placemark>
<Placemark>
<name>慈雲院</name>
<description></description>
<Point>
<coordinates>132.19802856445312,34.04527282714844,0</coordinates>
</Point>
</Placemark>
<Placemark>
<name>由宇中学校前</name>
<description></description>
<Point>
<coordinates>132.20169067382812,34.04525375366211,0</coordinates>
</Point>
</Placemark>
<Placemark>
<name>千歳橋</name>
<description></description>
<Point>
<coordinates>132.20716857910156,34.04623031616211,0</coordinates>
</Point>
</Placemark>
<Placemark>
<name>千鳥橋</name>
<description></description>
<Point>
<coordinates>132.21253967285156,34.04703903198242,0</coordinates>
</Point>
</Placemark>
<Placemark>
<name>千鳥ヶ丘中</name>
<description></description>
<Point>
<coordinates>132.213623046875,34.03227615356445,0</coordinates>
</Point>
</Placemark>
<Placemark>
<name>千鳥ヶ丘東</name>
<description></description>
<Point>
<coordinates>132.213623046875,34.035057067871094,0</coordinates>
</Point>
</Placemark>
<Placemark>
<name>千鳥ヶ丘病院前</name>
<description></description>
<Point>
<coordinates>132.21331787109375,34.036285400390625,0</coordinates>
</Point>
</Placemark>
<Placemark>
<name>清華保育園前</name>
<description></description>
<Point>
<coordinates>132.21205139160156,34.03327941894531,0</coordinates>
</Point>
</Placemark>
<Placemark>
<name>ゆうたん前</name>
<description></description>
<Point>
<coordinates>132.21499633789062,34.04084777832031,0</coordinates>
</Point>
</Placemark>
<Placemark>
<name>にこにこちどり園前</name>
<description></description>
<Point>
<coordinates>132.21478271484375,34.04353713989258,0</coordinates>
</Point>
</Placemark>
<Placemark>
<name>由宇崎</name>
<description></description>
<Point>
<coordinates>132.2173309326172,34.0368766784668,0</coordinates>
</Point>
</Placemark>
<Placemark>
<name>水尻</name>
<description></description>
<Point>
<coordinates>132.21749877929688,34.018898010253906,0</coordinates>
</Point>
</Placemark>
<Placemark>
<name>田高多</name>
<description></description>
<Point>
<coordinates>132.21649169921875,34.014705657958984,0</coordinates>
</Point>
</Placemark>
<Placemark>
<name>城ヶ崎</name>
<description></description>
<Point>
<coordinates>132.21470642089844,34.008628845214844,0</coordinates>
</Point>
</Placemark>
<Placemark>
<name>神代駅前</name>
<description></description>
<Point>
<coordinates>132.20921325683594,33.9979362487793,0</coordinates>
</Point>
</Placemark>
<Placemark>
<name>公門所</name>
<description></description>
<Point>
<coordinates>132.20228576660156,33.99059295654297,0</coordinates>
</Point>
</Placemark>
<Placemark>
<name>相地</name>
<description></description>
<Point>
<coordinates>132.20005798339844,33.984527587890625,0</coordinates>
</Point>
</Placemark>
<Placemark>
<name>西有家</name>
<description></description>
<Point>
<coordinates>132.20973205566406,34.025611877441406,0</coordinates>
</Point>
</Placemark>
<Placemark>
<name>大畑</name>
<description></description>
<Point>
<coordinates>132.20733642578125,34.01918411254883,0</coordinates>
</Point>
</Placemark>
<Placemark>
<name>銭壷山登山口</name>
<description></description>
<Point>
<coordinates>132.20925903320312,34.01605987548828,0</coordinates>
</Point>
</Placemark>
<Placemark>
<name>岡田</name>
<description></description>
<Point>
<coordinates>132.20689392089844,34.00660705566406,0</coordinates>
</Point>
</Placemark>
<Placemark>
<name>平床</name>
<description></description>
<Point>
<coordinates>132.20387268066406,34.00295639038086,0</coordinates>
</Point>
</Placemark>
<Placemark>
<name>平原</name>
<description></description>
<Point>
<coordinates>132.2005157470703,34.00104522705078,0</coordinates>
</Point>
</Placemark>
<Placemark>
<name>舟木公会堂前</name>
<description></description>
<Point>
<coordinates>132.19869995117188,33.99754333496094,0</coordinates>
</Point>
</Placemark>
<Placemark>
<name>舟木</name>
<description></description>
<Point>
<coordinates>132.19715881347656,33.99283981323242,0</coordinates>
</Point>
</Placemark>
<Placemark>
<name>小松港</name>
<description></description>
<Point>
<coordinates>132.1876678466797,33.943790435791016,0</coordinates>
</Point>
</Placemark>
<Placemark>
<name>高専前</name>
<description></description>
<Point>
<coordinates>132.19081115722656,33.94023132324219,0</coordinates>
</Point>
</Placemark>
<Placemark>
<name>大島宮の下</name>
<description></description>
<Point>
<coordinates>132.19229125976562,33.93708038330078,0</coordinates>
</Point>
</Placemark>
<Placemark>
<name>石丸</name>
<description></description>
<Point>
<coordinates>132.19308471679688,33.93407440185547,0</coordinates>
</Point>
</Placemark>
<Placemark>
<name>出井</name>
<description></description>
<Point>
<coordinates>132.21771240234375,33.87694549560547,0</coordinates>
</Point>
</Placemark>
<Placemark>
<name>家房</name>
<description></description>
<Point>
<coordinates>132.23388671875,33.87724304199219,0</coordinates>
</Point>
</Placemark>
<Placemark>
<name>東家房</name>
<description></description>
<Point>
<coordinates>132.23768615722656,33.87757110595703,0</coordinates>
</Point>
</Placemark>
<Placemark>
<name>秋</name>
<description></description>
<Point>
<coordinates>132.2529754638672,33.87773895263672,0</coordinates>
</Point>
</Placemark>
<Placemark>
<name>周防吉浦</name>
<description></description>
<Point>
<coordinates>132.2592010498047,33.87784194946289,0</coordinates>
</Point>
</Placemark>
<Placemark>
<name>周防大泊</name>
<description></description>
<Point>
<coordinates>132.26773071289062,33.87928009033203,0</coordinates>
</Point>
</Placemark>
<Placemark>
<name>西安下庄</name>
<description></description>
<Point>
<coordinates>132.26893615722656,33.892372131347656,0</coordinates>
</Point>
</Placemark>
<Placemark>
<name>安西</name>
<description></description>
<Point>
<coordinates>132.27178955078125,33.894744873046875,0</coordinates>
</Point>
</Placemark>
<Placemark>
<name>安下庄中学校前</name>
<description></description>
<Point>
<coordinates>132.27503967285156,33.897071838378906,0</coordinates>
</Point>
</Placemark>
<Placemark>
<name>図書館前</name>
<description></description>
<Point>
<coordinates>131.8080291748047,34.0570068359375,0</coordinates>
</Point>
</Placemark>
<Placemark>
<name>徳山高校前</name>
<description></description>
<Point>
<coordinates>131.80966186523438,34.05978775024414,0</coordinates>
</Point>
</Placemark>
<Placemark>
<name>動物園文化会館入口</name>
<description></description>
<Point>
<coordinates>131.81280517578125,34.06039047241211,0</coordinates>
</Point>
</Placemark>
<Placemark>
<name>動物園北口</name>
<description></description>
<Point>
<coordinates>131.8157501220703,34.063232421875,0</coordinates>
</Point>
</Placemark>
<Placemark>
<name>金剛山</name>
<description></description>
<Point>
<coordinates>131.81336975097656,34.064476013183594,0</coordinates>
</Point>
</Placemark>
<Placemark>
<name>老人ホーム前</name>
<description></description>
<Point>
<coordinates>131.81057739257812,34.0643196105957,0</coordinates>
</Point>
</Placemark>
<Placemark>
<name>卯の手</name>
<description></description>
<Point>
<coordinates>131.80697631835938,34.064327239990234,0</coordinates>
</Point>
</Placemark>
<Placemark>
<name>浄水場</name>
<description></description>
<Point>
<coordinates>131.80479431152344,34.065364837646484,0</coordinates>
</Point>
</Placemark>
<Placemark>
<name>北山</name>
<description></description>
<Point>
<coordinates>131.80294799804688,34.0659294128418,0</coordinates>
</Point>
</Placemark>
<Placemark>
<name>住吉中前</name>
<description></description>
<Point>
<coordinates>131.80348205566406,34.06402587890625,0</coordinates>
</Point>
</Placemark>
<Placemark>
<name>風呂ヶ迫</name>
<description></description>
<Point>
<coordinates>131.82049560546875,34.0555419921875,0</coordinates>
</Point>
</Placemark>
<Placemark>
<name>扇町県住前</name>
<description></description>
<Point>
<coordinates>131.82408142089844,34.05596923828125,0</coordinates>
</Point>
</Placemark>
<Placemark>
<name>秋月小前</name>
<description></description>
<Point>
<coordinates>131.8260498046875,34.05478286743164,0</coordinates>
</Point>
</Placemark>
<Placemark>
<name>秋月一丁目</name>
<description></description>
<Point>
<coordinates>131.82888793945312,34.05302429199219,0</coordinates>
</Point>
</Placemark>
<Placemark>
<name>江の宮町</name>
<description></description>
<Point>
<coordinates>131.8319091796875,34.05274200439453,0</coordinates>
</Point>
</Placemark>
<Placemark>
<name>瀬戸見町</name>
<description></description>
<Point>
<coordinates>131.8326873779297,34.05042266845703,0</coordinates>
</Point>
</Placemark>
<Placemark>
<name>中央病院前</name>
<description></description>
<Point>
<coordinates>131.834228515625,34.048805236816406,0</coordinates>
</Point>
</Placemark>
<Placemark>
<name>鼓海園前</name>
<description></description>
<Point>
<coordinates>131.83619689941406,34.04780197143555,0</coordinates>
</Point>
</Placemark>
<Placemark>
<name>城ヶ丘一丁目</name>
<description></description>
<Point>
<coordinates>131.8394317626953,34.04726028442383,0</coordinates>
</Point>
</Placemark>
<Placemark>
<name>大学高専下</name>
<description></description>
<Point>
<coordinates>131.8427276611328,34.04728317260742,0</coordinates>
</Point>
</Placemark>
<Placemark>
<name>城ヶ丘四丁目</name>
<description></description>
<Point>
<coordinates>131.84303283691406,34.044254302978516,0</coordinates>
</Point>
</Placemark>
<Placemark>
<name>久米温泉口</name>
<description></description>
<Point>
<coordinates>131.84671020507812,34.04181671142578,0</coordinates>
</Point>
</Placemark>
<Placemark>
<name>坂本橋</name>
<description></description>
<Point>
<coordinates>131.84840393066406,34.04075622558594,0</coordinates>
</Point>
</Placemark>
<Placemark>
<name>ひばりヶ丘下</name>
<description></description>
<Point>
<coordinates>131.8497772216797,34.04154586791992,0</coordinates>
</Point>
</Placemark>
<Placemark>
<name>ひばりヶ丘</name>
<description></description>
<Point>
<coordinates>131.85073852539062,34.042449951171875,0</coordinates>
</Point>
</Placemark>
<Placemark>
<name>ひばりヶ丘中</name>
<description></description>
<Point>
<coordinates>131.85194396972656,34.04216384887695,0</coordinates>
</Point>
</Placemark>
<Placemark>
<name>横浜</name>
<description></description>
<Point>
<coordinates>131.82859802246094,34.036155700683594,0</coordinates>
</Point>
</Placemark>
<Placemark>
<name>太華中前</name>
<description></description>
<Point>
<coordinates>131.83396911621094,34.03488540649414,0</coordinates>
</Point>
</Placemark>
<Placemark>
<name>久米</name>
<description></description>
<Point>
<coordinates>131.83596801757812,34.033321380615234,0</coordinates>
</Point>
</Placemark>
<Placemark>
<name>市道久米</name>
<description></description>
<Point>
<coordinates>131.83819580078125,34.033573150634766,0</coordinates>
</Point>
</Placemark>
<Placemark>
<name>中道</name>
<description></description>
<Point>
<coordinates>131.84112548828125,34.033851623535156,0</coordinates>
</Point>
</Placemark>
<Placemark>
<name>西光寺</name>
<description></description>
<Point>
<coordinates>131.8411865234375,34.032291412353516,0</coordinates>
</Point>
</Placemark>
<Placemark>
<name>寺下</name>
<description></description>
<Point>
<coordinates>131.84222412109375,34.031944274902344,0</coordinates>
</Point>
</Placemark>
<Placemark>
<name>旭ヶ丘団地入口</name>
<description></description>
<Point>
<coordinates>131.84461975097656,34.03257751464844,0</coordinates>
</Point>
</Placemark>
<Placemark>
<name>旭ヶ丘団地</name>
<description></description>
<Point>
<coordinates>131.8455810546875,34.03188705444336,0</coordinates>
</Point>
</Placemark>
<Placemark>
<name>旭ヶ丘団地中</name>
<description></description>
<Point>
<coordinates>131.84364318847656,34.03066635131836,0</coordinates>
</Point>
</Placemark>
<Placemark>
<name>旭ヶ丘団地下</name>
<description></description>
<Point>
<coordinates>131.84390258789062,34.03190231323242,0</coordinates>
</Point>
</Placemark>
<Placemark>
<name>糀町</name>
<description></description>
<Point>
<coordinates>131.80796813964844,34.047828674316406,0</coordinates>
</Point>
</Placemark>
<Placemark>
<name>揚柳橋</name>
<description></description>
<Point>
<coordinates>131.80960083007812,34.046775817871094,0</coordinates>
</Point>
</Placemark>
<Placemark>
<name>速玉町</name>
<description></description>
<Point>
<coordinates>131.81130981445312,34.04582214355469,0</coordinates>
</Point>
</Placemark>
<Placemark>
<name>松保町</name>
<description></description>
<Point>
<coordinates>131.81309509277344,34.04478073120117,0</coordinates>
</Point>
</Placemark>
<Placemark>
<name>松保町東</name>
<description></description>
<Point>
<coordinates>131.81459045410156,34.04401779174805,0</coordinates>
</Point>
</Placemark>
<Placemark>
<name>五月町</name>
<description></description>
<Point>
<coordinates>131.8278350830078,34.03835678100586,0</coordinates>
</Point>
</Placemark>
<Placemark>
<name>緑ヶ丘運動公園前</name>
<description></description>
<Point>
<coordinates>131.82913208007812,34.03976821899414,0</coordinates>
</Point>
</Placemark>
<Placemark>
<name>球場前</name>
<description></description>
<Point>
<coordinates>131.82835388183594,34.04407501220703,0</coordinates>
</Point>
</Placemark>
<Placemark>
<name>自動車学校前</name>
<description></description>
<Point>
<coordinates>131.83160400390625,34.04358673095703,0</coordinates>
</Point>
</Placemark>
<Placemark>
<name>周陽二丁目</name>
<description></description>
<Point>
<coordinates>131.83502197265625,34.04574966430664,0</coordinates>
</Point>
</Placemark>
<Placemark>
<name>周陽町中央病院入口</name>
<description></description>
<Point>
<coordinates>131.83302307128906,34.04713821411133,0</coordinates>
</Point>
</Placemark>
<Placemark>
<name>大河内</name>
<description></description>
<Point>
<coordinates>131.82733154296875,34.05106735229492,0</coordinates>
</Point>
</Placemark>
<Placemark>
<name>大内町</name>
<description></description>
<Point>
<coordinates>131.8264923095703,34.04949951171875,0</coordinates>
</Point>
</Placemark>
<Placemark>
<name>遠石</name>
<description></description>
<Point>
<coordinates>131.8221893310547,34.04232406616211,0</coordinates>
</Point>
</Placemark>
<Placemark>
<name>新宿一丁目</name>
<description></description>
<Point>
<coordinates>131.8018798828125,34.05729293823242,0</coordinates>
</Point>
</Placemark>
<Placemark>
<name>新宿三丁目</name>
<description></description>
<Point>
<coordinates>131.79986572265625,34.06159210205078,0</coordinates>
</Point>
</Placemark>
<Placemark>
<name>江口</name>
<description></description>
<Point>
<coordinates>131.79800415039062,34.064937591552734,0</coordinates>
</Point>
</Placemark>
<Placemark>
<name>浦山</name>
<description></description>
<Point>
<coordinates>131.7913360595703,34.06841278076172,0</coordinates>
</Point>
</Placemark>
<Placemark>
<name>川崎</name>
<description></description>
<Point>
<coordinates>131.78353881835938,34.06956100463867,0</coordinates>
</Point>
</Placemark>
<Placemark>
<name>古川</name>
<description></description>
<Point>
<coordinates>131.77716064453125,34.07000732421875,0</coordinates>
</Point>
</Placemark>
<Placemark>
<name>東高前</name>
<description></description>
<Point>
<coordinates>131.77354431152344,34.070953369140625,0</coordinates>
</Point>
</Placemark>
<Placemark>
<name>新南陽駅通</name>
<description></description>
<Point>
<coordinates>131.7707061767578,34.07170104980469,0</coordinates>
</Point>
</Placemark>
<Placemark>
<name>新南陽駅前</name>
<description></description>
<Point>
<coordinates>131.76913452148438,34.0702018737793,0</coordinates>
</Point>
</Placemark>
<Placemark>
<name>政所</name>
<description></description>
<Point>
<coordinates>131.7703399658203,34.07307434082031,0</coordinates>
</Point>
</Placemark>
<Placemark>
<name>風車通り</name>
<description></description>
<Point>
<coordinates>131.7717742919922,34.07573318481445,0</coordinates>
</Point>
</Placemark>
<Placemark>
<name>土井橋</name>
<description></description>
<Point>
<coordinates>131.77296447753906,34.079158782958984,0</coordinates>
</Point>
</Placemark>
<Placemark>
<name>土井</name>
<description></description>
<Point>
<coordinates>131.77426147460938,34.080631256103516,0</coordinates>
</Point>
</Placemark>
<Placemark>
<name>横矢</name>
<description></description>
<Point>
<coordinates>131.77679443359375,34.084468841552734,0</coordinates>
</Point>
</Placemark>
<Placemark>
<name>上野</name>
<description></description>
<Point>
<coordinates>131.78167724609375,34.088680267333984,0</coordinates>
</Point>
</Placemark>
<Placemark>
<name>徳善</name>
<description></description>
<Point>
<coordinates>131.78390502929688,34.09254455566406,0</coordinates>
</Point>
</Placemark>
<Placemark>
<name>南野</name>
<description></description>
<Point>
<coordinates>131.78794860839844,34.096065521240234,0</coordinates>
</Point>
</Placemark>
<Placemark>
<name>川曲（矢櫃）</name>
<description></description>
<Point>
<coordinates>131.81423950195312,34.10374069213867,0</coordinates>
</Point>
</Placemark>
<Placemark>
<name>四熊中野</name>
<description></description>
<Point>
<coordinates>131.7702178955078,34.12698745727539,0</coordinates>
</Point>
</Placemark>
<Placemark>
<name>保安寺前</name>
<description></description>
<Point>
<coordinates>131.7918243408203,34.100242614746094,0</coordinates>
</Point>
</Placemark>
<Placemark>
<name>間上</name>
<description></description>
<Point>
<coordinates>131.79331970214844,34.10383224487305,0</coordinates>
</Point>
</Placemark>
<Placemark>
<name>横川</name>
<description></description>
<Point>
<coordinates>131.7978057861328,34.14735412597656,0</coordinates>
</Point>
</Placemark>
<Placemark>
<name>鹿野</name>
<description></description>
<Point>
<coordinates>131.80987548828125,34.13929748535156,0</coordinates>
</Point>
</Placemark>
<Placemark>
<name>新南陽高校前</name>
<description></description>
<Point>
<coordinates>131.7684783935547,34.08009338378906,0</coordinates>
</Point>
</Placemark>
<Placemark>
<name>東大神</name>
<description></description>
<Point>
<coordinates>131.7661895751953,34.08308029174805,0</coordinates>
</Point>
</Placemark>
<Placemark>
<name>大神</name>
<description></description>
<Point>
<coordinates>131.76585388183594,34.08518981933594,0</coordinates>
</Point>
</Placemark>
<Placemark>
<name>小庄下</name>
<description></description>
<Point>
<coordinates>131.7619171142578,34.08781051635742,0</coordinates>
</Point>
</Placemark>
<Placemark>
<name>小畑小前</name>
<description></description>
<Point>
<coordinates>131.7562713623047,34.08946990966797,0</coordinates>
</Point>
</Placemark>
<Placemark>
<name>広谷口</name>
<description></description>
<Point>
<coordinates>131.7549285888672,34.09016036987305,0</coordinates>
</Point>
</Placemark>
<Placemark>
<name>小畑</name>
<description></description>
<Point>
<coordinates>131.75132751464844,34.093223571777344,0</coordinates>
</Point>
</Placemark>
<Placemark>
<name>奥小畑</name>
<description></description>
<Point>
<coordinates>131.7460174560547,34.09552001953125,0</coordinates>
</Point>
</Placemark>
<Placemark>
<name>大谷公民館</name>
<description></description>
<Point>
<coordinates>131.7350311279297,34.123199462890625,0</coordinates>
</Point>
</Placemark>
<Placemark>
<name>米光</name>
<description></description>
<Point>
<coordinates>131.72923278808594,34.138671875,0</coordinates>
</Point>
</Placemark>
<Placemark>
<name>福寿荘前</name>
<description></description>
<Point>
<coordinates>131.72293090820312,34.13785171508789,0</coordinates>
</Point>
</Placemark>
<Placemark>
<name>上村</name>
<description></description>
<Point>
<coordinates>131.71978759765625,34.13691329956055,0</coordinates>
</Point>
</Placemark>
<Placemark>
<name>堀</name>
<description></description>
<Point>
<coordinates>131.6607666015625,34.1917724609375,0</coordinates>
</Point>
</Placemark>
<Placemark>
<name>新南陽市民病院前</name>
<description></description>
<Point>
<coordinates>131.76687622070312,34.07186508178711,0</coordinates>
</Point>
</Placemark>
<Placemark>
<name>富田中前</name>
<description></description>
<Point>
<coordinates>131.76339721679688,34.071815490722656,0</coordinates>
</Point>
</Placemark>
<Placemark>
<name>新町口</name>
<description></description>
<Point>
<coordinates>131.75926208496094,34.07185363769531,0</coordinates>
</Point>
</Placemark>
<Placemark>
<name>横町</name>
<description></description>
<Point>
<coordinates>131.755615234375,34.072540283203125,0</coordinates>
</Point>
</Placemark>
<Placemark>
<name>平野</name>
<description></description>
<Point>
<coordinates>131.753173828125,34.072818756103516,0</coordinates>
</Point>
</Placemark>
<Placemark>
<name>新南陽総合支所前</name>
<description></description>
<Point>
<coordinates>131.74972534179688,34.07229995727539,0</coordinates>
</Point>
</Placemark>
<Placemark>
<name>温田</name>
<description></description>
<Point>
<coordinates>131.7423095703125,34.07251739501953,0</coordinates>
</Point>
</Placemark>
<Placemark>
<name>福川駅前</name>
<description></description>
<Point>
<coordinates>131.73858642578125,34.07247543334961,0</coordinates>
</Point>
</Placemark>
<Placemark>
<name>新地口</name>
<description></description>
<Point>
<coordinates>131.73333740234375,34.07258605957031,0</coordinates>
</Point>
</Placemark>
<Placemark>
<name>西町</name>
<description></description>
<Point>
<coordinates>131.7310791015625,34.07341003417969,0</coordinates>
</Point>
</Placemark>
<Placemark>
<name>福川中前</name>
<description></description>
<Point>
<coordinates>131.72711181640625,34.07584762573242,0</coordinates>
</Point>
</Placemark>
<Placemark>
<name>夜市口</name>
<description></description>
<Point>
<coordinates>131.7178192138672,34.07999038696289,0</coordinates>
</Point>
</Placemark>
<Placemark>
<name>夜市いちや前</name>
<description></description>
<Point>
<coordinates>131.71046447753906,34.07990264892578,0</coordinates>
</Point>
</Placemark>
<Placemark>
<name>夜市下市</name>
<description></description>
<Point>
<coordinates>131.70632934570312,34.076576232910156,0</coordinates>
</Point>
</Placemark>
<Placemark>
<name>友広</name>
<description></description>
<Point>
<coordinates>131.70091247558594,34.06942367553711,0</coordinates>
</Point>
</Placemark>
<Placemark>
<name>下戸田</name>
<description></description>
<Point>
<coordinates>131.69517517089844,34.07057189941406,0</coordinates>
</Point>
</Placemark>
<Placemark>
<name>中河原</name>
<description></description>
<Point>
<coordinates>131.69259643554688,34.0726432800293,0</coordinates>
</Point>
</Placemark>
<Placemark>
<name>湯野温泉口</name>
<description></description>
<Point>
<coordinates>131.68482971191406,34.07638168334961,0</coordinates>
</Point>
</Placemark>
<Placemark>
<name>荅谷入口</name>
<description></description>
<Point>
<coordinates>131.6752471923828,34.07193374633789,0</coordinates>
</Point>
</Placemark>
<Placemark>
<name>椿峠</name>
<description></description>
<Point>
<coordinates>131.664794921875,34.067344665527344,0</coordinates>
</Point>
</Placemark>
<Placemark>
<name>戸田山入口</name>
<description></description>
<Point>
<coordinates>131.6572265625,34.058624267578125,0</coordinates>
</Point>
</Placemark>
<Placemark>
<name>円通寺</name>
<description></description>
<Point>
<coordinates>131.64915466308594,34.0534553527832,0</coordinates>
</Point>
</Placemark>
<Placemark>
<name>富海公民館前</name>
<description></description>
<Point>
<coordinates>131.6429443359375,34.05126953125,0</coordinates>
</Point>
</Placemark>