<?xml version="1.0" encoding="UTF-8"?>
<kml xmlns="http://www.opengis.net/kml/2.2">
<Document>
<name><![CDATA[バス停 : 群馬]]></name>
<Folder>
<name>Placemarks</name>
<Placemark>
<name>上町</name>
<description></description>
<Point>
<coordinates>139.0581512451172,36.15401077270508,0</coordinates>
</Point>
</Placemark>
<Placemark>
<name>板倉東洋大前駅（東口）</name>
<description></description>
<Point>
<coordinates>139.648193359375,36.22184371948242,0</coordinates>
</Point>
</Placemark>
<Placemark>
<name>藤岡郵便局・ピアゴ藤岡店前</name>
<description></description>
<Point>
<coordinates>139.08108520507812,36.2457160949707,0</coordinates>
</Point>
</Placemark>
<Placemark>
<name>公立藤岡総合病院</name>
<description></description>
<Point>
<coordinates>139.07725524902344,36.25285720825195,0</coordinates>
</Point>
</Placemark>
<Placemark>
<name>松原新道</name>
<description></description>
<Point>
<coordinates>139.40687561035156,36.25468826293945,0</coordinates>
</Point>
</Placemark>
<Placemark>
<name>西小泉駅前バスターミナル</name>
<description></description>
<Point>
<coordinates>139.40814208984375,36.25743865966797,0</coordinates>
</Point>
</Placemark>
<Placemark>
<name>古氷町営入口</name>
<description></description>
<Point>
<coordinates>139.3929901123047,36.26311492919922,0</coordinates>
</Point>
</Placemark>
<Placemark>
<name>藤岡総合病院外来センター</name>
<description></description>
<Point>
<coordinates>139.0776824951172,36.26783752441406,0</coordinates>
</Point>
</Placemark>
<Placemark>
<name>大根</name>
<description></description>
<Point>
<coordinates>139.27981567382812,36.31087875366211,0</coordinates>
</Point>
</Placemark>
<Placemark>
<name>大利根団地</name>
<description></description>
<Point>
<coordinates>139.0601043701172,36.35830307006836,0</coordinates>
</Point>
</Placemark>
<Placemark>
<name>学校前</name>
<description></description>
<Point>
<coordinates>139.05972290039062,36.36073303222656,0</coordinates>
</Point>
</Placemark>
<Placemark>
<name>下新田入口</name>
<description></description>
<Point>
<coordinates>139.06321716308594,36.36119842529297,0</coordinates>
</Point>
</Placemark>
<Placemark>
<name>済生会病院</name>
<description></description>
<Point>
<coordinates>139.061279296875,36.36725997924805,0</coordinates>
</Point>
</Placemark>
<Placemark>
<name>育英高校</name>
<description></description>
<Point>
<coordinates>139.06271362304688,36.36851501464844,0</coordinates>
</Point>
</Placemark>
<Placemark>
<name>永寿寺前</name>
<description></description>
<Point>
<coordinates>139.07577514648438,36.38446044921875,0</coordinates>
</Point>
</Placemark>
<Placemark>
<name>前橋大島駅前</name>
<description></description>
<Point>
<coordinates>139.1089324951172,36.370731353759766,0</coordinates>
</Point>
</Placemark>
<Placemark>
<name>静和幼稚園前</name>
<description></description>
<Point>
<coordinates>139.07656860351562,36.380714416503906,0</coordinates>
</Point>
</Placemark>
<Placemark>
<name>南口改良住宅前</name>
<description></description>
<Point>
<coordinates>139.0764617919922,36.38321304321289,0</coordinates>
</Point>
</Placemark>
<Placemark>
<name>前橋駅前</name>
<description></description>
<Point>
<coordinates>139.07228088378906,36.38392639160156,0</coordinates>
</Point>
</Placemark>
<Placemark>
<name>石倉</name>
<description></description>
<Point>
<coordinates>139.05384826660156,36.383995056152344,0</coordinates>
</Point>
</Placemark>
<Placemark>
<name>上石倉</name>
<description></description>
<Point>
<coordinates>139.05410766601562,36.38698196411133,0</coordinates>
</Point>
</Placemark>
<Placemark>
<name>表町</name>
<description></description>
<Point>
<coordinates>139.07249450683594,36.38723373413086,0</coordinates>
</Point>
</Placemark>
<Placemark>
<name>中央病院入口</name>
<description></description>
<Point>
<coordinates>139.06056213378906,36.38742446899414,0</coordinates>
</Point>
</Placemark>
<Placemark>
<name>坂下</name>
<description></description>
<Point>
<coordinates>139.07302856445312,36.38960647583008,0</coordinates>
</Point>
</Placemark>
<Placemark>
<name>本町</name>
<description></description>
<Point>
<coordinates>139.069580078125,36.39024353027344,0</coordinates>
</Point>
</Placemark>
<Placemark>
<name>県庁前</name>
<description></description>
<Point>
<coordinates>139.06201171875,36.390342712402344,0</coordinates>
</Point>
</Placemark>
<Placemark>
<name>農林中金前</name>
<description></description>
<Point>
<coordinates>139.06466674804688,36.39070129394531,0</coordinates>
</Point>
</Placemark>
<Placemark>
<name>日銀前</name>
<description></description>
<Point>
<coordinates>139.06637573242188,36.39088821411133,0</coordinates>
</Point>
</Placemark>
<Placemark>
<name>中央前橋駅</name>
<description></description>
<Point>
<coordinates>139.07427978515625,36.3912467956543,0</coordinates>
</Point>
</Placemark>
<Placemark>
<name>城東町二丁目</name>
<description></description>
<Point>
<coordinates>139.0738525390625,36.3934211730957,0</coordinates>
</Point>
</Placemark>
<Placemark>
<name>城東町一丁目</name>
<description></description>
<Point>
<coordinates>139.07318115234375,36.39497375488281,0</coordinates>
</Point>
</Placemark>
<Placemark>
<name>栢ヶ舞</name>
<description></description>
<Point>
<coordinates>139.03533935546875,36.12868881225586,0</coordinates>
</Point>
</Placemark>
<Placemark>
<name>今里</name>
<description></description>
<Point>
<coordinates>139.0398712158203,36.130393981933594,0</coordinates>
</Point>
</Placemark>
<Placemark>
<name>神坂トンネル</name>
<description></description>
<Point>
<coordinates>138.9993438720703,36.1322021484375,0</coordinates>
</Point>
</Placemark>
<Placemark>
<name>下久保</name>
<description></description>
<Point>
<coordinates>139.02731323242188,36.135982513427734,0</coordinates>
</Point>
</Placemark>
<Placemark>
<name>犬目</name>
<description></description>
<Point>
<coordinates>139.00491333007812,36.13664245605469,0</coordinates>
</Point>
</Placemark>
<Placemark>
<name>ダムサイト入口</name>
<description></description>
<Point>
<coordinates>139.01885986328125,36.136993408203125,0</coordinates>
</Point>
</Placemark>
<Placemark>
<name>活用センター入口</name>
<description></description>
<Point>
<coordinates>139.00982666015625,36.13721466064453,0</coordinates>
</Point>
</Placemark>
<Placemark>
<name>保美濃山</name>
<description></description>
<Point>
<coordinates>139.0107421875,36.13911437988281,0</coordinates>
</Point>
</Placemark>
<Placemark>
<name>坂本</name>
<description></description>
<Point>
<coordinates>139.01683044433594,36.1396484375,0</coordinates>
</Point>
</Placemark>
<Placemark>
<name>柴原集会所前</name>
<description></description>
<Point>
<coordinates>139.0401611328125,36.14060974121094,0</coordinates>
</Point>
</Placemark>
<Placemark>
<name>体験学習館マグ</name>
<description></description>
<Point>
<coordinates>139.0401611328125,36.1430778503418,0</coordinates>
</Point>
</Placemark>
<Placemark>
<name>満福寺入口</name>
<description></description>
<Point>
<coordinates>139.0411834716797,36.14734649658203,0</coordinates>
</Point>
</Placemark>
<Placemark>
<name>総合グランド入口（鬼石）</name>
<description></description>
<Point>
<coordinates>139.0440673828125,36.15018844604492,0</coordinates>
</Point>
</Placemark>
<Placemark>
<name>鬼石保育園入口</name>
<description></description>
<Point>
<coordinates>139.05007934570312,36.153343200683594,0</coordinates>
</Point>
</Placemark>
<Placemark>
<name>三杉町</name>
<description></description>
<Point>
<coordinates>139.0526885986328,36.15388870239258,0</coordinates>
</Point>
</Placemark>
<Placemark>
<name>上武橋</name>
<description></description>
<Point>
<coordinates>139.05972290039062,36.15389633178711,0</coordinates>
</Point>
</Placemark>
<Placemark>
<name>相生町</name>
<description></description>
<Point>
<coordinates>139.05569458007812,36.1549072265625,0</coordinates>
</Point>
</Placemark>
<Placemark>
<name>下相生町</name>
<description></description>
<Point>
<coordinates>139.0570526123047,36.15496063232422,0</coordinates>
</Point>
</Placemark>
<Placemark>
<name>原</name>
<description></description>
<Point>
<coordinates>139.05099487304688,36.155296325683594,0</coordinates>
</Point>
</Placemark>
<Placemark>
<name>鬼石郵便局</name>
<description></description>
<Point>
<coordinates>139.05845642089844,36.156272888183594,0</coordinates>
</Point>
</Placemark>
<Placemark>
<name>鬼石</name>
<description></description>
<Point>
<coordinates>139.05845642089844,36.156272888183594,0</coordinates>
</Point>
</Placemark>
<Placemark>
<name>鬼石病院</name>
<description></description>
<Point>
<coordinates>139.0601043701172,36.15721130371094,0</coordinates>
</Point>
</Placemark>
<Placemark>
<name>鬼石病院前</name>
<description></description>
<Point>
<coordinates>139.06015014648438,36.15778732299805,0</coordinates>
</Point>
</Placemark>
<Placemark>
<name>鬼石総合支所・鬼石中学校前</name>
<description></description>
<Point>
<coordinates>139.06097412109375,36.160438537597656,0</coordinates>
</Point>
</Placemark>
<Placemark>
<name>鬼石総合支所前</name>
<description></description>
<Point>
<coordinates>139.06097412109375,36.160438537597656,0</coordinates>
</Point>
</Placemark>
<Placemark>
<name>本町</name>
<description></description>
<Point>
<coordinates>139.05917358398438,36.16160202026367,0</coordinates>
</Point>
</Placemark>
<Placemark>
<name>フレッセイ前</name>
<description></description>
<Point>
<coordinates>139.05746459960938,36.165653228759766,0</coordinates>
</Point>
</Placemark>
<Placemark>
<name>フレッセイ</name>
<description></description>
<Point>
<coordinates>139.05746459960938,36.165653228759766,0</coordinates>
</Point>
</Placemark>
<Placemark>
<name>あじさいの里公園入口</name>
<description></description>
<Point>
<coordinates>139.056396484375,36.17280960083008,0</coordinates>
</Point>
</Placemark>
<Placemark>
<name>八塩温泉郷</name>
<description></description>
<Point>
<coordinates>139.0555419921875,36.175537109375,0</coordinates>
</Point>
</Placemark>
<Placemark>
<name>桜山温泉センター入口</name>
<description></description>
<Point>
<coordinates>139.05662536621094,36.1839714050293,0</coordinates>
</Point>
</Placemark>
<Placemark>
<name>高山入山</name>
<description></description>
<Point>
<coordinates>139.01878356933594,36.18510818481445,0</coordinates>
</Point>
</Placemark>
<Placemark>
<name>浄法寺郵便局前</name>
<description></description>
<Point>
<coordinates>139.05947875976562,36.186729431152344,0</coordinates>
</Point>
</Placemark>
<Placemark>
<name>高山上組</name>
<description></description>
<Point>
<coordinates>139.00897216796875,36.189056396484375,0</coordinates>
</Point>
</Placemark>
<Placemark>
<name>浄法寺</name>
<description></description>
<Point>
<coordinates>139.0605010986328,36.18967819213867,0</coordinates>
</Point>
</Placemark>
<Placemark>
<name>山室</name>
<description></description>
<Point>
<coordinates>139.02059936523438,36.19241714477539,0</coordinates>
</Point>
</Placemark>
<Placemark>
<name>浄法寺スポーツ公園入口</name>
<description></description>
<Point>
<coordinates>139.0605010986328,36.19279861450195,0</coordinates>
</Point>
</Placemark>
<Placemark>
<name>二千階段入口</name>
<description></description>
<Point>
<coordinates>139.0061798095703,36.1953010559082,0</coordinates>
</Point>
</Placemark>
<Placemark>
<name>沢口</name>
<description></description>
<Point>
<coordinates>139.0259246826172,36.1953125,0</coordinates>
</Point>
</Placemark>
<Placemark>
<name>上中森東</name>
<description></description>
<Point>
<coordinates>139.4768524169922,36.19624710083008,0</coordinates>
</Point>
</Placemark>
<Placemark>
<name>高山中組</name>
<description></description>
<Point>
<coordinates>139.02285766601562,36.19652557373047,0</coordinates>
</Point>
</Placemark>
<Placemark>
<name>普光寺前</name>
<description></description>
<Point>
<coordinates>139.64772033691406,36.196937561035156,0</coordinates>
</Point>
</Placemark>
<Placemark>
<name>上五箇</name>
<description></description>
<Point>
<coordinates>139.6339874267578,36.1973876953125,0</coordinates>
</Point>
</Placemark>
<Placemark>
<name>富永郵便局前</name>
<description></description>
<Point>
<coordinates>139.4715576171875,36.19740676879883,0</coordinates>
</Point>
</Placemark>
<Placemark>
<name>宇奈根</name>
<description></description>
<Point>
<coordinates>139.62631225585938,36.197418212890625,0</coordinates>
</Point>
</Placemark>
<Placemark>
<name>上五箇</name>
<description></description>
<Point>
<coordinates>139.46466064453125,36.197566986083984,0</coordinates>
</Point>
</Placemark>
<Placemark>
<name>上五箇三橋神社</name>
<description></description>
<Point>
<coordinates>139.4608612060547,36.19757843017578,0</coordinates>
</Point>
</Placemark>
<Placemark>
<name>下五箇中妻</name>
<description></description>
<Point>
<coordinates>139.64138793945312,36.197635650634766,0</coordinates>
</Point>
</Placemark>
<Placemark>
<name>下中森西</name>
<description></description>
<Point>
<coordinates>139.4843292236328,36.1977424621582,0</coordinates>
</Point>
</Placemark>
<Placemark>
<name>下中森東</name>
<description></description>
<Point>
<coordinates>139.48916625976562,36.19841384887695,0</coordinates>
</Point>
</Placemark>
<Placemark>
<name>瀬戸井東</name>
<description></description>
<Point>
<coordinates>139.45249938964844,36.19893264770508,0</coordinates>
</Point>
</Placemark>
<Placemark>
<name>保美</name>
<description></description>
<Point>
<coordinates>139.05862426757812,36.1993293762207,0</coordinates>
</Point>
</Placemark>
<Placemark>
<name>大輪上集会所前</name>
<description></description>
<Point>
<coordinates>139.49539184570312,36.19940948486328,0</coordinates>
</Point>
</Placemark>
<Placemark>
<name>須賀信号機西</name>
<description></description>
<Point>
<coordinates>139.50942993164062,36.20003890991211,0</coordinates>
</Point>
</Placemark>
<Placemark>
<name>明和西小学校前</name>
<description></description>
<Point>
<coordinates>139.51283264160156,36.20004653930664,0</coordinates>
</Point>
</Placemark>
<Placemark>
<name>宇那根農村公園前</name>
<description></description>
<Point>
<coordinates>139.62391662597656,36.20009231567383,0</coordinates>
</Point>
</Placemark>
<Placemark>
<name>瀬戸井永徳橋</name>
<description></description>
<Point>
<coordinates>139.44862365722656,36.200199127197266,0</coordinates>
</Point>
</Placemark>
<Placemark>
<name>大輪東</name>
<description></description>
<Point>
<coordinates>139.50265502929688,36.20064926147461,0</coordinates>
</Point>
</Placemark>
<Placemark>
<name>保美二通屋</name>
<description></description>
<Point>
<coordinates>139.05908203125,36.20199966430664,0</coordinates>
</Point>
</Placemark>
<Placemark>
<name>東部運動公園</name>
<description></description>
<Point>
<coordinates>139.46473693847656,36.20247268676758,0</coordinates>
</Point>
</Placemark>
<Placemark>
<name>ふれあいタウンちよだ</name>
<description></description>
<Point>
<coordinates>139.47149658203125,36.203006744384766,0</coordinates>
</Point>
</Placemark>
<Placemark>
<name>小合地</name>
<description></description>
<Point>
<coordinates>139.64952087402344,36.20307159423828,0</coordinates>
</Point>
</Placemark>
<Placemark>
<name>里東</name>
<description></description>
<Point>
<coordinates>139.44384765625,36.20344543457031,0</coordinates>
</Point>
</Placemark>
<Placemark>
<name>萱野</name>
<description></description>
<Point>
<coordinates>139.46469116210938,36.20428466796875,0</coordinates>
</Point>
</Placemark>
<Placemark>
<name>南小学校前</name>
<description></description>
<Point>
<coordinates>139.62086486816406,36.20438003540039,0</coordinates>
</Point>
</Placemark>
<Placemark>
<name>高山下組</name>
<description></description>
<Point>
<coordinates>139.0335235595703,36.20485305786133,0</coordinates>
</Point>
</Placemark>
<Placemark>
<name>塩平</name>
<description></description>
<Point>
<coordinates>139.00328063964844,36.20607376098633,0</coordinates>
</Point>
</Placemark>
<Placemark>
<name>赤岩下宿</name>
<description></description>
<Point>
<coordinates>139.43936157226562,36.20619583129883,0</coordinates>
</Point>
</Placemark>
<Placemark>
<name>金蔵院前</name>
<description></description>
<Point>
<coordinates>139.6487579345703,36.206321716308594,0</coordinates>
</Point>
</Placemark>
<Placemark>
<name>中倉</name>
<description></description>
<Point>
<coordinates>139.0150604248047,36.20661544799805,0</coordinates>
</Point>
</Placemark>
<Placemark>
<name>南部公民館入口</name>
<description></description>
<Point>
<coordinates>139.61703491210938,36.20669937133789,0</coordinates>
</Point>
</Placemark>
<Placemark>
<name>赤岩渡船</name>
<description></description>
<Point>
<coordinates>139.435302734375,36.20713806152344,0</coordinates>
</Point>
</Placemark>
<Placemark>
<name>大佐貫信号機東</name>
<description></description>
<Point>
<coordinates>139.51797485351562,36.207679748535156,0</coordinates>
</Point>
</Placemark>
<Placemark>
<name>梨木商店前</name>
<description></description>
<Point>
<coordinates>139.04115295410156,36.20827102661133,0</coordinates>
</Point>
</Placemark>
<Placemark>
<name>川俣駅</name>
<description></description>
<Point>
<coordinates>139.52613830566406,36.20833969116211,0</coordinates>
</Point>
</Placemark>
<Placemark>
<name>新里集会所東</name>
<description></description>
<Point>
<coordinates>139.53134155273438,36.20836639404297,0</coordinates>
</Point>
</Placemark>
<Placemark>
<name>熊野南</name>
<description></description>
<Point>
<coordinates>139.43812561035156,36.20841979980469,0</coordinates>
</Point>
</Placemark>
<Placemark>
<name>JA永楽支所前</name>
<description></description>
<Point>
<coordinates>139.43650817871094,36.208438873291016,0</coordinates>
</Point>
</Placemark>
<Placemark>
<name>三本木公会堂前</name>
<description></description>
<Point>
<coordinates>139.04579162597656,36.208526611328125,0</coordinates>
</Point>
</Placemark>
<Placemark>
<name>田島信号機西</name>
<description></description>
<Point>
<coordinates>139.5440216064453,36.20863342285156,0</coordinates>
</Point>
</Placemark>
<Placemark>
<name>宿神田</name>
<description></description>
<Point>
<coordinates>139.0615692138672,36.208770751953125,0</coordinates>
</Point>
</Placemark>
<Placemark>
<name>飯野辻</name>
<description></description>
<Point>
<coordinates>139.6114501953125,36.20909881591797,0</coordinates>
</Point>
</Placemark>
<Placemark>
<name>舞木南</name>
<description></description>
<Point>
<coordinates>139.43283081054688,36.209163665771484,0</coordinates>
</Point>
</Placemark>
<Placemark>
<name>コミュニティセンターやすらぎ</name>
<description></description>
<Point>
<coordinates>139.05201721191406,36.2102165222168,0</coordinates>
</Point>
</Placemark>
<Placemark>
<name>地蔵院前</name>
<description></description>
<Point>
<coordinates>139.60726928710938,36.2104377746582,0</coordinates>
</Point>
</Placemark>
<Placemark>
<name>押出し</name>
<description></description>
<Point>
<coordinates>139.0184783935547,36.21083068847656,0</coordinates>
</Point>
</Placemark>
<Placemark>
<name>中神田</name>
<description></description>
<Point>
<coordinates>139.0639190673828,36.210880279541016,0</coordinates>
</Point>
</Placemark>
<Placemark>
<name>明和町役場前</name>
<description></description>
<Point>
<coordinates>139.5352783203125,36.2111701965332,0</coordinates>
</Point>
</Placemark>
<Placemark>
<name>五反田</name>
<description></description>
<Point>
<coordinates>139.44143676757812,36.211544036865234,0</coordinates>
</Point>
</Placemark>
<Placemark>
<name>熊野</name>
<description></description>
<Point>
<coordinates>139.43865966796875,36.21162796020508,0</coordinates>
</Point>
</Placemark>
<Placemark>
<name>中新田</name>
<description></description>
<Point>
<coordinates>139.6033172607422,36.211952209472656,0</coordinates>
</Point>
</Placemark>
<Placemark>
<name>新村</name>
<description></description>
<Point>
<coordinates>139.5966796875,36.21214294433594,0</coordinates>
</Point>
</Placemark>
<Placemark>
<name>日野小学校前</name>
<description></description>
<Point>
<coordinates>139.0240936279297,36.21253967285156,0</coordinates>
</Point>
</Placemark>
<Placemark>
<name>排水機場東</name>
<description></description>
<Point>
<coordinates>139.59242248535156,36.21324920654297,0</coordinates>
</Point>
</Placemark>
<Placemark>
<name>入ヶ谷</name>
<description></description>
<Point>
<coordinates>139.5009765625,36.213348388671875,0</coordinates>
</Point>
</Placemark>
<Placemark>
<name>上新町</name>
<description></description>
<Point>
<coordinates>139.0276336669922,36.213356018066406,0</coordinates>
</Point>
</Placemark>
<Placemark>
<name>八軒集会所南</name>
<description></description>
<Point>
<coordinates>139.54327392578125,36.21342086791992,0</coordinates>
</Point>
</Placemark>
<Placemark>
<name>美九里公民館前</name>
<description></description>
<Point>
<coordinates>139.06715393066406,36.213443756103516,0</coordinates>
</Point>
</Placemark>
<Placemark>
<name>町民プラザ前</name>
<description></description>
<Point>
<coordinates>139.44271850585938,36.213706970214844,0</coordinates>
</Point>
</Placemark>
<Placemark>
<name>木崎</name>
<description></description>
<Point>
<coordinates>139.45668029785156,36.21384811401367,0</coordinates>
</Point>
</Placemark>
<Placemark>
<name>斗合田</name>
<description></description>
<Point>
<coordinates>139.58441162109375,36.2140007019043,0</coordinates>
</Point>
</Placemark>
<Placemark>
<name>下桧内</name>
<description></description>
<Point>
<coordinates>139.44601440429688,36.21412658691406,0</coordinates>
</Point>
</Placemark>
<Placemark>
<name>薬王寺前</name>
<description></description>
<Point>
<coordinates>139.57989501953125,36.2143669128418,0</coordinates>
</Point>
</Placemark>
<Placemark>
<name>下江黒</name>
<description></description>
<Point>
<coordinates>139.57498168945312,36.2143669128418,0</coordinates>
</Point>
</Placemark>
<Placemark>
<name>町民プラザ西</name>
<description></description>
<Point>
<coordinates>139.44129943847656,36.214637756347656,0</coordinates>
</Point>
</Placemark>
<Placemark>
<name>三名湖入口</name>
<description></description>
<Point>
<coordinates>139.0493621826172,36.21465301513672,0</coordinates>
</Point>
</Placemark>
<Placemark>
<name>舞木中</name>
<description></description>
<Point>
<coordinates>139.43069458007812,36.21466827392578,0</coordinates>
</Point>
</Placemark>
<Placemark>
<name>鍋谷</name>
<description></description>
<Point>
<coordinates>139.4527587890625,36.21500015258789,0</coordinates>
</Point>
</Placemark>
<Placemark>
<name>第2浄水場入口前</name>
<description></description>
<Point>
<coordinates>139.5651092529297,36.215057373046875,0</coordinates>
</Point>
</Placemark>
<Placemark>
<name>矢場</name>
<description></description>
<Point>
<coordinates>139.05239868164062,36.21509552001953,0</coordinates>
</Point>
</Placemark>
<Placemark>
<name>小保呂</name>
<description></description>
<Point>
<coordinates>139.631103515625,36.21514129638672,0</coordinates>
</Point>
</Placemark>
<Placemark>
<name>海老瀬通</name>
<description></description>
<Point>
<coordinates>139.6481475830078,36.21516036987305,0</coordinates>
</Point>
</Placemark>
<Placemark>
<name>金井郵便局前</name>
<description></description>
<Point>
<coordinates>139.02955627441406,36.215206146240234,0</coordinates>
</Point>
</Placemark>
<Placemark>
<name>町営住宅前</name>
<description></description>
<Point>
<coordinates>139.55909729003906,36.21521759033203,0</coordinates>
</Point>
</Placemark>
<Placemark>
<name>日本中央営業所</name>
<description></description>
<Point>
<coordinates>139.0678253173828,36.2159538269043,0</coordinates>
</Point>
</Placemark>
<Placemark>
<name>矢場公会堂前</name>
<description></description>
<Point>
<coordinates>139.0547332763672,36.21712875366211,0</coordinates>
</Point>
</Placemark>
<Placemark>
<name>千代田町役場前</name>
<description></description>
<Point>
<coordinates>139.4434356689453,36.21759033203125,0</coordinates>
</Point>
</Placemark>
<Placemark>
<name>板倉ゴルフ場前</name>
<description></description>
<Point>
<coordinates>139.62197875976562,36.217594146728516,0</coordinates>
</Point>
</Placemark>
<Placemark>
<name>野辺東</name>
<description></description>
<Point>
<coordinates>139.4739532470703,36.21760177612305,0</coordinates>
</Point>
</Placemark>
<Placemark>
<name>野辺集会所</name>
<description></description>
<Point>
<coordinates>139.47010803222656,36.21843338012695,0</coordinates>
</Point>
</Placemark>
<Placemark>
<name>福祉センター前</name>
<description></description>
<Point>
<coordinates>139.44732666015625,36.21860122680664,0</coordinates>
</Point>
</Placemark>
<Placemark>
<name>上三林</name>
<description></description>
<Point>
<coordinates>139.49423217773438,36.21885681152344,0</coordinates>
</Point>
</Placemark>
<Placemark>
<name>板倉変電所前</name>
<description></description>
<Point>
<coordinates>139.6190948486328,36.21903991699219,0</coordinates>
</Point>
</Placemark>
<Placemark>
<name>JA三野谷支所前</name>
<description></description>
<Point>
<coordinates>139.486572265625,36.21909713745117,0</coordinates>
</Point>
</Placemark>
<Placemark>
<name>本郷橋</name>
<description></description>
<Point>
<coordinates>139.5411834716797,36.21918869018555,0</coordinates>
</Point>
</Placemark>
<Placemark>
<name>なかさと公園北</name>
<description></description>
<Point>
<coordinates>139.42848205566406,36.21925354003906,0</coordinates>
</Point>
</Placemark>
<Placemark>
<name>海老瀬山口</name>
<description></description>
<Point>
<coordinates>139.6503143310547,36.219337463378906,0</coordinates>
</Point>
</Placemark>
<Placemark>
<name>上三林郵便局前</name>
<description></description>
<Point>
<coordinates>139.48280334472656,36.219757080078125,0</coordinates>
</Point>
</Placemark>
<Placemark>
<name>十二社橋北</name>
<description></description>
<Point>
<coordinates>139.55653381347656,36.219764709472656,0</coordinates>
</Point>
</Placemark>
<Placemark>
<name>下三林長良神社前</name>
<description></description>
<Point>
<coordinates>139.5028839111328,36.219810485839844,0</coordinates>
</Point>
</Placemark>
<Placemark>
<name>中天神原</name>
<description></description>
<Point>
<coordinates>139.4614715576172,36.22037887573242,0</coordinates>
</Point>
</Placemark>
<Placemark>
<name>板倉郵便局前</name>
<description></description>
<Point>
<coordinates>139.61622619628906,36.22047805786133,0</coordinates>
</Point>
</Placemark>
<Placemark>
<name>野辺町信号</name>
<description></description>
<Point>
<coordinates>139.4642791748047,36.220619201660156,0</coordinates>
</Point>
</Placemark>
<Placemark>
<name>寺山</name>
<description></description>
<Point>
<coordinates>139.06912231445312,36.22064208984375,0</coordinates>
</Point>
</Placemark>
<Placemark>
<name>西部野菜集出荷場前</name>
<description></description>
<Point>
<coordinates>139.0512237548828,36.22084426879883,0</coordinates>
</Point>
</Placemark>
<Placemark>
<name>商工会館前</name>
<description></description>
<Point>
<coordinates>139.61289978027344,36.220890045166016,0</coordinates>
</Point>
</Placemark>
<Placemark>
<name>矢島商店</name>
<description></description>
<Point>
<coordinates>139.0301055908203,36.22111511230469,0</coordinates>
</Point>
</Placemark>
<Placemark>
<name>矢島商店前</name>
<description></description>
<Point>
<coordinates>139.0301055908203,36.22111511230469,0</coordinates>
</Point>
</Placemark>
<Placemark>
<name>下三林</name>
<description></description>
<Point>
<coordinates>139.50942993164062,36.22117233276367,0</coordinates>
</Point>
</Placemark>
<Placemark>
<name>役場入口</name>
<description></description>
<Point>
<coordinates>139.61019897460938,36.22135543823242,0</coordinates>
</Point>
</Placemark>
<Placemark>
<name>朝日野一丁目</name>
<description></description>
<Point>
<coordinates>139.64430236816406,36.22146987915039,0</coordinates>
</Point>
</Placemark>
<Placemark>
<name>板倉東洋大前駅</name>
<description></description>
<Point>
<coordinates>139.648193359375,36.22184371948242,0</coordinates>
</Point>
</Placemark>
<Placemark>
<name>板倉高校前</name>
<description></description>
<Point>
<coordinates>139.60543823242188,36.22232437133789,0</coordinates>
</Point>
</Placemark>
<Placemark>
<name>大林集会所前</name>
<description></description>
<Point>
<coordinates>139.5543975830078,36.22248840332031,0</coordinates>
</Point>
</Placemark>
<Placemark>
<name>中天JA倉庫</name>
<description></description>
<Point>
<coordinates>139.45362854003906,36.2225341796875,0</coordinates>
</Point>
</Placemark>
<Placemark>
<name>東洋大前</name>
<description></description>
<Point>
<coordinates>139.63967895507812,36.222721099853516,0</coordinates>
</Point>
</Placemark>
<Placemark>
<name>前天神原</name>
<description></description>
<Point>
<coordinates>139.44903564453125,36.223026275634766,0</coordinates>
</Point>
</Placemark>
<Placemark>
<name>原宿下</name>
<description></description>
<Point>
<coordinates>139.60104370117188,36.22310256958008,0</coordinates>
</Point>
</Placemark>
<Placemark>
<name>福祉センター前</name>
<description></description>
<Point>
<coordinates>139.62539672851562,36.223350524902344,0</coordinates>
</Point>
</Placemark>
<Placemark>
<name>西小学校前</name>
<description></description>
<Point>
<coordinates>139.59799194335938,36.22343444824219,0</coordinates>
</Point>
</Placemark>
<Placemark>
<name>別所</name>
<description></description>
<Point>
<coordinates>139.07122802734375,36.224029541015625,0</coordinates>
</Point>
</Placemark>
<Placemark>
<name>原宿上</name>
<description></description>
<Point>
<coordinates>139.5923614501953,36.22404479980469,0</coordinates>
</Point>
</Placemark>
<Placemark>
<name>堀工町南</name>
<description></description>
<Point>
<coordinates>139.54087829589844,36.22418975830078,0</coordinates>
</Point>
</Placemark>
<Placemark>
<name>岩田</name>
<description></description>
<Point>
<coordinates>139.58815002441406,36.22425842285156,0</coordinates>
</Point>
</Placemark>
<Placemark>
<name>第三中学校前</name>
<description></description>
<Point>
<coordinates>139.51524353027344,36.2244758605957,0</coordinates>
</Point>
</Placemark>
<Placemark>
<name>西平井公会堂</name>
<description></description>
<Point>
<coordinates>139.0313262939453,36.2244758605957,0</coordinates>
</Point>
</Placemark>
<Placemark>
<name>赤生田本町</name>
<description></description>
<Point>
<coordinates>139.55308532714844,36.22470474243164,0</coordinates>
</Point>
</Placemark>
<Placemark>
<name>東平井公民館前</name>
<description></description>
<Point>
<coordinates>139.04220581054688,36.22563171386719,0</coordinates>
</Point>
</Placemark>
<Placemark>
<name>海老瀬下新田</name>
<description></description>
<Point>
<coordinates>139.64463806152344,36.225975036621094,0</coordinates>
</Point>
</Placemark>
<Placemark>
<name>大原公民館</name>
<description></description>
<Point>
<coordinates>139.5403289794922,36.225990295410156,0</coordinates>
</Point>
</Placemark>
<Placemark>
<name>中島</name>
<description></description>
<Point>
<coordinates>139.4240264892578,36.226112365722656,0</coordinates>
</Point>
</Placemark>
<Placemark>
<name>別所東</name>
<description></description>
<Point>
<coordinates>139.0720672607422,36.226436614990234,0</coordinates>
</Point>
</Placemark>
<Placemark>
<name>よしのや商店前</name>
<description></description>
<Point>
<coordinates>139.0467987060547,36.226505279541016,0</coordinates>
</Point>
</Placemark>
<Placemark>
<name>厚生病院前</name>
<description></description>
<Point>
<coordinates>139.51953125,36.248268127441406,0</coordinates>
</Point>
</Placemark>
<Placemark>
<name>七丁目</name>
<description></description>
<Point>
<coordinates>139.0777130126953,36.24835205078125,0</coordinates>
</Point>
</Placemark>
<Placemark>
<name>大曲倉庫前</name>
<description></description>
<Point>
<coordinates>139.60423278808594,36.248905181884766,0</coordinates>
</Point>
</Placemark>
<Placemark>
<name>くすの木病院</name>
<description></description>
<Point>
<coordinates>139.08299255371094,36.249385833740234,0</coordinates>
</Point>
</Placemark>
<Placemark>
<name>四ツ谷町</name>
<description></description>
<Point>
<coordinates>139.5758819580078,36.24920654296875,0</coordinates>
</Point>
</Placemark>
<Placemark>
<name>緑町集会所前</name>
<description></description>
<Point>
<coordinates>139.07196044921875,36.24946212768555,0</coordinates>
</Point>
</Placemark>
<Placemark>
<name>成島町</name>
<description></description>
<Point>
<coordinates>139.4954376220703,36.24951934814453,0</coordinates>
</Point>
</Placemark>
<Placemark>
<name>館林郵便局前</name>
<description></description>
<Point>
<coordinates>139.53443908691406,36.2498893737793,0</coordinates>
</Point>
</Placemark>
<Placemark>
<name>税務署前</name>
<description></description>
<Point>
<coordinates>139.52964782714844,36.249942779541016,0</coordinates>
</Point>
</Placemark>
<Placemark>
<name>佐々木皮膚科クリニック西</name>
<description></description>
<Point>
<coordinates>139.41116333007812,36.24995040893555,0</coordinates>
</Point>
</Placemark>
<Placemark>
<name>東矢島町</name>
<description></description>
<Point>
<coordinates>139.38221740722656,36.269020080566406,0</coordinates>
</Point>
</Placemark>
<Placemark>
<name>下早川田町東</name>
<description></description>
<Point>
<coordinates>139.54994201660156,36.269805908203125,0</coordinates>
</Point>
</Placemark>
<Placemark>
<name>中野向地</name>
<description></description>
<Point>
<coordinates>139.46713256835938,36.2699089050293,0</coordinates>
</Point>
</Placemark>
<Placemark>
<name>石打</name>
<description></description>
<Point>
<coordinates>139.4437713623047,36.269927978515625,0</coordinates>
</Point>
</Placemark>
<Placemark>
<name>千原田</name>
<description></description>
<Point>
<coordinates>139.473876953125,36.26993179321289,0</coordinates>
</Point>
</Placemark>
<Placemark>
<name>六文棒</name>
<description></description>
<Point>
<coordinates>139.1437530517578,36.33837127685547,0</coordinates>
</Point>
</Placemark>
<Placemark>
<name>農協ビル前</name>
<description></description>
<Point>
<coordinates>139.0948028564453,36.3389892578125,0</coordinates>
</Point>
</Placemark>
<Placemark>
<name>亀里JAビル</name>
<description></description>
<Point>
<coordinates>139.09503173828125,36.3386116027832,0</coordinates>
</Point>
</Placemark>
<Placemark>
<name>駒形六丁目</name>
<description></description>
<Point>
<coordinates>139.14129638671875,36.339630126953125,0</coordinates>
</Point>
</Placemark>
<Placemark>
<name>スマーク伊勢崎</name>
<description></description>
<Point>
<coordinates>139.23451232910156,36.34089279174805,0</coordinates>
</Point>
</Placemark>
<Placemark>
<name>古海東公民館</name>
<description></description>
<Point>
<coordinates>139.4167938232422,36.22655487060547,0</coordinates>
</Point>
</Placemark>
<Placemark>
<name>後天神原</name>
<description></description>
<Point>
<coordinates>139.4594268798828,36.226585388183594,0</coordinates>
</Point>
</Placemark>
<Placemark>
<name>岩田観音前</name>
<description></description>
<Point>
<coordinates>139.58145141601562,36.22683334350586,0</coordinates>
</Point>
</Placemark>
<Placemark>
<name>福島</name>
<description></description>
<Point>
<coordinates>139.4395294189453,36.22747039794922,0</coordinates>
</Point>
</Placemark>
<Placemark>
<name>館林インター前</name>
<description></description>
<Point>
<coordinates>139.5754852294922,36.22768783569336,0</coordinates>
</Point>
</Placemark>
<Placemark>
<name>光病院前</name>
<description></description>
<Point>
<coordinates>139.07266235351562,36.22773742675781,0</coordinates>
</Point>
</Placemark>
<Placemark>
<name>青柳町</name>
<description></description>
<Point>
<coordinates>139.51956176757812,36.227874755859375,0</coordinates>
</Point>
</Placemark>
<Placemark>
<name>上赤生田町</name>
<description></description>
<Point>
<coordinates>139.54989624023438,36.228233337402344,0</coordinates>
</Point>
</Placemark>
<Placemark>
<name>くらかけ</name>
<description></description>
<Point>
<coordinates>139.45277404785156,36.22837448120117,0</coordinates>
</Point>
</Placemark>
<Placemark>
<name>羽附町東</name>
<description></description>
<Point>
<coordinates>139.5699005126953,36.22957992553711,0</coordinates>
</Point>
</Placemark>
<Placemark>
<name>福島東</name>
<description></description>
<Point>
<coordinates>139.4422149658203,36.22969055175781,0</coordinates>
</Point>
</Placemark>
<Placemark>
<name>福島西</name>
<description></description>
<Point>
<coordinates>139.4344940185547,36.230079650878906,0</coordinates>
</Point>
</Placemark>
<Placemark>
<name>JA邑楽館林本所前</name>
<description></description>
<Point>
<coordinates>139.56777954101562,36.23026657104492,0</coordinates>
</Point>
</Placemark>
<Placemark>
<name>大日北</name>
<description></description>
<Point>
<coordinates>139.44309997558594,36.23030090332031,0</coordinates>
</Point>
</Placemark>
<Placemark>
<name>大泉園入口</name>
<description></description>
<Point>
<coordinates>139.41165161132812,36.23057174682617,0</coordinates>
</Point>
</Placemark>
<Placemark>
<name>邑楽土地改良区前</name>
<description></description>
<Point>
<coordinates>139.64439392089844,36.230628967285156,0</coordinates>
</Point>
</Placemark>
<Placemark>
<name>羽附八坂神社西</name>
<description></description>
<Point>
<coordinates>139.56747436523438,36.2310791015625,0</coordinates>
</Point>
</Placemark>
<Placemark>
<name>古海西公民館前</name>
<description></description>
<Point>
<coordinates>139.40794372558594,36.23127365112305,0</coordinates>
</Point>
</Placemark>
<Placemark>
<name>中学校入口</name>
<description></description>
<Point>
<coordinates>139.60406494140625,36.23133087158203,0</coordinates>
</Point>
</Placemark>
<Placemark>
<name>水質管理センター入口</name>
<description></description>
<Point>
<coordinates>139.53692626953125,36.23146057128906,0</coordinates>
</Point>
</Placemark>
<Placemark>
<name>第四中学校北</name>
<description></description>
<Point>
<coordinates>139.54495239257812,36.23152542114258,0</coordinates>
</Point>
</Placemark>
<Placemark>
<name>久保製作所前</name>
<description></description>
<Point>
<coordinates>139.0519561767578,36.23185348510742,0</coordinates>
</Point>
</Placemark>
<Placemark>
<name>新福寺</name>
<description></description>
<Point>
<coordinates>139.42022705078125,36.2319450378418,0</coordinates>
</Point>
</Placemark>
<Placemark>
<name>東中入口</name>
<description></description>
<Point>
<coordinates>139.07423400878906,36.23194885253906,0</coordinates>
</Point>
</Placemark>
<Placemark>
<name>総合福祉センター</name>
<description></description>
<Point>
<coordinates>139.50828552246094,36.23209762573242,0</coordinates>
</Point>
</Placemark>
<Placemark>
<name>諏訪町</name>
<description></description>
<Point>
<coordinates>139.52284240722656,36.2324333190918,0</coordinates>
</Point>
</Placemark>
<Placemark>
<name>新福寺公民館西</name>
<description></description>
<Point>
<coordinates>139.42637634277344,36.232765197753906,0</coordinates>
</Point>
</Placemark>
<Placemark>
<name>新福寺辻</name>
<description></description>
<Point>
<coordinates>139.41854858398438,36.23280334472656,0</coordinates>
</Point>
</Placemark>
<Placemark>
<name>市斎場前（清掃センター）</name>
<description></description>
<Point>
<coordinates>139.50701904296875,36.233280181884766,0</coordinates>
</Point>
</Placemark>
<Placemark>
<name>市斎場前</name>
<description></description>
<Point>
<coordinates>139.50701904296875,36.233280181884766,0</coordinates>
</Point>
</Placemark>
<Placemark>
<name>古海三角公園前</name>
<description></description>
<Point>
<coordinates>139.4043731689453,36.233734130859375,0</coordinates>
</Point>
</Placemark>
<Placemark>
<name>老人福祉センター</name>
<description></description>
<Point>
<coordinates>139.08094787597656,36.23454666137695,0</coordinates>
</Point>
</Placemark>
<Placemark>
<name>松原三丁目東</name>
<description></description>
<Point>
<coordinates>139.54408264160156,36.234588623046875,0</coordinates>
</Point>
</Placemark>
<Placemark>
<name>美園町</name>
<description></description>
<Point>
<coordinates>139.5361328125,36.2346076965332,0</coordinates>
</Point>
</Placemark>
<Placemark>
<name>八丁</name>
<description></description>
<Point>
<coordinates>139.4416046142578,36.23499298095703,0</coordinates>
</Point>
</Placemark>
<Placemark>
<name>赤堀</name>
<description></description>
<Point>
<coordinates>139.47872924804688,36.235416412353516,0</coordinates>
</Point>
</Placemark>
<Placemark>
<name>みかぼみらい館</name>
<description></description>
<Point>
<coordinates>139.06820678710938,36.23543930053711,0</coordinates>
</Point>
</Placemark>
<Placemark>
<name>芦田町郵便局前</name>
<description></description>
<Point>
<coordinates>139.07423400878906,36.23615264892578,0</coordinates>
</Point>
</Placemark>
<Placemark>
<name>大利根工業団地</name>
<description></description>
<Point>
<coordinates>139.40733337402344,36.23621368408203,0</coordinates>
</Point>
</Placemark>
<Placemark>
<name>古海西</name>
<description></description>
<Point>
<coordinates>139.399169921875,36.236244201660156,0</coordinates>
</Point>
</Placemark>
<Placemark>
<name>国道254陸橋下</name>
<description></description>
<Point>
<coordinates>139.08218383789062,36.236106872558594,0</coordinates>
</Point>
</Placemark>
<Placemark>
<name>市営水押団地前</name>
<description></description>
<Point>
<coordinates>139.05560302734375,36.23632049560547,0</coordinates>
</Point>
</Placemark>
<Placemark>
<name>東部市営住宅入口</name>
<description></description>
<Point>
<coordinates>139.56912231445312,36.23637008666992,0</coordinates>
</Point>
</Placemark>
<Placemark>
<name>第六小学校前</name>
<description></description>
<Point>
<coordinates>139.5265350341797,36.23662185668945,0</coordinates>
</Point>
</Placemark>
<Placemark>
<name>厳島神社前</name>
<description></description>
<Point>
<coordinates>139.59158325195312,36.23677062988281,0</coordinates>
</Point>
</Placemark>
<Placemark>
<name>赤堀東</name>
<description></description>
<Point>
<coordinates>139.48440551757812,36.23680114746094,0</coordinates>
</Point>
</Placemark>
<Placemark>
<name>緑町南</name>
<description></description>
<Point>
<coordinates>139.5364990234375,36.23685836791992,0</coordinates>
</Point>
</Placemark>
<Placemark>
<name>松原</name>
<description></description>
<Point>
<coordinates>139.54112243652344,36.23722839355469,0</coordinates>
</Point>
</Placemark>
<Placemark>
<name>本郷</name>
<description></description>
<Point>
<coordinates>139.07713317871094,36.237308502197266,0</coordinates>
</Point>
</Placemark>
<Placemark>
<name>本郷</name>
<description></description>
<Point>
<coordinates>139.47439575195312,36.23737335205078,0</coordinates>
</Point>
</Placemark>
<Placemark>
<name>三菱自動車前</name>
<description></description>
<Point>
<coordinates>139.07614135742188,36.23741149902344,0</coordinates>
</Point>
</Placemark>
<Placemark>
<name>つつじが岡パークイン入口</name>
<description></description>
<Point>
<coordinates>139.5591278076172,36.237548828125,0</coordinates>
</Point>
</Placemark>
<Placemark>
<name>ふじみ橋</name>
<description></description>
<Point>
<coordinates>139.0818634033203,36.237422943115234,0</coordinates>
</Point>
</Placemark>
<Placemark>
<name>緑埜公会堂前</name>
<description></description>
<Point>
<coordinates>139.03431701660156,36.23775100708008,0</coordinates>
</Point>
</Placemark>
<Placemark>
<name>つつじが岡公園入口</name>
<description></description>
<Point>
<coordinates>139.5535888671875,36.23776626586914,0</coordinates>
</Point>
</Placemark>
<Placemark>
<name>JA営農センター前</name>
<description></description>
<Point>
<coordinates>139.47048950195312,36.23786926269531,0</coordinates>
</Point>
</Placemark>
<Placemark>
<name>城沼体育館前</name>
<description></description>
<Point>
<coordinates>139.54783630371094,36.2380485534668,0</coordinates>
</Point>
</Placemark>
<Placemark>
<name>開拓</name>
<description></description>
<Point>
<coordinates>139.4886932373047,36.23805236816406,0</coordinates>
</Point>
</Placemark>
<Placemark>
<name>高原</name>
<description></description>
<Point>
<coordinates>139.4672088623047,36.23823165893555,0</coordinates>
</Point>
</Placemark>
<Placemark>
<name>藤岡</name>
<description></description>
<Point>
<coordinates>139.0789794921875,36.23832321166992,0</coordinates>
</Point>
</Placemark>
<Placemark>
<name>離南</name>
<description></description>
<Point>
<coordinates>139.63760375976562,36.23854446411133,0</coordinates>
</Point>
</Placemark>
<Placemark>
<name>旧南保育園前</name>
<description></description>
<Point>
<coordinates>139.46339416503906,36.23857498168945,0</coordinates>
</Point>
</Placemark>
<Placemark>
<name>開拓公民館前</name>
<description></description>
<Point>
<coordinates>139.49102783203125,36.23869323730469,0</coordinates>
</Point>
</Placemark>
<Placemark>
<name>田中</name>
<description></description>
<Point>
<coordinates>139.07943725585938,36.23862838745117,0</coordinates>
</Point>
</Placemark>
<Placemark>
<name>仙石一丁目</name>
<description></description>
<Point>
<coordinates>139.39859008789062,36.23907470703125,0</coordinates>
</Point>
</Placemark>
<Placemark>
<name>JA長柄支所前</name>
<description></description>
<Point>
<coordinates>139.45774841308594,36.239295959472656,0</coordinates>
</Point>
</Placemark>
<Placemark>
<name>緑町北</name>
<description></description>
<Point>
<coordinates>139.5374298095703,36.23933029174805,0</coordinates>
</Point>
</Placemark>
<Placemark>
<name>小林・寿楽寺前</name>
<description></description>
<Point>
<coordinates>139.09010314941406,36.23951721191406,0</coordinates>
</Point>
</Placemark>
<Placemark>
<name>つつじ町</name>
<description></description>
<Point>
<coordinates>139.5478515625,36.23952865600586,0</coordinates>
</Point>
</Placemark>
<Placemark>
<name>近藤町</name>
<description></description>
<Point>
<coordinates>139.49607849121094,36.24010467529297,0</coordinates>
</Point>
</Placemark>
<Placemark>
<name>楠町</name>
<description></description>
<Point>
<coordinates>139.56997680664062,36.240116119384766,0</coordinates>
</Point>
</Placemark>
<Placemark>
<name>水立</name>
<description></description>
<Point>
<coordinates>139.45542907714844,36.240238189697266,0</coordinates>
</Point>
</Placemark>
<Placemark>
<name>小林舞台</name>
<description></description>
<Point>
<coordinates>139.08802795410156,36.24038314819336,0</coordinates>
</Point>
</Placemark>
<Placemark>
<name>警察入口</name>
<description></description>
<Point>
<coordinates>139.07615661621094,36.240386962890625,0</coordinates>
</Point>
</Placemark>
<Placemark>
<name>トヨタカローラ前</name>
<description></description>
<Point>
<coordinates>139.06390380859375,36.240413665771484,0</coordinates>
</Point>
</Placemark>
<Placemark>
<name>松原交番西</name>
<description></description>
<Point>
<coordinates>139.53733825683594,36.240478515625,0</coordinates>
</Point>
</Placemark>
<Placemark>
<name>吉田郵便局前</name>
<description></description>
<Point>
<coordinates>139.40814208984375,36.24052429199219,0</coordinates>
</Point>
</Placemark>
<Placemark>
<name>阿部医院前</name>
<description></description>
<Point>
<coordinates>139.41094970703125,36.24055099487305,0</coordinates>
</Point>
</Placemark>
<Placemark>
<name>仙石四丁目</name>
<description></description>
<Point>
<coordinates>139.3939971923828,36.24061584472656,0</coordinates>
</Point>
</Placemark>
<Placemark>
<name>松原一丁目</name>
<description></description>
<Point>
<coordinates>139.5369110107422,36.24067306518555,0</coordinates>
</Point>
</Placemark>
<Placemark>
<name>つつじが岡パークイン前</name>
<description></description>
<Point>
<coordinates>139.56105041503906,36.240684509277344,0</coordinates>
</Point>
</Placemark>
<Placemark>
<name>諏訪神社前</name>
<description></description>
<Point>
<coordinates>139.0806121826172,36.24072265625,0</coordinates>
</Point>
</Placemark>
<Placemark>
<name>吉田西原</name>
<description></description>
<Point>
<coordinates>139.40689086914062,36.241031646728516,0</coordinates>
</Point>
</Placemark>
<Placemark>
<name>藤生医院前</name>
<description></description>
<Point>
<coordinates>139.0606231689453,36.241085052490234,0</coordinates>
</Point>
</Placemark>
<Placemark>
<name>六郷公民館前</name>
<description></description>
<Point>
<coordinates>139.53053283691406,36.241092681884766,0</coordinates>
</Point>
</Placemark>
<Placemark>
<name>篠塚稲荷神社</name>
<description></description>
<Point>
<coordinates>139.44305419921875,36.24120330810547,0</coordinates>
</Point>
</Placemark>
<Placemark>
<name>嘉登屋前</name>
<description></description>
<Point>
<coordinates>139.41622924804688,36.241600036621094,0</coordinates>
</Point>
</Placemark>
<Placemark>
<name>農協平井支所</name>
<description></description>
<Point>
<coordinates>139.03570556640625,36.24161911010742,0</coordinates>
</Point>
</Placemark>
<Placemark>
<name>本町四丁目</name>
<description></description>
<Point>
<coordinates>139.5342254638672,36.241722106933594,0</coordinates>
</Point>
</Placemark>
<Placemark>
<name>ファミリーブック大泉店前</name>
<description></description>
<Point>
<coordinates>139.403564453125,36.241722106933594,0</coordinates>
</Point>
</Placemark>
<Placemark>
<name>関東学園南</name>
<description></description>
<Point>
<coordinates>139.5007781982422,36.24190139770508,0</coordinates>
</Point>
</Placemark>
<Placemark>
<name>水立西</name>
<description></description>
<Point>
<coordinates>139.4511260986328,36.24192810058594,0</coordinates>
</Point>
</Placemark>
<Placemark>
<name>英霊殿前</name>
<description></description>
<Point>
<coordinates>139.07643127441406,36.2421875,0</coordinates>
</Point>
</Placemark>
<Placemark>
<name>丘山東</name>
<description></description>
<Point>
<coordinates>139.3896484375,36.24248504638672,0</coordinates>
</Point>
</Placemark>
<Placemark>
<name>仙石公民館前</name>
<description></description>
<Point>
<coordinates>139.39956665039062,36.24253845214844,0</coordinates>
</Point>
</Placemark>
<Placemark>
<name>第十小学校西</name>
<description></description>
<Point>
<coordinates>139.5039825439453,36.24258041381836,0</coordinates>
</Point>
</Placemark>
<Placemark>
<name>大戸町</name>
<description></description>
<Point>
<coordinates>139.08078002929688,36.2426643371582,0</coordinates>
</Point>
</Placemark>
<Placemark>
<name>丘山町公民館前</name>
<description></description>
<Point>
<coordinates>139.38658142089844,36.24276351928711,0</coordinates>
</Point>
</Placemark>
<Placemark>
<name>城址緑地入口</name>
<description></description>
<Point>
<coordinates>139.07655334472656,36.24285125732422,0</coordinates>
</Point>
</Placemark>
<Placemark>
<name>成島南歩道橋</name>
<description></description>
<Point>
<coordinates>139.5063018798828,36.2430305480957,0</coordinates>
</Point>
</Placemark>
<Placemark>
<name>孫兵衛橋</name>
<description></description>
<Point>
<coordinates>139.4481201171875,36.2430305480957,0</coordinates>
</Point>
</Placemark>
<Placemark>
<name>天川町</name>
<description></description>
<Point>
<coordinates>139.0837860107422,36.24318313598633,0</coordinates>
</Point>
</Placemark>
<Placemark>
<name>関東学園前</name>
<description></description>
<Point>
<coordinates>139.49961853027344,36.24327850341797,0</coordinates>
</Point>
</Placemark>
<Placemark>
<name>館林高校前</name>
<description></description>
<Point>
<coordinates>139.51246643066406,36.24332046508789,0</coordinates>
</Point>
</Placemark>
<Placemark>
<name>陣屋</name>
<description></description>
<Point>
<coordinates>139.56883239746094,36.243621826171875,0</coordinates>
</Point>
</Placemark>
<Placemark>
<name>藤岡ボウル</name>
<description></description>
<Point>
<coordinates>139.0548858642578,36.243778228759766,0</coordinates>
</Point>
</Placemark>
<Placemark>
<name>藤岡ボウル前</name>
<description></description>
<Point>
<coordinates>139.0548858642578,36.243778228759766,0</coordinates>
</Point>
</Placemark>
<Placemark>
<name>ふれあいセンター吉田入口</name>
<description></description>
<Point>
<coordinates>139.4078826904297,36.243839263916016,0</coordinates>
</Point>
</Placemark>
<Placemark>
<name>上大塚</name>
<description></description>
<Point>
<coordinates>139.05018615722656,36.24388885498047,0</coordinates>
</Point>
</Placemark>
<Placemark>
<name>中央公園</name>
<description></description>
<Point>
<coordinates>139.07681274414062,36.24394989013672,0</coordinates>
</Point>
</Placemark>
<Placemark>
<name>サニータウン館林入口</name>
<description></description>
<Point>
<coordinates>139.51710510253906,36.24403762817383,0</coordinates>
</Point>
</Placemark>
<Placemark>
<name>篠塚南</name>
<description></description>
<Point>
<coordinates>139.4429473876953,36.24413299560547,0</coordinates>
</Point>
</Placemark>
<Placemark>
<name>二丁目</name>
<description></description>
<Point>
<coordinates>139.0809326171875,36.244258880615234,0</coordinates>
</Point>
</Placemark>
<Placemark>
<name>中島集会所前</name>
<description></description>
<Point>
<coordinates>139.44468688964844,36.24436950683594,0</coordinates>
</Point>
</Placemark>
<Placemark>
<name>中大塚</name>
<description></description>
<Point>
<coordinates>139.05975341796875,36.24440383911133,0</coordinates>
</Point>
</Placemark>
<Placemark>
<name>子ども科学館前</name>
<description></description>
<Point>
<coordinates>139.54470825195312,36.244441986083984,0</coordinates>
</Point>
</Placemark>
<Placemark>
<name>本町郵便局前</name>
<description></description>
<Point>
<coordinates>139.53286743164062,36.24448776245117,0</coordinates>
</Point>
</Placemark>
<Placemark>
<name>館林市役所前</name>
<description></description>
<Point>
<coordinates>139.5422821044922,36.24460983276367,0</coordinates>
</Point>
</Placemark>
<Placemark>
<name>町民体育館入口</name>
<description></description>
<Point>
<coordinates>139.39801025390625,36.2449951171875,0</coordinates>
</Point>
</Placemark>
<Placemark>
<name>青少年広場西</name>
<description></description>
<Point>
<coordinates>139.40530395507812,36.24502944946289,0</coordinates>
</Point>
</Placemark>
<Placemark>
<name>市光工業</name>
<description></description>
<Point>
<coordinates>139.06336975097656,36.24522018432617,0</coordinates>
</Point>
</Placemark>
<Placemark>
<name>離長良神社前</name>
<description></description>
<Point>
<coordinates>139.63316345214844,36.245277404785156,0</coordinates>
</Point>
</Placemark>
<Placemark>
<name>仙石二丁目</name>
<description></description>
<Point>
<coordinates>139.40130615234375,36.24537658691406,0</coordinates>
</Point>
</Placemark>
<Placemark>
<name>第二小学校西</name>
<description></description>
<Point>
<coordinates>139.53541564941406,36.245479583740234,0</coordinates>
</Point>
</Placemark>
<Placemark>
<name>白石郵便局前</name>
<description></description>
<Point>
<coordinates>139.0374755859375,36.24551773071289,0</coordinates>
</Point>
</Placemark>
<Placemark>
<name>本町二丁目南</name>
<description></description>
<Point>
<coordinates>139.5321044921875,36.24556350708008,0</coordinates>
</Point>
</Placemark>
<Placemark>
<name>関東学園北</name>
<description></description>
<Point>
<coordinates>139.5017547607422,36.24604034423828,0</coordinates>
</Point>
</Placemark>
<Placemark>
<name>館林駅前</name>
<description></description>
<Point>
<coordinates>139.5286865234375,36.24618148803711,0</coordinates>
</Point>
</Placemark>
<Placemark>
<name>郷谷公民館前</name>
<description></description>
<Point>
<coordinates>139.5596160888672,36.24620056152344,0</coordinates>
</Point>
</Placemark>
<Placemark>
<name>群馬銀行吉田出張所前</name>
<description></description>
<Point>
<coordinates>139.4095916748047,36.24639892578125,0</coordinates>
</Point>
</Placemark>
<Placemark>
<name>緑町</name>
<description></description>
<Point>
<coordinates>139.06747436523438,36.2467155456543,0</coordinates>
</Point>
</Placemark>
<Placemark>
<name>鷹匠町</name>
<description></description>
<Point>
<coordinates>139.07730102539062,36.24671936035156,0</coordinates>
</Point>
</Placemark>
<Placemark>
<name>尾曳町会館前</name>
<description></description>
<Point>
<coordinates>139.5498809814453,36.24674606323242,0</coordinates>
</Point>
</Placemark>
<Placemark>
<name>尾曳町郵便局前</name>
<description></description>
<Point>
<coordinates>139.5441436767578,36.24699020385742,0</coordinates>
</Point>
</Placemark>
<Placemark>
<name>五丁目</name>
<description></description>
<Point>
<coordinates>139.08030700683594,36.247169494628906,0</coordinates>
</Point>
</Placemark>
<Placemark>
<name>ミモザ荘前</name>
<description></description>
<Point>
<coordinates>139.6251678466797,36.247230529785156,0</coordinates>
</Point>
</Placemark>
<Placemark>
<name>大志辺</name>
<description></description>
<Point>
<coordinates>139.49147033691406,36.247344970703125,0</coordinates>
</Point>
</Placemark>
<Placemark>
<name>みよし第二幼稚園前</name>
<description></description>
<Point>
<coordinates>139.38656616210938,36.24739074707031,0</coordinates>
</Point>
</Placemark>
<Placemark>
<name>六丁目</name>
<description></description>
<Point>
<coordinates>139.07847595214844,36.24741744995117,0</coordinates>
</Point>
</Placemark>
<Placemark>
<name>群馬銀行・東和銀行前</name>
<description></description>
<Point>
<coordinates>139.0812530517578,36.24741744995117,0</coordinates>
</Point>
</Placemark>
<Placemark>
<name>本町二丁目北</name>
<description></description>
<Point>
<coordinates>139.5336456298828,36.24745559692383,0</coordinates>
</Point>
</Placemark>
<Placemark>
<name>フレッセイ大泉店東</name>
<description></description>
<Point>
<coordinates>139.41685485839844,36.247474670410156,0</coordinates>
</Point>
</Placemark>
<Placemark>
<name>大手町</name>
<description></description>
<Point>
<coordinates>139.53807067871094,36.24750518798828,0</coordinates>
</Point>
</Placemark>
<Placemark>
<name>駅西口</name>
<description></description>
<Point>
<coordinates>139.52687072753906,36.24762725830078,0</coordinates>
</Point>
</Placemark>
<Placemark>
<name>大泉町役場前</name>
<description></description>
<Point>
<coordinates>139.40399169921875,36.247779846191406,0</coordinates>
</Point>
</Placemark>
<Placemark>
<name>古桜町</name>
<description></description>
<Point>
<coordinates>139.075927734375,36.247802734375,0</coordinates>
</Point>
</Placemark>
<Placemark>
<name>東毛光生園前</name>
<description></description>
<Point>
<coordinates>139.49920654296875,36.24782180786133,0</coordinates>
</Point>
</Placemark>
<Placemark>
<name>つたや前</name>
<description></description>
<Point>
<coordinates>139.07064819335938,36.24788284301758,0</coordinates>
</Point>
</Placemark>
<Placemark>
<name>一行寺</name>
<description></description>
<Point>
<coordinates>139.0742950439453,36.24799346923828,0</coordinates>
</Point>
</Placemark>
<Placemark>
<name>細谷集会所前</name>
<description></description>
<Point>
<coordinates>139.6208953857422,36.2480354309082,0</coordinates>
</Point>
</Placemark>
<Placemark>
<name>第三小学校前</name>
<description></description>
<Point>
<coordinates>139.5447540283203,36.248146057128906,0</coordinates>
</Point>
</Placemark>
<Placemark>
<name>緑町東</name>
<description></description>
<Point>
<coordinates>139.072509765625,36.24818801879883,0</coordinates>
</Point>
</Placemark>
<Placemark>
<name>群馬藤岡駅</name>
<description></description>
<Point>
<coordinates>139.08303833007812,36.250003814697266,0</coordinates>
</Point>
</Placemark>
<Placemark>
<name>労働金庫前</name>
<description></description>
<Point>
<coordinates>139.07766723632812,36.25019073486328,0</coordinates>
</Point>
</Placemark>
<Placemark>
<name>仲町</name>
<description></description>
<Point>
<coordinates>139.07948303222656,36.2503547668457,0</coordinates>
</Point>
</Placemark>
<Placemark>
<name>細谷中妻</name>
<description></description>
<Point>
<coordinates>139.61895751953125,36.25044250488281,0</coordinates>
</Point>
</Placemark>
<Placemark>
<name>浅間北</name>
<description></description>
<Point>
<coordinates>139.07272338867188,36.250484466552734,0</coordinates>
</Point>
</Placemark>
<Placemark>
<name>寄木戸南公民館</name>
<description></description>
<Point>
<coordinates>139.3890380859375,36.25049591064453,0</coordinates>
</Point>
</Placemark>
<Placemark>
<name>文化むら西</name>
<description></description>
<Point>
<coordinates>139.41726684570312,36.250648498535156,0</coordinates>
</Point>
</Placemark>
<Placemark>
<name>蜂谷病院前</name>
<description></description>
<Point>
<coordinates>139.4203643798828,36.25082015991211,0</coordinates>
</Point>
</Placemark>
<Placemark>
<name>第二中学校西</name>
<description></description>
<Point>
<coordinates>139.5488739013672,36.251014709472656,0</coordinates>
</Point>
</Placemark>
<Placemark>
<name>西本町</name>
<description></description>
<Point>
<coordinates>139.530517578125,36.251773834228516,0</coordinates>
</Point>
</Placemark>
<Placemark>
<name>邑楽町役場</name>
<description></description>
<Point>
<coordinates>139.45921325683594,36.2518196105957,0</coordinates>
</Point>
</Placemark>
<Placemark>
<name>イトーヨーカドー</name>
<description></description>
<Point>
<coordinates>139.0821990966797,36.251956939697266,0</coordinates>
</Point>
</Placemark>
<Placemark>
<name>老人ホーム前</name>
<description></description>
<Point>
<coordinates>139.49835205078125,36.25201416015625,0</coordinates>
</Point>
</Placemark>
<Placemark>
<name>西邑楽高校西</name>
<description></description>
<Point>
<coordinates>139.427490234375,36.25230407714844,0</coordinates>
</Point>
</Placemark>
<Placemark>
<name>いずみの杜</name>
<description></description>
<Point>
<coordinates>139.42372131347656,36.2523193359375,0</coordinates>
</Point>
</Placemark>
<Placemark>
<name>市民プール</name>
<description></description>
<Point>
<coordinates>139.06874084472656,36.252410888671875,0</coordinates>
</Point>
</Placemark>
<Placemark>
<name>第二小前</name>
<description></description>
<Point>
<coordinates>139.07284545898438,36.252830505371094,0</coordinates>
</Point>
</Placemark>
<Placemark>
<name>大街道一丁目</name>
<description></description>
<Point>
<coordinates>139.52833557128906,36.253013610839844,0</coordinates>
</Point>
</Placemark>
<Placemark>
<name>第一小学校東</name>
<description></description>
<Point>
<coordinates>139.53536987304688,36.253292083740234,0</coordinates>
</Point>
</Placemark>
<Placemark>
<name>湯沢医院南</name>
<description></description>
<Point>
<coordinates>139.4102783203125,36.253299713134766,0</coordinates>
</Point>
</Placemark>
<Placemark>
<name>若宮住宅東</name>
<description></description>
<Point>
<coordinates>139.55215454101562,36.253318786621094,0</coordinates>
</Point>
</Placemark>
<Placemark>
<name>GHARD病院前</name>
<description></description>
<Point>
<coordinates>139.43338012695312,36.255165100097656,0</coordinates>
</Point>
</Placemark>
<Placemark>
<name>松沼町</name>
<description></description>
<Point>
<coordinates>139.5020751953125,36.25419235229492,0</coordinates>
</Point>
</Placemark>
<Placemark>
<name>ふれあいセンター寄木戸</name>
<description></description>
<Point>
<coordinates>139.3922882080078,36.25445556640625,0</coordinates>
</Point>
</Placemark>
<Placemark>
<name>大街道会館前</name>
<description></description>
<Point>
<coordinates>139.52499389648438,36.25448989868164,0</coordinates>
</Point>
</Placemark>
<Placemark>
<name>東和銀行北</name>
<description></description>
<Point>
<coordinates>139.4678497314453,36.25464630126953,0</coordinates>
</Point>
</Placemark>
<Placemark>
<name>太陽の家入口</name>
<description></description>
<Point>
<coordinates>139.38873291015625,36.254669189453125,0</coordinates>
</Point>
</Placemark>
<Placemark>
<name>観音入口</name>
<description></description>
<Point>
<coordinates>139.6013641357422,36.254764556884766,0</coordinates>
</Point>
</Placemark>
<Placemark>
<name>寄木戸西原</name>
<description></description>
<Point>
<coordinates>139.38534545898438,36.254825592041016,0</coordinates>
</Point>
</Placemark>
<Placemark>
<name>第一小学校西</name>
<description></description>
<Point>
<coordinates>139.53102111816406,36.254852294921875,0</coordinates>
</Point>
</Placemark>
<Placemark>
<name>北の原</name>
<description></description>
<Point>
<coordinates>139.07701110839844,36.25510025024414,0</coordinates>
</Point>
</Placemark>
<Placemark>
<name>相生北</name>
<description></description>
<Point>
<coordinates>139.0845947265625,36.255340576171875,0</coordinates>
</Point>
</Placemark>
<Placemark>
<name>宮本町北</name>
<description></description>
<Point>
<coordinates>139.07142639160156,36.254146575927734,0</coordinates>
</Point>
</Placemark>
<Placemark>
<name>大街道二丁目</name>
<description></description>
<Point>
<coordinates>139.52210998535156,36.25570297241211,0</coordinates>
</Point>
</Placemark>
<Placemark>
<name>偕同苑入口</name>
<description></description>
<Point>
<coordinates>139.08042907714844,36.25571060180664,0</coordinates>
</Point>
</Placemark>
<Placemark>
<name>交通安全センター西</name>
<description></description>
<Point>
<coordinates>139.42987060546875,36.25577163696289,0</coordinates>
</Point>
</Placemark>
<Placemark>
<name>新中野南</name>
<description></description>
<Point>
<coordinates>139.47120666503906,36.255775451660156,0</coordinates>
</Point>
</Placemark>
<Placemark>
<name>新中野</name>
<description></description>
<Point>
<coordinates>139.47027587890625,36.25621032714844,0</coordinates>
</Point>
</Placemark>
<Placemark>
<name>緑ヶ丘公園前</name>
<description></description>
<Point>
<coordinates>139.47637939453125,36.25623321533203,0</coordinates>
</Point>
</Placemark>
<Placemark>
<name>三ツ木公会堂前</name>
<description></description>
<Point>
<coordinates>139.02708435058594,36.256317138671875,0</coordinates>
</Point>
</Placemark>
<Placemark>
<name>坂下町東</name>
<description></description>
<Point>
<coordinates>139.53616333007812,36.2566032409668,0</coordinates>
</Point>
</Placemark>
<Placemark>
<name>東部工業団地東</name>
<description></description>
<Point>
<coordinates>139.6057586669922,36.25674057006836,0</coordinates>
</Point>
</Placemark>
<Placemark>
<name>大泉郵便局東</name>
<description></description>
<Point>
<coordinates>139.41983032226562,36.25706100463867,0</coordinates>
</Point>
</Placemark>
<Placemark>
<name>新中野西</name>
<description></description>
<Point>
<coordinates>139.4680633544922,36.25709915161133,0</coordinates>
</Point>
</Placemark>
<Placemark>
<name>鶉新田集会所前</name>
<description></description>
<Point>
<coordinates>139.48609924316406,36.25730895996094,0</coordinates>
</Point>
</Placemark>
<Placemark>
<name>県立がんセンター</name>
<description></description>
<Point>
<coordinates>139.36392211914062,36.257320404052734,0</coordinates>
</Point>
</Placemark>
<Placemark>
<name>カスミ大泉店前</name>
<description></description>
<Point>
<coordinates>139.42332458496094,36.257415771484375,0</coordinates>
</Point>
</Placemark>
<Placemark>
<name>高根跨線橋下</name>
<description></description>
<Point>
<coordinates>139.51878356933594,36.257442474365234,0</coordinates>
</Point>
</Placemark>
<Placemark>
<name>明野</name>
<description></description>
<Point>
<coordinates>139.477294921875,36.257606506347656,0</coordinates>
</Point>
</Placemark>
<Placemark>
<name>西小泉商店街</name>
<description></description>
<Point>
<coordinates>139.40985107421875,36.25727081298828,0</coordinates>
</Point>
</Placemark>
<Placemark>
<name>東和銀行大泉支店北</name>
<description></description>
<Point>
<coordinates>139.41261291503906,36.25769805908203,0</coordinates>
</Point>
</Placemark>
<Placemark>
<name>第一中学校北</name>
<description></description>
<Point>
<coordinates>139.53248596191406,36.258155822753906,0</coordinates>
</Point>
</Placemark>
<Placemark>
<name>寄木戸北公民館前</name>
<description></description>
<Point>
<coordinates>139.3875732421875,36.25825500488281,0</coordinates>
</Point>
</Placemark>
<Placemark>
<name>真下医院入口</name>
<description></description>
<Point>
<coordinates>139.41812133789062,36.25827407836914,0</coordinates>
</Point>
</Placemark>
<Placemark>
<name>藤岡市役所</name>
<description></description>
<Point>
<coordinates>139.07550048828125,36.258426666259766,0</coordinates>
</Point>
</Placemark>
<Placemark>
<name>尾島温泉利根の湯</name>
<description></description>
<Point>
<coordinates>139.3434600830078,36.258445739746094,0</coordinates>
</Point>
</Placemark>
<Placemark>
<name>細内町</name>
<description></description>
<Point>
<coordinates>139.5591583251953,36.25853729248047,0</coordinates>
</Point>
</Placemark>
<Placemark>
<name>三菱電機前</name>
<description></description>
<Point>
<coordinates>139.33029174804688,36.258541107177734,0</coordinates>
</Point>
</Placemark>
<Placemark>
<name>クローバー荘東</name>
<description></description>
<Point>
<coordinates>139.57919311523438,36.258575439453125,0</coordinates>
</Point>
</Placemark>
<Placemark>
<name>広内町</name>
<description></description>
<Point>
<coordinates>139.53756713867188,36.258602142333984,0</coordinates>
</Point>
</Placemark>
<Placemark>
<name>尾島一丁目</name>
<description></description>
<Point>
<coordinates>139.3270263671875,36.258689880371094,0</coordinates>
</Point>
</Placemark>
<Placemark>
<name>尾島三丁目</name>
<description></description>
<Point>
<coordinates>139.32212829589844,36.25872802734375,0</coordinates>
</Point>
</Placemark>
<Placemark>
<name>尾島上町</name>
<description></description>
<Point>
<coordinates>139.31956481933594,36.258766174316406,0</coordinates>
</Point>
</Placemark>
<Placemark>
<name>東小泉駅</name>
<description></description>
<Point>
<coordinates>139.4291534423828,36.2588996887207,0</coordinates>
</Point>
</Placemark>
<Placemark>
<name>多々良中学校入口</name>
<description></description>
<Point>
<coordinates>139.51014709472656,36.25890350341797,0</coordinates>
</Point>
</Placemark>
<Placemark>
<name>備前島入口</name>
<description></description>
<Point>
<coordinates>139.338623046875,36.25923156738281,0</coordinates>
</Point>
</Placemark>
<Placemark>
<name>落合上</name>
<description></description>
<Point>
<coordinates>139.0331268310547,36.25923538208008,0</coordinates>
</Point>
</Placemark>
<Placemark>
<name>合同庁舎入口</name>
<description></description>
<Point>
<coordinates>139.08901977539062,36.259273529052734,0</coordinates>
</Point>
</Placemark>
<Placemark>
<name>粕川住宅入口</name>
<description></description>
<Point>
<coordinates>139.3110809326172,36.259456634521484,0</coordinates>
</Point>
</Placemark>
<Placemark>
<name>西高根町南</name>
<description></description>
<Point>
<coordinates>139.51657104492188,36.2596435546875,0</coordinates>
</Point>
</Placemark>
<Placemark>
<name>坂田長良神社北</name>
<description></description>
<Point>
<coordinates>139.4011993408203,36.259769439697266,0</coordinates>
</Point>
</Placemark>
<Placemark>
<name>末広町北</name>
<description></description>
<Point>
<coordinates>139.3790283203125,36.25980758666992,0</coordinates>
</Point>
</Placemark>
<Placemark>
<name>県立がんセンター入口</name>
<description></description>
<Point>
<coordinates>139.36688232421875,36.26026916503906,0</coordinates>
</Point>
</Placemark>
<Placemark>
<name>尾島歴史公園</name>
<description></description>
<Point>
<coordinates>139.27442932128906,36.2603759765625,0</coordinates>
</Point>
</Placemark>
<Placemark>
<name>老人センター入口</name>
<description></description>
<Point>
<coordinates>139.4070281982422,36.26040267944336,0</coordinates>
</Point>
</Placemark>
<Placemark>
<name>県営住宅前</name>
<description></description>
<Point>
<coordinates>139.56475830078125,36.26047897338867,0</coordinates>
</Point>
</Placemark>
<Placemark>
<name>下栗須宮本</name>
<description></description>
<Point>
<coordinates>139.0850067138672,36.26049041748047,0</coordinates>
</Point>
</Placemark>
<Placemark>
<name>高林南町</name>
<description></description>
<Point>
<coordinates>139.37054443359375,36.26051330566406,0</coordinates>
</Point>
</Placemark>
<Placemark>
<name>西児童館北</name>
<description></description>
<Point>
<coordinates>139.39776611328125,36.26062774658203,0</coordinates>
</Point>
</Placemark>
<Placemark>
<name>富沢団地南</name>
<description></description>
<Point>
<coordinates>139.35086059570312,36.260643005371094,0</coordinates>
</Point>
</Placemark>
<Placemark>
<name>西谷田郵便局前</name>
<description></description>
<Point>
<coordinates>139.62179565429688,36.26067352294922,0</coordinates>
</Point>
</Placemark>
<Placemark>
<name>岡野町東</name>
<description></description>
<Point>
<coordinates>139.53201293945312,36.260807037353516,0</coordinates>
</Point>
</Placemark>
<Placemark>
<name>小泉町駅西</name>
<description></description>
<Point>
<coordinates>139.41822814941406,36.26081466674805,0</coordinates>
</Point>
</Placemark>
<Placemark>
<name>南中前</name>
<description></description>
<Point>
<coordinates>139.3636474609375,36.26089859008789,0</coordinates>
</Point>
</Placemark>
<Placemark>
<name>牛沢十字路</name>
<description></description>
<Point>
<coordinates>139.35678100585938,36.260902404785156,0</coordinates>
</Point>
</Placemark>
<Placemark>
<name>フィール</name>
<description></description>
<Point>
<coordinates>139.0706787109375,36.26093673706055,0</coordinates>
</Point>
</Placemark>
<Placemark>
<name>東部工業団地西</name>
<description></description>
<Point>
<coordinates>139.6005096435547,36.260982513427734,0</coordinates>
</Point>
</Placemark>
<Placemark>
<name>農協神流支所</name>
<description></description>
<Point>
<coordinates>139.09263610839844,36.261016845703125,0</coordinates>
</Point>
</Placemark>
<Placemark>
<name>岡野集落センター前</name>
<description></description>
<Point>
<coordinates>139.5269012451172,36.26106643676758,0</coordinates>
</Point>
</Placemark>
<Placemark>
<name>落合</name>
<description></description>
<Point>
<coordinates>139.03530883789062,36.2611083984375,0</coordinates>
</Point>
</Placemark>
<Placemark>
<name>蛭沼</name>
<description></description>
<Point>
<coordinates>139.45066833496094,36.26111602783203,0</coordinates>
</Point>
</Placemark>
<Placemark>
<name>西岡新田新田前</name>
<description></description>
<Point>
<coordinates>139.60763549804688,36.26113510131836,0</coordinates>
</Point>
</Placemark>
<Placemark>
<name>第1浄水場前</name>
<description></description>
<Point>
<coordinates>139.61807250976562,36.261199951171875,0</coordinates>
</Point>
</Placemark>
<Placemark>
<name>西高根町</name>
<description></description>
<Point>
<coordinates>139.5138702392578,36.261444091796875,0</coordinates>
</Point>
</Placemark>
<Placemark>
<name>西丘神社入口</name>
<description></description>
<Point>
<coordinates>139.61441040039062,36.26148223876953,0</coordinates>
</Point>
</Placemark>
<Placemark>
<name>みづほクリニック前</name>
<description></description>
<Point>
<coordinates>139.40829467773438,36.261531829833984,0</coordinates>
</Point>
</Placemark>
<Placemark>
<name>北中学校前</name>
<description></description>
<Point>
<coordinates>139.41217041015625,36.261531829833984,0</coordinates>
</Point>
</Placemark>
<Placemark>
<name>渡瀬歩道橋</name>
<description></description>
<Point>
<coordinates>139.5404510498047,36.26155090332031,0</coordinates>
</Point>
</Placemark>
<Placemark>
<name>風の子保育園西</name>
<description></description>
<Point>
<coordinates>139.454345703125,36.26158905029297,0</coordinates>
</Point>
</Placemark>
<Placemark>
<name>正儀内東</name>
<description></description>
<Point>
<coordinates>139.56983947753906,36.261680603027344,0</coordinates>
</Point>
</Placemark>
<Placemark>
<name>JA中野支所前</name>
<description></description>
<Point>
<coordinates>139.4683074951172,36.261756896972656,0</coordinates>
</Point>
</Placemark>
<Placemark>
<name>尾島庁舎前</name>
<description></description>
<Point>
<coordinates>139.3008575439453,36.26198196411133,0</coordinates>
</Point>
</Placemark>
<Placemark>
<name>下中野</name>
<description></description>
<Point>
<coordinates>139.4792022705078,36.262020111083984,0</coordinates>
</Point>
</Placemark>
<Placemark>
<name>堀江病院前</name>
<description></description>
<Point>
<coordinates>139.3759002685547,36.262142181396484,0</coordinates>
</Point>
</Placemark>
<Placemark>
<name>ヴィレージュ前</name>
<description></description>
<Point>
<coordinates>139.52137756347656,36.262203216552734,0</coordinates>
</Point>
</Placemark>
<Placemark>
<name>コープ中野店・カムル</name>
<description></description>
<Point>
<coordinates>139.47438049316406,36.26224136352539,0</coordinates>
</Point>
</Placemark>
<Placemark>
<name>南矢島町</name>
<description></description>
<Point>
<coordinates>139.38197326660156,36.26234436035156,0</coordinates>
</Point>
</Placemark>
<Placemark>
<name>邸前</name>
<description></description>
<Point>
<coordinates>139.0782012939453,36.26239776611328,0</coordinates>
</Point>
</Placemark>
<Placemark>
<name>西保育園西</name>
<description></description>
<Point>
<coordinates>139.39013671875,36.26243209838867,0</coordinates>
</Point>
</Placemark>
<Placemark>
<name>出塚新田西</name>
<description></description>
<Point>
<coordinates>139.29116821289062,36.26258850097656,0</coordinates>
</Point>
</Placemark>
<Placemark>
<name>七輿山古墳入口</name>
<description></description>
<Point>
<coordinates>139.04058837890625,36.26285934448242,0</coordinates>
</Point>
</Placemark>
<Placemark>
<name>天王元宿</name>
<description></description>
<Point>
<coordinates>139.4639892578125,36.26288986206055,0</coordinates>
</Point>
</Placemark>
<Placemark>
<name>岡里区民館入口</name>
<description></description>
<Point>
<coordinates>139.59622192382812,36.26299285888672,0</coordinates>
</Point>
</Placemark>
<Placemark>
<name>台薬師前</name>
<description></description>
<Point>
<coordinates>139.0599365234375,36.26300811767578,0</coordinates>
</Point>
</Placemark>
<Placemark>
<name>黛医院前</name>
<description></description>
<Point>
<coordinates>139.40296936035156,36.26303482055664,0</coordinates>
</Point>
</Placemark>
<Placemark>
<name>十三坊塚</name>
<description></description>
<Point>
<coordinates>139.45989990234375,36.26310729980469,0</coordinates>
</Point>
</Placemark>
<Placemark>
<name>県緑化センター南</name>
<description></description>
<Point>
<coordinates>139.4877471923828,36.26317596435547,0</coordinates>
</Point>
</Placemark>
<Placemark>
<name>六軒町</name>
<description></description>
<Point>
<coordinates>139.043701171875,36.26322937011719,0</coordinates>
</Point>
</Placemark>
<Placemark>
<name>大島神社入口</name>
<description></description>
<Point>
<coordinates>139.59092712402344,36.26329803466797,0</coordinates>
</Point>
</Placemark>
<Placemark>
<name>今井</name>
<description></description>
<Point>
<coordinates>139.27078247070312,36.263450622558594,0</coordinates>
</Point>
</Placemark>
<Placemark>
<name>ベイシア大泉店前</name>
<description></description>
<Point>
<coordinates>139.4073486328125,36.263484954833984,0</coordinates>
</Point>
</Placemark>
<Placemark>
<name>足次町会館前</name>
<description></description>
<Point>
<coordinates>139.5346221923828,36.26351547241211,0</coordinates>
</Point>
</Placemark>
<Placemark>
<name>萩の宮団地入口</name>
<description></description>
<Point>
<coordinates>139.0567626953125,36.263545989990234,0</coordinates>
</Point>
</Placemark>
<Placemark>
<name>世良田下町</name>
<description></description>
<Point>
<coordinates>139.2843475341797,36.26374053955078,0</coordinates>
</Point>
</Placemark>
<Placemark>
<name>JA大島支所前</name>
<description></description>
<Point>
<coordinates>139.581298828125,36.26386642456055,0</coordinates>
</Point>
</Placemark>
<Placemark>
<name>成就院西</name>
<description></description>
<Point>
<coordinates>139.41285705566406,36.26423645019531,0</coordinates>
</Point>
</Placemark>
<Placemark>
<name>設楽商店前</name>
<description></description>
<Point>
<coordinates>139.06625366210938,36.264404296875,0</coordinates>
</Point>
</Placemark>
<Placemark>
<name>岡之郷</name>
<description></description>
<Point>
<coordinates>139.09788513183594,36.26444625854492,0</coordinates>
</Point>
</Placemark>
<Placemark>
<name>榎木下</name>
<description></description>
<Point>
<coordinates>139.41847229003906,36.26466369628906,0</coordinates>
</Point>
</Placemark>
<Placemark>
<name>柳町</name>
<description></description>
<Point>
<coordinates>139.4091033935547,36.264678955078125,0</coordinates>
</Point>
</Placemark>
<Placemark>
<name>世良田交差点東</name>
<description></description>
<Point>
<coordinates>139.28053283691406,36.26470184326172,0</coordinates>
</Point>
</Placemark>
<Placemark>
<name>県立館林美術館入口</name>
<description></description>
<Point>
<coordinates>139.512451171875,36.264732360839844,0</coordinates>
</Point>
</Placemark>
<Placemark>
<name>高根町南</name>
<description></description>
<Point>
<coordinates>139.5191192626953,36.264888763427734,0</coordinates>
</Point>
</Placemark>
<Placemark>
<name>県立館林美術館前</name>
<description></description>
<Point>
<coordinates>139.50546264648438,36.264915466308594,0</coordinates>
</Point>
</Placemark>
<Placemark>
<name>山田電機前</name>
<description></description>
<Point>
<coordinates>139.05088806152344,36.26502990722656,0</coordinates>
</Point>
</Placemark>
<Placemark>
<name>中栗須</name>
<description></description>
<Point>
<coordinates>139.0763397216797,36.26519012451172,0</coordinates>
</Point>
</Placemark>
<Placemark>
<name>高根町</name>
<description></description>
<Point>
<coordinates>139.51531982421875,36.26539993286133,0</coordinates>
</Point>
</Placemark>
<Placemark>
<name>いずみ</name>
<description></description>
<Point>
<coordinates>139.4047088623047,36.26548385620117,0</coordinates>
</Point>
</Placemark>
<Placemark>
<name>栗須の郷</name>
<description></description>
<Point>
<coordinates>139.07940673828125,36.26577377319336,0</coordinates>
</Point>
</Placemark>
<Placemark>
<name>高根区民会館前</name>
<description></description>
<Point>
<coordinates>139.51707458496094,36.266021728515625,0</coordinates>
</Point>
</Placemark>
<Placemark>
<name>世良田上町</name>
<description></description>
<Point>
<coordinates>139.27471923828125,36.26631546020508,0</coordinates>
</Point>
</Placemark>
<Placemark>
<name>下郷</name>
<description></description>
<Point>
<coordinates>139.10023498535156,36.26633071899414,0</coordinates>
</Point>
</Placemark>
<Placemark>
<name>坂東橋北詰</name>
<description></description>
<Point>
<coordinates>139.19424438476562,36.26658248901367,0</coordinates>
</Point>
</Placemark>
<Placemark>
<name>三浦医院前</name>
<description></description>
<Point>
<coordinates>139.41845703125,36.266597747802734,0</coordinates>
</Point>
</Placemark>
<Placemark>
<name>団地入口</name>
<description></description>
<Point>
<coordinates>139.1033935546875,36.267295837402344,0</coordinates>
</Point>
</Placemark>
<Placemark>
<name>西原</name>
<description></description>
<Point>
<coordinates>139.4152069091797,36.267574310302734,0</coordinates>
</Point>
</Placemark>
<Placemark>
<name>公立病院外来センター</name>
<description></description>
<Point>
<coordinates>139.0776824951172,36.26783752441406,0</coordinates>
</Point>
</Placemark>
<Placemark>
<name>つつじ野団地</name>
<description></description>
<Point>
<coordinates>139.5138702392578,36.26835250854492,0</coordinates>
</Point>
</Placemark>
<Placemark>
<name>鶉</name>
<description></description>
<Point>
<coordinates>139.48863220214844,36.268638610839844,0</coordinates>
</Point>
</Placemark>
<Placemark>
<name>新町第十区市営住宅入口</name>
<description></description>
<Point>
<coordinates>139.10540771484375,36.26996612548828,0</coordinates>
</Point>
</Placemark>
<Placemark>
<name>福祉センター</name>
<description></description>
<Point>
<coordinates>139.44900512695312,36.27008056640625,0</coordinates>
</Point>
</Placemark>
<Placemark>
<name>いかつち</name>
<description></description>
<Point>
<coordinates>139.48336791992188,36.270084381103516,0</coordinates>
</Point>
</Placemark>
<Placemark>
<name>つつじ野団地東</name>
<description></description>
<Point>
<coordinates>139.5170440673828,36.270225524902344,0</coordinates>
</Point>
</Placemark>
<Placemark>
<name>八斗島南</name>
<description></description>
<Point>
<coordinates>139.19296264648438,36.271305084228516,0</coordinates>
</Point>
</Placemark>
<Placemark>
<name>下早川田町西</name>
<description></description>
<Point>
<coordinates>139.5474090576172,36.27149963378906,0</coordinates>
</Point>
</Placemark>
<Placemark>
<name>石打北</name>
<description></description>
<Point>
<coordinates>139.4427032470703,36.27241897583008,0</coordinates>
</Point>
</Placemark>
<Placemark>
<name>高島小学校入口</name>
<description></description>
<Point>
<coordinates>139.4551239013672,36.27306365966797,0</coordinates>
</Point>
</Placemark>
<Placemark>
<name>藤岡中央高校入口</name>
<description></description>
<Point>
<coordinates>139.07894897460938,36.26800537109375,0</coordinates>
</Point>
</Placemark>
<Placemark>
<name>ららん藤岡</name>
<description></description>
<Point>
<coordinates>139.0738983154297,36.27323913574219,0</coordinates>
</Point>
</Placemark>
<Placemark>
<name>神明宮</name>
<description></description>
<Point>
<coordinates>139.5423583984375,36.273738861083984,0</coordinates>
</Point>
</Placemark>
<Placemark>
<name>運動公園野球場前</name>
<description></description>
<Point>
<coordinates>139.39187622070312,36.274269104003906,0</coordinates>
</Point>
</Placemark>
<Placemark>
<name>八斗島</name>
<description></description>
<Point>
<coordinates>139.1903533935547,36.27444076538086,0</coordinates>
</Point>
</Placemark>
<Placemark>
<name>バスターミナルおおた</name>
<description></description>
<Point>
<coordinates>139.3811798095703,36.274688720703125,0</coordinates>
</Point>
</Placemark>
<Placemark>
<name>BUSターミナルおおた</name>
<description></description>
<Point>
<coordinates>139.3811798095703,36.274688720703125,0</coordinates>
</Point>
</Placemark>
<Placemark>
<name>蓮葉院東</name>
<description></description>
<Point>
<coordinates>139.53607177734375,36.275054931640625,0</coordinates>
</Point>
</Placemark>
<Placemark>
<name>石打砂田</name>
<description></description>
<Point>
<coordinates>139.4380645751953,36.27541732788086,0</coordinates>
</Point>
</Placemark>
<Placemark>
<name>木戸町</name>
<description></description>
<Point>
<coordinates>139.51681518554688,36.27568054199219,0</coordinates>
</Point>
</Placemark>
<Placemark>
<name>森郵便局前</name>
<description></description>
<Point>
<coordinates>139.0765380859375,36.27659225463867,0</coordinates>
</Point>
</Placemark>
<Placemark>
<name>上武大入口</name>
<description></description>
<Point>
<coordinates>139.18809509277344,36.27710723876953,0</coordinates>
</Point>
</Placemark>
<Placemark>
<name>上早川田町</name>
<description></description>
<Point>
<coordinates>139.53262329101562,36.277408599853516,0</coordinates>
</Point>
</Placemark>
<Placemark>
<name>消防団第九分団前</name>
<description></description>
<Point>
<coordinates>139.51708984375,36.27798843383789,0</coordinates>
</Point>
</Placemark>
<Placemark>
<name>市民プラザ北</name>
<description></description>
<Point>
<coordinates>139.1908721923828,36.27799987792969,0</coordinates>
</Point>
</Placemark>
<Placemark>
<name>傍示塚公民館前</name>
<description></description>
<Point>
<coordinates>139.52951049804688,36.278865814208984,0</coordinates>
</Point>
</Placemark>
<Placemark>
<name>鐘紡前</name>
<description></description>
<Point>
<coordinates>139.10214233398438,36.279022216796875,0</coordinates>
</Point>
</Placemark>
<Placemark>
<name>坂東小入口</name>
<description></description>
<Point>
<coordinates>139.1913299560547,36.27986526489258,0</coordinates>
</Point>
</Placemark>
<Placemark>
<name>休泊公民館前</name>
<description></description>
<Point>
<coordinates>139.41455078125,36.28007888793945,0</coordinates>
</Point>
</Placemark>
<Placemark>
<name>城山病院前</name>
<description></description>
<Point>
<coordinates>139.37977600097656,36.28028869628906,0</coordinates>
</Point>
</Placemark>
<Placemark>
<name>森公会堂前</name>
<description></description>
<Point>
<coordinates>139.07810974121094,36.28097915649414,0</coordinates>
</Point>
</Placemark>
<Placemark>
<name>有坂医院前</name>
<description></description>
<Point>
<coordinates>139.4110107421875,36.2811279296875,0</coordinates>
</Point>
</Placemark>
<Placemark>
<name>五料（南）</name>
<description></description>
<Point>
<coordinates>139.158935546875,36.281585693359375,0</coordinates>
</Point>
</Placemark>
<Placemark>
<name>秋妻</name>
<description></description>
<Point>
<coordinates>139.4597930908203,36.28172302246094,0</coordinates>
</Point>
</Placemark>
<Placemark>
<name>除ヶ公園</name>
<description></description>
<Point>
<coordinates>139.19155883789062,36.281734466552734,0</coordinates>
</Point>
</Placemark>
<Placemark>
<name>砂原</name>
<description></description>
<Point>
<coordinates>139.09568786621094,36.28199768066406,0</coordinates>
</Point>
</Placemark>
<Placemark>
<name>渋沼</name>
<description></description>
<Point>
<coordinates>139.43515014648438,36.28247833251953,0</coordinates>
</Point>
</Placemark>
<Placemark>
<name>北藤岡駅前</name>
<description></description>
<Point>
<coordinates>139.08033752441406,36.28252029418945,0</coordinates>
</Point>
</Placemark>
<Placemark>
<name>北藤岡駅</name>
<description></description>
<Point>
<coordinates>139.08033752441406,36.28252029418945,0</coordinates>
</Point>
</Placemark>
<Placemark>
<name>飯倉公民館前</name>
<description></description>
<Point>
<coordinates>139.15371704101562,36.282955169677734,0</coordinates>
</Point>
</Placemark>
<Placemark>
<name>一本木北</name>
<description></description>
<Point>
<coordinates>139.44898986816406,36.28299331665039,0</coordinates>
</Point>
</Placemark>
<Placemark>
<name>三菱鉛筆前</name>
<description></description>
<Point>
<coordinates>139.09178161621094,36.284000396728516,0</coordinates>
</Point>
</Placemark>
<Placemark>
<name>五料公民館前</name>
<description></description>
<Point>
<coordinates>139.16091918945312,36.28424835205078,0</coordinates>
</Point>
</Placemark>
<Placemark>
<name>川井公民館前</name>
<description></description>
<Point>
<coordinates>139.1480712890625,36.28425598144531,0</coordinates>
</Point>
</Placemark>
<Placemark>
<name>群馬銀行太田支店前</name>
<description></description>
<Point>
<coordinates>139.3798370361328,36.285091400146484,0</coordinates>
</Point>
</Placemark>
<Placemark>
<name>東京福祉大学前</name>
<description></description>
<Point>
<coordinates>139.19187927246094,36.28559494018555,0</coordinates>
</Point>
</Placemark>
<Placemark>
<name>立石入口</name>
<description></description>
<Point>
<coordinates>139.08799743652344,36.285888671875,0</coordinates>
</Point>
</Placemark>
<Placemark>
<name>東京福祉大学</name>
<description></description>
<Point>
<coordinates>139.1926727294922,36.286006927490234,0</coordinates>
</Point>
</Placemark>
<Placemark>
<name>川井八幡宮前</name>
<description></description>
<Point>
<coordinates>139.14076232910156,36.28605270385742,0</coordinates>
</Point>
</Placemark>
<Placemark>
<name>岡村商店前</name>
<description></description>
<Point>
<coordinates>139.12081909179688,36.28650665283203,0</coordinates>
</Point>
</Placemark>
<Placemark>
<name>角渕南</name>
<description></description>
<Point>
<coordinates>139.1190185546875,36.28669357299805,0</coordinates>
</Point>
</Placemark>
<Placemark>
<name>芝根郵便局前</name>
<description></description>
<Point>
<coordinates>139.15988159179688,36.287071228027344,0</coordinates>
</Point>
</Placemark>
<Placemark>
<name>西川製薬（株）前</name>
<description></description>
<Point>
<coordinates>139.1160125732422,36.287166595458984,0</coordinates>
</Point>
</Placemark>
<Placemark>
<name>堀口町東</name>
<description></description>
<Point>
<coordinates>139.1858673095703,36.28742599487305,0</coordinates>
</Point>
</Placemark>
<Placemark>
<name>中島</name>
<description></description>
<Point>
<coordinates>139.0829315185547,36.28763198852539,0</coordinates>
</Point>
</Placemark>
<Placemark>
<name>森新田入口</name>
<description></description>
<Point>
<coordinates>139.0767822265625,36.28788757324219,0</coordinates>
</Point>
</Placemark>
<Placemark>
<name>堀口</name>
<description></description>
<Point>
<coordinates>139.18182373046875,36.28828430175781,0</coordinates>
</Point>
</Placemark>
<Placemark>
<name>五料常楽寺西</name>
<description></description>
<Point>
<coordinates>139.1580810546875,36.288482666015625,0</coordinates>
</Point>
</Placemark>
<Placemark>
<name>（株）フクイ前</name>
<description></description>
<Point>
<coordinates>139.10470581054688,36.2886962890625,0</coordinates>
</Point>
</Placemark>
<Placemark>
<name>八幡原公民館前</name>
<description></description>
<Point>
<coordinates>139.09962463378906,36.289276123046875,0</coordinates>
</Point>
</Placemark>
<Placemark>
<name>B＆G海洋センター</name>
<description></description>
<Point>
<coordinates>139.15174865722656,36.28962707519531,0</coordinates>
</Point>
</Placemark>
<Placemark>
<name>松嶺福祉短大入口</name>
<description></description>
<Point>
<coordinates>139.396728515625,36.28965759277344,0</coordinates>
</Point>
</Placemark>
<Placemark>
<name>南一番街</name>
<description></description>
<Point>
<coordinates>139.37979125976562,36.28992462158203,0</coordinates>
</Point>
</Placemark>
<Placemark>
<name>角渕北</name>
<description></description>
<Point>
<coordinates>139.1186981201172,36.29054260253906,0</coordinates>
</Point>
</Placemark>
<Placemark>
<name>下茂木</name>
<description></description>
<Point>
<coordinates>139.1331329345703,36.29080581665039,0</coordinates>
</Point>
</Placemark>
<Placemark>
<name>名和小学校前</name>
<description></description>
<Point>
<coordinates>139.18197631835938,36.291038513183594,0</coordinates>
</Point>
</Placemark>
<Placemark>
<name>角渕下之手</name>
<description></description>
<Point>
<coordinates>139.12139892578125,36.29115295410156,0</coordinates>
</Point>
</Placemark>
<Placemark>
<name>市役所北</name>
<description></description>
<Point>
<coordinates>139.37576293945312,36.2918701171875,0</coordinates>
</Point>
</Placemark>
<Placemark>
<name>市役所東</name>
<description></description>
<Point>
<coordinates>139.3775634765625,36.291900634765625,0</coordinates>
</Point>
</Placemark>
<Placemark>
<name>黒沢商店前</name>
<description></description>
<Point>
<coordinates>139.10438537597656,36.29197692871094,0</coordinates>
</Point>
</Placemark>
<Placemark>
<name>天神山古墳前</name>
<description></description>
<Point>
<coordinates>139.3924560546875,36.292198181152344,0</coordinates>
</Point>
</Placemark>
<Placemark>
<name>安眠の湯</name>
<description></description>
<Point>
<coordinates>139.4038543701172,36.29246520996094,0</coordinates>
</Point>
</Placemark>
<Placemark>
<name>カインズホーム店前</name>
<description></description>
<Point>
<coordinates>139.1180419921875,36.292903900146484,0</coordinates>
</Point>
</Placemark>
<Placemark>
<name>太田駅南口</name>
<description></description>
<Point>
<coordinates>139.37945556640625,36.29301071166992,0</coordinates>
</Point>
</Placemark>
<Placemark>
<name>芝根小学校東</name>
<description></description>
<Point>
<coordinates>139.1546173095703,36.293128967285156,0</coordinates>
</Point>
</Placemark>
<Placemark>
<name>上之手南</name>
<description></description>
<Point>
<coordinates>139.1185760498047,36.29349136352539,0</coordinates>
</Point>
</Placemark>
<Placemark>
<name>新島町</name>
<description></description>
<Point>
<coordinates>139.3895263671875,36.2939453125,0</coordinates>
</Point>
</Placemark>
<Placemark>
<name>堀口町北</name>
<description></description>
<Point>
<coordinates>139.18212890625,36.29429626464844,0</coordinates>
</Point>
</Placemark>
<Placemark>
<name>消防団第5分団前</name>
<description></description>
<Point>
<coordinates>139.1311798095703,36.29499053955078,0</coordinates>
</Point>
</Placemark>
<Placemark>
<name>浪花製菓（株）前</name>
<description></description>
<Point>
<coordinates>139.1126251220703,36.29505157470703,0</coordinates>
</Point>
</Placemark>
<Placemark>
<name>イオンモール太田</name>
<description></description>
<Point>
<coordinates>139.4019012451172,36.29524612426758,0</coordinates>
</Point>
</Placemark>
<Placemark>
<name>太田駅北口</name>
<description></description>
<Point>
<coordinates>139.37841796875,36.29536056518555,0</coordinates>
</Point>
</Placemark>
<Placemark>
<name>大門整形外科前</name>
<description></description>
<Point>
<coordinates>139.12388610839844,36.29549789428711,0</coordinates>
</Point>
</Placemark>
<Placemark>
<name>Kマート店前</name>
<description></description>
<Point>
<coordinates>139.11888122558594,36.29557418823242,0</coordinates>
</Point>
</Placemark>
<Placemark>
<name>上之手公民館南</name>
<description></description>
<Point>
<coordinates>139.10972595214844,36.29573059082031,0</coordinates>
</Point>
</Placemark>
<Placemark>
<name>太田ニ丁目</name>
<description></description>
<Point>
<coordinates>139.37632751464844,36.29594421386719,0</coordinates>
</Point>
</Placemark>
<Placemark>
<name>大門入口</name>
<description></description>
<Point>
<coordinates>139.3717041015625,36.296077728271484,0</coordinates>
</Point>
</Placemark>
<Placemark>
<name>本島病院前</name>
<description></description>
<Point>
<coordinates>139.3690643310547,36.29608917236328,0</coordinates>
</Point>
</Placemark>
<Placemark>
<name>太田六丁目</name>
<description></description>
<Point>
<coordinates>139.3664093017578,36.29608917236328,0</coordinates>
</Point>
</Placemark>
<Placemark>
<name>太田三丁目</name>
<description></description>
<Point>
<coordinates>139.3737335205078,36.296104431152344,0</coordinates>
</Point>
</Placemark>
<Placemark>
<name>ダイヤパレス西</name>
<description></description>
<Point>
<coordinates>139.1139373779297,36.29640197753906,0</coordinates>
</Point>
</Placemark>
<Placemark>
<name>上之手公民館前</name>
<description></description>
<Point>
<coordinates>139.10972595214844,36.2965202331543,0</coordinates>
</Point>
</Placemark>
<Placemark>
<name>上之手団地</name>
<description></description>
<Point>
<coordinates>139.10643005371094,36.29661178588867,0</coordinates>
</Point>
</Placemark>
<Placemark>
<name>太田保健福祉事務所入口</name>
<description></description>
<Point>
<coordinates>139.36087036132812,36.29661560058594,0</coordinates>
</Point>
</Placemark>
<Placemark>
<name>NTT前</name>
<description></description>
<Point>
<coordinates>139.37728881835938,36.296661376953125,0</coordinates>
</Point>
</Placemark>
<Placemark>
<name>総合運動公園</name>
<description></description>
<Point>
<coordinates>139.10035705566406,36.2967529296875,0</coordinates>
</Point>
</Placemark>
<Placemark>
<name>太田合同庁舎前</name>
<description></description>
<Point>
<coordinates>139.35789489746094,36.29708480834961,0</coordinates>
</Point>
</Placemark>
<Placemark>
<name>上之手</name>
<description></description>
<Point>
<coordinates>139.11776733398438,36.29771423339844,0</coordinates>
</Point>
</Placemark>
<Placemark>
<name>太田女子高校前</name>
<description></description>
<Point>
<coordinates>139.3657989501953,36.29795455932617,0</coordinates>
</Point>
</Placemark>
<Placemark>
<name>藤阿久</name>
<description></description>
<Point>
<coordinates>139.35166931152344,36.298065185546875,0</coordinates>
</Point>
</Placemark>
<Placemark>
<name>南部眼科前</name>
<description></description>
<Point>
<coordinates>139.12498474121094,36.29814910888672,0</coordinates>
</Point>
</Placemark>
<Placemark>
<name>玉村中央クリニック前</name>
<description></description>
<Point>
<coordinates>139.1181182861328,36.29824447631836,0</coordinates>
</Point>
</Placemark>
<Placemark>
<name>県立女子大前</name>
<description></description>
<Point>
<coordinates>139.11404418945312,36.298316955566406,0</coordinates>
</Point>
</Placemark>
<Placemark>
<name>社会体育館</name>
<description></description>
<Point>
<coordinates>139.11404418945312,36.298316955566406,0</coordinates>
</Point>
</Placemark>
<Placemark>
<name>本今井町</name>
<description></description>
<Point>
<coordinates>139.18235778808594,36.298561096191406,0</coordinates>
</Point>
</Placemark>
<Placemark>
<name>高山神社入口</name>
<description></description>
<Point>
<coordinates>139.37411499023438,36.29862594604492,0</coordinates>
</Point>
</Placemark>
<Placemark>
<name>太田病院前</name>
<description></description>
<Point>
<coordinates>139.36895751953125,36.29866027832031,0</coordinates>
</Point>
</Placemark>
<Placemark>
<name>西中学校前</name>
<description></description>
<Point>
<coordinates>139.36602783203125,36.29867172241211,0</coordinates>
</Point>
</Placemark>
<Placemark>
<name>新道町</name>
<description></description>
<Point>
<coordinates>139.34701538085938,36.298805236816406,0</coordinates>
</Point>
</Placemark>
<Placemark>
<name>みつわ団地入口</name>
<description></description>
<Point>
<coordinates>139.15121459960938,36.29888916015625,0</coordinates>
</Point>
</Placemark>
<Placemark>
<name>玉村ショッピングセンター</name>
<description></description>
<Point>
<coordinates>139.11611938476562,36.29961395263672,0</coordinates>
</Point>
</Placemark>
<Placemark>
<name>別所</name>
<description></description>
<Point>
<coordinates>139.3389434814453,36.30010986328125,0</coordinates>
</Point>
</Placemark>
<Placemark>
<name>消防団第7分団前</name>
<description></description>
<Point>
<coordinates>139.1427459716797,36.30039596557617,0</coordinates>
</Point>
</Placemark>
<Placemark>
<name>五十嵐医院下之宮出張前</name>
<description></description>
<Point>
<coordinates>139.14720153808594,36.30045700073242,0</coordinates>
</Point>
</Placemark>
<Placemark>
<name>原酒店前</name>
<description></description>
<Point>
<coordinates>139.13156127929688,36.30070114135742,0</coordinates>
</Point>
</Placemark>
<Placemark>
<name>脇屋入口</name>
<description></description>
<Point>
<coordinates>139.33457946777344,36.30079650878906,0</coordinates>
</Point>
</Placemark>
<Placemark>
<name>西光寺東</name>
<description></description>
<Point>
<coordinates>139.11355590820312,36.30160140991211,0</coordinates>
</Point>
</Placemark>
<Placemark>
<name>西光寺西</name>
<description></description>
<Point>
<coordinates>139.1109161376953,36.30180358886719,0</coordinates>
</Point>
</Placemark>
<Placemark>
<name>中町</name>
<description></description>
<Point>
<coordinates>139.18289184570312,36.30195236206055,0</coordinates>
</Point>
</Placemark>
<Placemark>
<name>町営上新田団地</name>
<description></description>
<Point>
<coordinates>139.09982299804688,36.302001953125,0</coordinates>
</Point>
</Placemark>
<Placemark>
<name>とりせん店前</name>
<description></description>
<Point>
<coordinates>139.1267547607422,36.30222702026367,0</coordinates>
</Point>
</Placemark>
<Placemark>
<name>平成クリニック前</name>
<description></description>
<Point>
<coordinates>139.10565185546875,36.30231475830078,0</coordinates>
</Point>
</Placemark>
<Placemark>
<name>般若</name>
<description></description>
<Point>
<coordinates>139.32211303710938,36.30276870727539,0</coordinates>
</Point>
</Placemark>
<Placemark>
<name>女子大入口</name>
<description></description>
<Point>
<coordinates>139.1155242919922,36.30287551879883,0</coordinates>
</Point>
</Placemark>
<Placemark>
<name>県立女子大学</name>
<description></description>
<Point>
<coordinates>139.1155242919922,36.30287551879883,0</coordinates>
</Point>
</Placemark>
<Placemark>
<name>玉村六丁目</name>
<description></description>
<Point>
<coordinates>139.11260986328125,36.3029670715332,0</coordinates>
</Point>
</Placemark>
<Placemark>
<name>玉村五丁目</name>
<description></description>
<Point>
<coordinates>139.1098175048828,36.30305862426758,0</coordinates>
</Point>
</Placemark>
<Placemark>
<name>四丁目角</name>
<description></description>
<Point>
<coordinates>139.1072235107422,36.3030891418457,0</coordinates>
</Point>
</Placemark>
<Placemark>
<name>玉村四丁目</name>
<description></description>
<Point>
<coordinates>139.1077423095703,36.303096771240234,0</coordinates>
</Point>
</Placemark>
<Placemark>
<name>玉村三丁目</name>
<description></description>
<Point>
<coordinates>139.10191345214844,36.30326843261719,0</coordinates>
</Point>
</Placemark>
<Placemark>
<name>下之宮（北）</name>
<description></description>
<Point>
<coordinates>139.14920043945312,36.30351638793945,0</coordinates>
</Point>
</Placemark>