<?xml version="1.0" encoding="UTF-8"?>
<kml xmlns="http://www.opengis.net/kml/2.2">
<Document>
<name><![CDATA[バス停 : 山形]]></name>
<Folder>
<name>Placemarks</name>
<Placemark>
<name>源佐原公民館</name>
<description></description>
<Point>
<coordinates>140.5294952392578,38.77238845825195,0</coordinates>
</Point>
</Placemark>
<Placemark>
<name>あさひBS</name>
<description></description>
<Point>
<coordinates>139.84375,38.61882019042969,0</coordinates>
</Point>
</Placemark>
<Placemark>
<name>源佐原</name>
<description></description>
<Point>
<coordinates>140.52938842773438,38.769107818603516,0</coordinates>
</Point>
</Placemark>
<Placemark>
<name>志茂公民館</name>
<description></description>
<Point>
<coordinates>140.47552490234375,38.772499084472656,0</coordinates>
</Point>
</Placemark>
<Placemark>
<name>役場前</name>
<description></description>
<Point>
<coordinates>140.3192901611328,38.69139862060547,0</coordinates>
</Point>
</Placemark>
<Placemark>
<name>七日町</name>
<description></description>
<Point>
<coordinates>140.33865356445312,38.2523078918457,0</coordinates>
</Point>
</Placemark>
<Placemark>
<name>中央郵便局前</name>
<description></description>
<Point>
<coordinates>140.33642578125,38.248409271240234,0</coordinates>
</Point>
</Placemark>
<Placemark>
<name>城南1丁目</name>
<description></description>
<Point>
<coordinates>140.10760498046875,37.90608215332031,0</coordinates>
</Point>
</Placemark>
<Placemark>
<name>中央待合所</name>
<description></description>
<Point>
<coordinates>140.1095733642578,37.91481399536133,0</coordinates>
</Point>
</Placemark>
<Placemark>
<name>米沢駅前</name>
<description></description>
<Point>
<coordinates>140.1275177001953,37.90914535522461,0</coordinates>
</Point>
</Placemark>
<Placemark>
<name>上人清水</name>
<description></description>
<Point>
<coordinates>140.01881408691406,37.89747619628906,0</coordinates>
</Point>
</Placemark>
<Placemark>
<name>丸の内2丁目</name>
<description></description>
<Point>
<coordinates>140.10870361328125,37.911651611328125,0</coordinates>
</Point>
</Placemark>
<Placemark>
<name>公園北口</name>
<description></description>
<Point>
<coordinates>140.10546875,37.910953521728516,0</coordinates>
</Point>
</Placemark>
<Placemark>
<name>旭町</name>
<description></description>
<Point>
<coordinates>140.2870635986328,38.16315460205078,0</coordinates>
</Point>
</Placemark>
<Placemark>
<name>市立高擶公民館前</name>
<description></description>
<Point>
<coordinates>140.3494415283203,38.333736419677734,0</coordinates>
</Point>
</Placemark>
<Placemark>
<name>一本木中央</name>
<description></description>
<Point>
<coordinates>140.38673400878906,38.42801284790039,0</coordinates>
</Point>
</Placemark>
<Placemark>
<name>さくらんぼタントクルセンター南</name>
<description></description>
<Point>
<coordinates>140.39105224609375,38.43006134033203,0</coordinates>
</Point>
</Placemark>
<Placemark>
<name>城址公園</name>
<description></description>
<Point>
<coordinates>140.3104248046875,38.39541244506836,0</coordinates>
</Point>
</Placemark>
<Placemark>
<name>山形市役所前</name>
<description></description>
<Point>
<coordinates>140.34017944335938,38.25517654418945,0</coordinates>
</Point>
</Placemark>
<Placemark>
<name>東宮田</name>
<description></description>
<Point>
<coordinates>139.89218139648438,39.03157424926758,0</coordinates>
</Point>
</Placemark>
<Placemark>
<name>北宮田</name>
<description></description>
<Point>
<coordinates>139.89254760742188,39.0387077331543,0</coordinates>
</Point>
</Placemark>
<Placemark>
<name>中央公民館前</name>
<description></description>
<Point>
<coordinates>140.3340606689453,38.88588333129883,0</coordinates>
</Point>
</Placemark>
<Placemark>
<name>中央一丁目</name>
<description></description>
<Point>
<coordinates>140.1110076904297,37.91501998901367,0</coordinates>
</Point>
</Placemark>
<Placemark>
<name>山交ビルバスターミナル</name>
<description></description>
<Point>
<coordinates>140.3317413330078,38.24697494506836,0</coordinates>
</Point>
</Placemark>
<Placemark>
<name>保健所前</name>
<description></description>
<Point>
<coordinates>140.33428955078125,38.24932861328125,0</coordinates>
</Point>
</Placemark>
<Placemark>
<name>センタービル前</name>
<description></description>
<Point>
<coordinates>140.33070373535156,38.2473030090332,0</coordinates>
</Point>
</Placemark>
<Placemark>
<name>上満沢集会所</name>
<description></description>
<Point>
<coordinates>140.512451171875,38.71438980102539,0</coordinates>
</Point>
</Placemark>
<Placemark>
<name>中満沢</name>
<description></description>
<Point>
<coordinates>140.50906372070312,38.7247428894043,0</coordinates>
</Point>
</Placemark>
<Placemark>
<name>下満沢</name>
<description></description>
<Point>
<coordinates>140.51327514648438,38.73432922363281,0</coordinates>
</Point>
</Placemark>
<Placemark>
<name>細の原</name>
<description></description>
<Point>
<coordinates>140.50880432128906,38.74734115600586,0</coordinates>
</Point>
</Placemark>
<Placemark>
<name>大堀谷地</name>
<description></description>
<Point>
<coordinates>140.47080993652344,38.76406478881836,0</coordinates>
</Point>
</Placemark>
<Placemark>
<name>大堀駅前</name>
<description></description>
<Point>
<coordinates>140.47572326660156,38.76523971557617,0</coordinates>
</Point>
</Placemark>
<Placemark>
<name>大堀</name>
<description></description>
<Point>
<coordinates>140.46652221679688,38.76304244995117,0</coordinates>
</Point>
</Placemark>
<Placemark>
<name>若宮西</name>
<description></description>
<Point>
<coordinates>140.48387145996094,38.764915466308594,0</coordinates>
</Point>
</Placemark>
<Placemark>
<name>若宮公民館</name>
<description></description>
<Point>
<coordinates>140.4912567138672,38.76520919799805,0</coordinates>
</Point>
</Placemark>
<Placemark>
<name>清水町</name>
<description></description>
<Point>
<coordinates>140.47601318359375,38.76625061035156,0</coordinates>
</Point>
</Placemark>
<Placemark>
<name>下白川公民館</name>
<description></description>
<Point>
<coordinates>140.47874450683594,38.757625579833984,0</coordinates>
</Point>
</Placemark>
<Placemark>
<name>上横川</name>
<description></description>
<Point>
<coordinates>140.47938537597656,38.7890739440918,0</coordinates>
</Point>
</Placemark>
<Placemark>
<name>薬師原</name>
<description></description>
<Point>
<coordinates>140.45303344726562,38.78660583496094,0</coordinates>
</Point>
</Placemark>
<Placemark>
<name>湯町</name>
<description></description>
<Point>
<coordinates>140.41416931152344,38.75338363647461,0</coordinates>
</Point>
</Placemark>
<Placemark>
<name>最上町役場</name>
<description></description>
<Point>
<coordinates>140.51902770996094,38.758697509765625,0</coordinates>
</Point>
</Placemark>
<Placemark>
<name>最上中</name>
<description></description>
<Point>
<coordinates>140.5208740234375,38.76004409790039,0</coordinates>
</Point>
</Placemark>
<Placemark>
<name>沢原</name>
<description></description>
<Point>
<coordinates>140.5095977783203,38.76384353637695,0</coordinates>
</Point>
</Placemark>
<Placemark>
<name>最上病院</name>
<description></description>
<Point>
<coordinates>140.51641845703125,38.753971099853516,0</coordinates>
</Point>
</Placemark>
<Placemark>
<name>若宮東</name>
<description></description>
<Point>
<coordinates>140.50048828125,38.76536560058594,0</coordinates>
</Point>
</Placemark>
<Placemark>
<name>最上駅前</name>
<description></description>
<Point>
<coordinates>140.51808166503906,38.75701141357422,0</coordinates>
</Point>
</Placemark>
<Placemark>
<name>十日町</name>
<description></description>
<Point>
<coordinates>140.52268981933594,38.75328826904297,0</coordinates>
</Point>
</Placemark>
<Placemark>
<name>初ヶ沢</name>
<description></description>
<Point>
<coordinates>140.50233459472656,38.78315353393555,0</coordinates>
</Point>
</Placemark>
<Placemark>
<name>窓塞</name>
<description></description>
<Point>
<coordinates>140.51303100585938,38.8050422668457,0</coordinates>
</Point>
</Placemark>
<Placemark>
<name>前森開拓南</name>
<description></description>
<Point>
<coordinates>140.54283142089844,38.8004264831543,0</coordinates>
</Point>
</Placemark>
<Placemark>
<name>判屋</name>
<description></description>
<Point>
<coordinates>140.55474853515625,38.771175384521484,0</coordinates>
</Point>
</Placemark>
<Placemark>
<name>向町小</name>
<description></description>
<Point>
<coordinates>140.525390625,38.76226043701172,0</coordinates>
</Point>
</Placemark>
<Placemark>
<name>赤倉小学校前</name>
<description></description>
<Point>
<coordinates>140.55250549316406,38.71355438232422,0</coordinates>
</Point>
</Placemark>
<Placemark>
<name>鍋倉集会所</name>
<description></description>
<Point>
<coordinates>140.6047821044922,38.741153717041016,0</coordinates>
</Point>
</Placemark>
<Placemark>
<name>松根公民館</name>
<description></description>
<Point>
<coordinates>140.6056671142578,38.74492263793945,0</coordinates>
</Point>
</Placemark>
<Placemark>
<name>長原</name>
<description></description>
<Point>
<coordinates>140.61419677734375,38.7505989074707,0</coordinates>
</Point>
</Placemark>
<Placemark>
<name>待避所前</name>
<description></description>
<Point>
<coordinates>140.54505920410156,38.73873519897461,0</coordinates>
</Point>
</Placemark>
<Placemark>
<name>立小路駅</name>
<description></description>
<Point>
<coordinates>140.5422821044922,38.74275207519531,0</coordinates>
</Point>
</Placemark>
<Placemark>
<name>西野</name>
<description></description>
<Point>
<coordinates>140.5355987548828,38.743988037109375,0</coordinates>
</Point>
</Placemark>
<Placemark>
<name>交流会館前</name>
<description></description>
<Point>
<coordinates>140.52281188964844,38.75808334350586,0</coordinates>
</Point>
</Placemark>
<Placemark>
<name>南高前</name>
<description></description>
<Point>
<coordinates>140.34661865234375,38.24233627319336,0</coordinates>
</Point>
</Placemark>
<Placemark>
<name>寒河江</name>
<description></description>
<Point>
<coordinates>140.2602996826172,38.36613845825195,0</coordinates>
</Point>
</Placemark>
<Placemark>
<name>西川</name>
<description></description>
<Point>
<coordinates>140.16616821289062,38.423675537109375,0</coordinates>
</Point>
</Placemark>
<Placemark>
<name>かみのやま温泉</name>
<description></description>
<Point>
<coordinates>140.27120971679688,38.15692138671875,0</coordinates>
</Point>
</Placemark>
<Placemark>
<name>鶴岡エスモール</name>
<description></description>
<Point>
<coordinates>139.83169555664062,38.73998260498047,0</coordinates>
</Point>
</Placemark>
<Placemark>
<name>庄内空港</name>
<description></description>
<Point>
<coordinates>139.78761291503906,38.815025329589844,0</coordinates>
</Point>
</Placemark>
<Placemark>
<name>イオン三川</name>
<description></description>
<Point>
<coordinates>139.8320770263672,38.8143196105957,0</coordinates>
</Point>
</Placemark>
<Placemark>
<name>公益文科大学前</name>
<description></description>
<Point>
<coordinates>139.81980895996094,38.89336013793945,0</coordinates>
</Point>
</Placemark>
<Placemark>
<name>JR酒田駅</name>
<description></description>
<Point>
<coordinates>139.8446044921875,38.922340393066406,0</coordinates>
</Point>
</Placemark>
<Placemark>
<name>湯殿山ほてる</name>
<description></description>
<Point>
<coordinates>139.9578399658203,38.534828186035156,0</coordinates>
</Point>
</Placemark>
<Placemark>
<name>庄内あさひ</name>
<description></description>
<Point>
<coordinates>139.84201049804688,38.61045837402344,0</coordinates>
</Point>
</Placemark>
<Placemark>
<name>西川バスストップ</name>
<description></description>
<Point>
<coordinates>140.16392517089844,38.42229461669922,0</coordinates>
</Point>
</Placemark>
<Placemark>
<name>東京第一ホテル鶴岡前</name>
<description></description>
<Point>
<coordinates>139.8328094482422,38.73917007446289,0</coordinates>
</Point>
</Placemark>
<Placemark>
<name>ホテルリッチ＆ガーデン酒田前</name>
<description></description>
<Point>
<coordinates>139.83554077148438,38.908504486083984,0</coordinates>
</Point>
</Placemark>
<Placemark>
<name>天童車庫前</name>
<description></description>
<Point>
<coordinates>140.38356018066406,38.35447311401367,0</coordinates>
</Point>
</Placemark>
<Placemark>
<name>米沢駅東口</name>
<description></description>
<Point>
<coordinates>140.12905883789062,37.909664154052734,0</coordinates>
</Point>
</Placemark>
<Placemark>
<name>上山温泉</name>
<description></description>
<Point>
<coordinates>140.27659606933594,38.15543746948242,0</coordinates>
</Point>
</Placemark>
<Placemark>
<name>杉ノ入</name>
<description></description>
<Point>
<coordinates>140.48849487304688,38.72735595703125,0</coordinates>
</Point>
</Placemark>
<Placemark>
<name>一刎公民館</name>
<description></description>
<Point>
<coordinates>140.53761291503906,38.70555877685547,0</coordinates>
</Point>
</Placemark>
<Placemark>
<name>赤倉スキー場</name>
<description></description>
<Point>
<coordinates>140.54331970214844,38.70733642578125,0</coordinates>
</Point>
</Placemark>
<Placemark>
<name>稲荷前</name>
<description></description>
<Point>
<coordinates>140.55079650878906,38.71258544921875,0</coordinates>
</Point>
</Placemark>
<Placemark>
<name>末沢</name>
<description></description>
<Point>
<coordinates>140.55078125,38.71522521972656,0</coordinates>
</Point>
</Placemark>
<Placemark>
<name>赤倉温泉</name>
<description></description>
<Point>
<coordinates>140.55020141601562,38.710960388183594,0</coordinates>
</Point>
</Placemark>
<Placemark>
<name>万騎の原</name>
<description></description>
<Point>
<coordinates>140.5533447265625,38.7229118347168,0</coordinates>
</Point>
</Placemark>
<Placemark>
<name>明神</name>
<description></description>
<Point>
<coordinates>140.5572052001953,38.72538375854492,0</coordinates>
</Point>
</Placemark>
<Placemark>
<name>赤倉温泉駅前</name>
<description></description>
<Point>
<coordinates>140.55267333984375,38.73090744018555,0</coordinates>
</Point>
</Placemark>
<Placemark>
<name>新田</name>
<description></description>
<Point>
<coordinates>140.55113220214844,38.73244094848633,0</coordinates>
</Point>
</Placemark>
<Placemark>
<name>上下小路</name>
<description></description>
<Point>
<coordinates>140.5441131591797,38.73939895629883,0</coordinates>
</Point>
</Placemark>
<Placemark>
<name>下小路</name>
<description></description>
<Point>
<coordinates>140.54014587402344,38.74182891845703,0</coordinates>
</Point>
</Placemark>
<Placemark>
<name>鳥出</name>
<description></description>
<Point>
<coordinates>140.53134155273438,38.74477767944336,0</coordinates>
</Point>
</Placemark>
<Placemark>
<name>鳥出橋</name>
<description></description>
<Point>
<coordinates>140.52613830566406,38.747154235839844,0</coordinates>
</Point>
</Placemark>
<Placemark>
<name>富沢観音口</name>
<description></description>
<Point>
<coordinates>140.54837036132812,38.73501205444336,0</coordinates>
</Point>
</Placemark>
<Placemark>
<name>苗圃</name>
<description></description>
<Point>
<coordinates>140.55189514160156,38.71894073486328,0</coordinates>
</Point>
</Placemark>
<Placemark>
<name>封人の家</name>
<description></description>
<Point>
<coordinates>140.61607360839844,38.737545013427734,0</coordinates>
</Point>
</Placemark>
<Placemark>
<name>笹森</name>
<description></description>
<Point>
<coordinates>140.58169555664062,38.73980712890625,0</coordinates>
</Point>
</Placemark>
<Placemark>
<name>立小路公民館</name>
<description></description>
<Point>
<coordinates>140.5455780029297,38.74486541748047,0</coordinates>
</Point>
</Placemark>
<Placemark>
<name>赤倉東</name>
<description></description>
<Point>
<coordinates>140.5581817626953,38.7127571105957,0</coordinates>
</Point>
</Placemark>
<Placemark>
<name>湯原</name>
<description></description>
<Point>
<coordinates>140.5543975830078,38.71162414550781,0</coordinates>
</Point>
</Placemark>
<Placemark>
<name>一刎市ノ沢</name>
<description></description>
<Point>
<coordinates>140.531494140625,38.708858489990234,0</coordinates>
</Point>
</Placemark>
<Placemark>
<name>永井医院前</name>
<description></description>
<Point>
<coordinates>140.51467895507812,38.75993347167969,0</coordinates>
</Point>
</Placemark>
<Placemark>
<name>最上町駐在所前</name>
<description></description>
<Point>
<coordinates>140.5149383544922,38.75908660888672,0</coordinates>
</Point>
</Placemark>
<Placemark>
<name>JA最上支店前</name>
<description></description>
<Point>
<coordinates>140.51593017578125,38.75894546508789,0</coordinates>
</Point>
</Placemark>
<Placemark>
<name>いっぷく茶屋前</name>
<description></description>
<Point>
<coordinates>140.51873779296875,38.7567138671875,0</coordinates>
</Point>
</Placemark>
<Placemark>
<name>小川歯科医院前</name>
<description></description>
<Point>
<coordinates>140.51998901367188,38.756046295166016,0</coordinates>
</Point>
</Placemark>
<Placemark>
<name>前森開拓北</name>
<description></description>
<Point>
<coordinates>140.5494384765625,38.802978515625,0</coordinates>
</Point>
</Placemark>
<Placemark>
<name>前森清水沢</name>
<description></description>
<Point>
<coordinates>140.54666137695312,38.804630279541016,0</coordinates>
</Point>
</Placemark>
<Placemark>
<name>前森末沢上</name>
<description></description>
<Point>
<coordinates>140.53903198242188,38.800994873046875,0</coordinates>
</Point>
</Placemark>
<Placemark>
<name>前森末沢下</name>
<description></description>
<Point>
<coordinates>140.5355987548828,38.79833221435547,0</coordinates>
</Point>
</Placemark>
<Placemark>
<name>赤沢北</name>
<description></description>
<Point>
<coordinates>140.53465270996094,38.79258346557617,0</coordinates>
</Point>
</Placemark>
<Placemark>
<name>赤沢公民館前</name>
<description></description>
<Point>
<coordinates>140.53445434570312,38.790428161621094,0</coordinates>
</Point>
</Placemark>
<Placemark>
<name>赤沢南</name>
<description></description>
<Point>
<coordinates>140.533935546875,38.785545349121094,0</coordinates>
</Point>
</Placemark>
<Placemark>
<name>赤沢入口</name>
<description></description>
<Point>
<coordinates>140.53355407714844,38.78229904174805,0</coordinates>
</Point>
</Placemark>
<Placemark>
<name>片野</name>
<description></description>
<Point>
<coordinates>140.5341033935547,38.77418518066406,0</coordinates>
</Point>
</Placemark>
<Placemark>
<name>黒沢</name>
<description></description>
<Point>
<coordinates>140.5351104736328,38.76653289794922,0</coordinates>
</Point>
</Placemark>
<Placemark>
<name>黒沢集会所</name>
<description></description>
<Point>
<coordinates>140.54335021972656,38.76835250854492,0</coordinates>
</Point>
</Placemark>
<Placemark>
<name>大在家</name>
<description></description>
<Point>
<coordinates>140.5068359375,38.78993606567383,0</coordinates>
</Point>
</Placemark>
<Placemark>
<name>東法田公民館前</name>
<description></description>
<Point>
<coordinates>140.5069122314453,38.791603088378906,0</coordinates>
</Point>
</Placemark>
<Placemark>
<name>下仲神</name>
<description></description>
<Point>
<coordinates>140.5085906982422,38.794803619384766,0</coordinates>
</Point>
</Placemark>
<Placemark>
<name>大アカマツ前</name>
<description></description>
<Point>
<coordinates>140.5104217529297,38.79826736450195,0</coordinates>
</Point>
</Placemark>
<Placemark>
<name>野頭</name>
<description></description>
<Point>
<coordinates>140.49537658691406,38.792415618896484,0</coordinates>
</Point>
</Placemark>
<Placemark>
<name>野頭口</name>
<description></description>
<Point>
<coordinates>140.493896484375,38.79047393798828,0</coordinates>
</Point>
</Placemark>
<Placemark>
<name>野頭上新田</name>
<description></description>
<Point>
<coordinates>140.4921417236328,38.7861328125,0</coordinates>
</Point>
</Placemark>
<Placemark>
<name>法田中北</name>
<description></description>
<Point>
<coordinates>140.4901123046875,38.783302307128906,0</coordinates>
</Point>
</Placemark>
<Placemark>
<name>法田中</name>
<description></description>
<Point>
<coordinates>140.48828125,38.78074264526367,0</coordinates>
</Point>
</Placemark>
<Placemark>
<name>法田下</name>
<description></description>
<Point>
<coordinates>140.48593139648438,38.77644729614258,0</coordinates>
</Point>
</Placemark>
<Placemark>
<name>法田下公民館</name>
<description></description>
<Point>
<coordinates>140.48219299316406,38.774044036865234,0</coordinates>
</Point>
</Placemark>
<Placemark>
<name>下白川口</name>
<description></description>
<Point>
<coordinates>140.48167419433594,38.7598991394043,0</coordinates>
</Point>
</Placemark>
<Placemark>
<name>若宮中</name>
<description></description>
<Point>
<coordinates>140.4950714111328,38.765228271484375,0</coordinates>
</Point>
</Placemark>
<Placemark>
<name>萱場公民館</name>
<description></description>
<Point>
<coordinates>140.48629760742188,38.73198699951172,0</coordinates>
</Point>
</Placemark>
<Placemark>
<name>萱場下</name>
<description></description>
<Point>
<coordinates>140.48760986328125,38.74170684814453,0</coordinates>
</Point>
</Placemark>
<Placemark>
<name>萱場口</name>
<description></description>
<Point>
<coordinates>140.4881134033203,38.745025634765625,0</coordinates>
</Point>
</Placemark>
<Placemark>
<name>月楯小前</name>
<description></description>
<Point>
<coordinates>140.4972686767578,38.7520751953125,0</coordinates>
</Point>
</Placemark>
<Placemark>
<name>月楯上</name>
<description></description>
<Point>
<coordinates>140.49488830566406,38.749847412109375,0</coordinates>
</Point>
</Placemark>
<Placemark>
<name>月楯中</name>
<description></description>
<Point>
<coordinates>140.49172973632812,38.75094223022461,0</coordinates>
</Point>
</Placemark>
<Placemark>
<name>豊田西</name>
<description></description>
<Point>
<coordinates>140.50411987304688,38.75824737548828,0</coordinates>
</Point>
</Placemark>
<Placemark>
<name>豊田東</name>
<description></description>
<Point>
<coordinates>140.5086669921875,38.75778579711914,0</coordinates>
</Point>
</Placemark>
<Placemark>
<name>上満沢T字路</name>
<description></description>
<Point>
<coordinates>140.51284790039062,38.716087341308594,0</coordinates>
</Point>
</Placemark>
<Placemark>
<name>中満沢下</name>
<description></description>
<Point>
<coordinates>140.51243591308594,38.73125076293945,0</coordinates>
</Point>
</Placemark>
<Placemark>
<name>細の原集会所</name>
<description></description>
<Point>
<coordinates>140.51107788085938,38.744380950927734,0</coordinates>
</Point>
</Placemark>
<Placemark>
<name>細の原上</name>
<description></description>
<Point>
<coordinates>140.51333618164062,38.740455627441406,0</coordinates>
</Point>
</Placemark>
<Placemark>
<name>瀬見温泉駅</name>
<description></description>
<Point>
<coordinates>140.4202117919922,38.754638671875,0</coordinates>
</Point>
</Placemark>
<Placemark>
<name>瀬見西町</name>
<description></description>
<Point>
<coordinates>140.416015625,38.755218505859375,0</coordinates>
</Point>
</Placemark>
<Placemark>
<name>瀬見坂本町</name>
<description></description>
<Point>
<coordinates>140.41256713867188,38.75514602661133,0</coordinates>
</Point>
</Placemark>
<Placemark>
<name>柳原</name>
<description></description>
<Point>
<coordinates>140.44544982910156,38.7646484375,0</coordinates>
</Point>
</Placemark>
<Placemark>
<name>鵜杉</name>
<description></description>
<Point>
<coordinates>140.45323181152344,38.76420593261719,0</coordinates>
</Point>
</Placemark>
<Placemark>
<name>穴口</name>
<description></description>
<Point>
<coordinates>140.45904541015625,38.779991149902344,0</coordinates>
</Point>
</Placemark>
<Placemark>
<name>上鵜杉公民館</name>
<description></description>
<Point>
<coordinates>140.45819091796875,38.77452850341797,0</coordinates>
</Point>
</Placemark>
<Placemark>
<name>上鵜杉中</name>
<description></description>
<Point>
<coordinates>140.45645141601562,38.769615173339844,0</coordinates>
</Point>
</Placemark>
<Placemark>
<name>横川</name>
<description></description>
<Point>
<coordinates>140.4711151123047,38.782379150390625,0</coordinates>
</Point>
</Placemark>
<Placemark>
<name>大堀西</name>
<description></description>
<Point>
<coordinates>140.4604034423828,38.761539459228516,0</coordinates>
</Point>
</Placemark>
<Placemark>
<name>大堀公民館前</name>
<description></description>
<Point>
<coordinates>140.46385192871094,38.76233673095703,0</coordinates>
</Point>
</Placemark>
<Placemark>
<name>白川端口</name>
<description></description>
<Point>
<coordinates>140.47940063476562,38.765872955322266,0</coordinates>
</Point>
</Placemark>
<Placemark>
<name>月楯辻</name>
<description></description>
<Point>
<coordinates>140.4997100830078,38.75361251831055,0</coordinates>
</Point>
</Placemark>
<Placemark>
<name>県立新庄病院前</name>
<description></description>
<Point>
<coordinates>140.30221557617188,38.75957489013672,0</coordinates>
</Point>
</Placemark>
<Placemark>
<name>保育所前</name>
<description></description>
<Point>
<coordinates>140.2733154296875,38.667999267578125,0</coordinates>
</Point>
</Placemark>
<Placemark>
<name>洲崎</name>
<description></description>
<Point>
<coordinates>140.2750701904297,38.658912658691406,0</coordinates>
</Point>
</Placemark>
<Placemark>
<name>西又公前</name>
<description></description>
<Point>
<coordinates>140.28248596191406,38.6259651184082,0</coordinates>
</Point>
</Placemark>
<Placemark>
<name>松橋</name>
<description></description>
<Point>
<coordinates>140.27203369140625,38.61210250854492,0</coordinates>
</Point>
</Placemark>
<Placemark>
<name>新堀</name>
<description></description>
<Point>
<coordinates>140.28529357910156,38.645164489746094,0</coordinates>
</Point>
</Placemark>
<Placemark>
<name>真木野</name>
<description></description>
<Point>
<coordinates>140.283935546875,38.64790725708008,0</coordinates>
</Point>
</Placemark>
<Placemark>
<name>下西又</name>
<description></description>
<Point>
<coordinates>140.2859344482422,38.630252838134766,0</coordinates>
</Point>
</Placemark>
<Placemark>
<name>富田</name>
<description></description>
<Point>
<coordinates>140.27645874023438,38.67897033691406,0</coordinates>
</Point>
</Placemark>
<Placemark>
<name>富田入口</name>
<description></description>
<Point>
<coordinates>140.27798461914062,38.68004608154297,0</coordinates>
</Point>
</Placemark>
<Placemark>
<name>下一の関</name>
<description></description>
<Point>
<coordinates>140.33651733398438,38.69758605957031,0</coordinates>
</Point>
</Placemark>
<Placemark>
<name>長沢入口</name>
<description></description>
<Point>
<coordinates>140.3639373779297,38.70319366455078,0</coordinates>
</Point>
</Placemark>
<Placemark>
<name>西堀</name>
<description></description>
<Point>
<coordinates>140.31520080566406,38.68960189819336,0</coordinates>
</Point>
</Placemark>
<Placemark>
<name>舟形中前</name>
<description></description>
<Point>
<coordinates>140.31056213378906,38.689720153808594,0</coordinates>
</Point>
</Placemark>
<Placemark>
<name>下長者原</name>
<description></description>
<Point>
<coordinates>140.2784423828125,38.692996978759766,0</coordinates>
</Point>
</Placemark>
<Placemark>
<name>舟形駅前</name>
<description></description>
<Point>
<coordinates>140.31683349609375,38.69173812866211,0</coordinates>
</Point>
</Placemark>
<Placemark>
<name>長沢寺前</name>
<description></description>
<Point>
<coordinates>140.36639404296875,38.70553207397461,0</coordinates>
</Point>
</Placemark>
<Placemark>
<name>平石</name>
<description></description>
<Point>
<coordinates>140.36953735351562,38.70756530761719,0</coordinates>
</Point>
</Placemark>
<Placemark>
<name>一の関</name>
<description></description>
<Point>
<coordinates>140.34030151367188,38.69822311401367,0</coordinates>
</Point>
</Placemark>
<Placemark>
<name>経壇原</name>
<description></description>
<Point>
<coordinates>140.34939575195312,38.70055389404297,0</coordinates>
</Point>
</Placemark>
<Placemark>
<name>舟形小前</name>
<description></description>
<Point>
<coordinates>140.32656860351562,38.69496536254883,0</coordinates>
</Point>
</Placemark>
<Placemark>
<name>中央公前</name>
<description></description>
<Point>
<coordinates>140.32069396972656,38.69288635253906,0</coordinates>
</Point>
</Placemark>
<Placemark>
<name>木友</name>
<description></description>
<Point>
<coordinates>140.3043670654297,38.69068145751953,0</coordinates>
</Point>
</Placemark>
<Placemark>
<name>光生園前</name>
<description></description>
<Point>
<coordinates>140.29989624023438,38.69071960449219,0</coordinates>
</Point>
</Placemark>
<Placemark>
<name>小松</name>
<description></description>
<Point>
<coordinates>140.295654296875,38.69144058227539,0</coordinates>
</Point>
</Placemark>
<Placemark>
<name>上長者原</name>
<description></description>
<Point>
<coordinates>140.2842559814453,38.69371032714844,0</coordinates>
</Point>
</Placemark>
<Placemark>
<name>長者原公前</name>
<description></description>
<Point>
<coordinates>140.2775421142578,38.69231414794922,0</coordinates>
</Point>
</Placemark>
<Placemark>
<name>福寿野</name>
<description></description>
<Point>
<coordinates>140.26795959472656,38.692970275878906,0</coordinates>
</Point>
</Placemark>
<Placemark>
<name>富長小前</name>
<description></description>
<Point>
<coordinates>140.2792510986328,38.68803024291992,0</coordinates>
</Point>
</Placemark>
<Placemark>
<name>柴山公民館前</name>
<description></description>
<Point>
<coordinates>140.31692504882812,38.704551696777344,0</coordinates>
</Point>
</Placemark>
<Placemark>
<name>徳洲苑前</name>
<description></description>
<Point>
<coordinates>140.27389526367188,38.67005920410156,0</coordinates>
</Point>
</Placemark>
<Placemark>
<name>えんじゅ荘</name>
<description></description>
<Point>
<coordinates>140.30020141601562,38.69995880126953,0</coordinates>
</Point>
</Placemark>
<Placemark>
<name>中島</name>
<description></description>
<Point>
<coordinates>140.14085388183594,37.87296676635742,0</coordinates>
</Point>
</Placemark>
<Placemark>
<name>普門院口</name>
<description></description>
<Point>
<coordinates>140.1436004638672,37.866920471191406,0</coordinates>
</Point>
</Placemark>
<Placemark>
<name>関根小学校前</name>
<description></description>
<Point>
<coordinates>140.14859008789062,37.86405944824219,0</coordinates>
</Point>
</Placemark>
<Placemark>
<name>七渡</name>
<description></description>
<Point>
<coordinates>140.15719604492188,37.85975646972656,0</coordinates>
</Point>
</Placemark>
<Placemark>
<name>赤石川口</name>
<description></description>
<Point>
<coordinates>140.1538848876953,37.86052322387695,0</coordinates>
</Point>
</Placemark>
<Placemark>
<name>関根上</name>
<description></description>
<Point>
<coordinates>140.15037536621094,37.86264419555664,0</coordinates>
</Point>
</Placemark>
<Placemark>
<name>刈安</name>
<description></description>
<Point>
<coordinates>140.20803833007812,37.871795654296875,0</coordinates>
</Point>
</Placemark>
<Placemark>
<name>川越石</name>
<description></description>
<Point>
<coordinates>140.22378540039062,37.870506286621094,0</coordinates>
</Point>
</Placemark>
<Placemark>
<name>米沢スキー場前</name>
<description></description>
<Point>
<coordinates>140.2315216064453,37.86334228515625,0</coordinates>
</Point>
</Placemark>
<Placemark>
<name>三友堂病院前</name>
<description></description>
<Point>
<coordinates>140.10568237304688,37.919315338134766,0</coordinates>
</Point>
</Placemark>
<Placemark>
<name>冨本地区市民センター前</name>
<description></description>
<Point>
<coordinates>140.30545043945312,38.468589782714844,0</coordinates>
</Point>
</Placemark>
<Placemark>
<name>宝</name>
<description></description>
<Point>
<coordinates>140.3037872314453,38.472225189208984,0</coordinates>
</Point>
</Placemark>
<Placemark>
<name>湯野沢</name>
<description></description>
<Point>
<coordinates>140.3052978515625,38.47023391723633,0</coordinates>
</Point>
</Placemark>
<Placemark>
<name>下荒敷</name>
<description></description>
<Point>
<coordinates>140.30543518066406,38.466156005859375,0</coordinates>
</Point>
</Placemark>
<Placemark>
<name>特養「ふもと」前</name>
<description></description>
<Point>
<coordinates>140.30670166015625,38.463199615478516,0</coordinates>
</Point>
</Placemark>
<Placemark>
<name>千布局前</name>
<description></description>
<Point>
<coordinates>140.40524291992188,38.33734893798828,0</coordinates>
</Point>
</Placemark>
<Placemark>
<name>羽陽短大西口</name>
<description></description>
<Point>
<coordinates>140.3520965576172,38.333038330078125,0</coordinates>
</Point>
</Placemark>
<Placemark>
<name>にれの木団地口</name>
<description></description>
<Point>
<coordinates>140.34686279296875,38.33446502685547,0</coordinates>
</Point>
</Placemark>
<Placemark>
<name>八千代台公民館前</name>
<description></description>
<Point>
<coordinates>140.39503479003906,38.31452560424805,0</coordinates>
</Point>
</Placemark>
<Placemark>
<name>あこがれ前</name>
<description></description>
<Point>
<coordinates>140.3948211669922,38.32474136352539,0</coordinates>
</Point>
</Placemark>
<Placemark>
<name>幅</name>
<description></description>
<Point>
<coordinates>140.38662719726562,38.713783264160156,0</coordinates>
</Point>
</Placemark>
<Placemark>
<name>上長沢</name>
<description></description>
<Point>
<coordinates>140.3878631591797,38.720558166503906,0</coordinates>
</Point>
</Placemark>
<Placemark>
<name>大谷</name>
<description></description>
<Point>
<coordinates>140.3865509033203,38.711185455322266,0</coordinates>
</Point>
</Placemark>
<Placemark>
<name>長沢小前</name>
<description></description>
<Point>
<coordinates>140.37332153320312,38.709285736083984,0</coordinates>
</Point>
</Placemark>
<Placemark>
<name>横山</name>
<description></description>
<Point>
<coordinates>140.27606201171875,38.65262985229492,0</coordinates>
</Point>
</Placemark>
<Placemark>
<name>州崎橋前</name>
<description></description>
<Point>
<coordinates>140.27337646484375,38.658329010009766,0</coordinates>
</Point>
</Placemark>
<Placemark>
<name>実栗屋</name>
<description></description>
<Point>
<coordinates>140.2981414794922,38.659202575683594,0</coordinates>
</Point>
</Placemark>
<Placemark>
<name>伊豆神社前</name>
<description></description>
<Point>
<coordinates>140.27911376953125,38.66304016113281,0</coordinates>
</Point>
</Placemark>
<Placemark>
<name>堀内</name>
<description></description>
<Point>
<coordinates>140.27223205566406,38.66445541381836,0</coordinates>
</Point>
</Placemark>
<Placemark>
<name>沖の原</name>
<description></description>
<Point>
<coordinates>140.30575561523438,38.70033264160156,0</coordinates>
</Point>
</Placemark>
<Placemark>
<name>沖の原公前</name>
<description></description>
<Point>
<coordinates>140.3087921142578,38.70076370239258,0</coordinates>
</Point>
</Placemark>
<Placemark>
<name>八鍬商店前</name>
<description></description>
<Point>
<coordinates>140.3172149658203,38.7031135559082,0</coordinates>
</Point>
</Placemark>
<Placemark>
<name>土地改良区</name>
<description></description>
<Point>
<coordinates>140.31724548339844,38.70219039916992,0</coordinates>
</Point>
</Placemark>
<Placemark>
<name>若あゆ温泉</name>
<description></description>
<Point>
<coordinates>140.33831787109375,38.70814895629883,0</coordinates>
</Point>
</Placemark>
<Placemark>
<name>上一の関</name>
<description></description>
<Point>
<coordinates>140.3458709716797,38.699642181396484,0</coordinates>
</Point>
</Placemark>
<Placemark>
<name>挨拶橋左岸</name>
<description></description>
<Point>
<coordinates>140.3665008544922,38.70807647705078,0</coordinates>
</Point>
</Placemark>
<Placemark>
<name>長沢駅前</name>
<description></description>
<Point>
<coordinates>140.3657989501953,38.70948028564453,0</coordinates>
</Point>
</Placemark>
<Placemark>
<name>長尾</name>
<description></description>
<Point>
<coordinates>140.38323974609375,38.7191162109375,0</coordinates>
</Point>
</Placemark>
<Placemark>
<name>NHK前</name>
<description></description>
<Point>
<coordinates>140.3321075439453,38.25125503540039,0</coordinates>
</Point>
</Placemark>
<Placemark>
<name>山形駅前</name>
<description></description>
<Point>
<coordinates>140.32852172851562,38.24906539916992,0</coordinates>
</Point>
</Placemark>
<Placemark>
<name>山形センタービル前</name>
<description></description>
<Point>
<coordinates>140.33070373535156,38.2473030090332,0</coordinates>
</Point>
</Placemark>
<Placemark>
<name>すずらん街</name>
<description></description>
<Point>
<coordinates>140.33094787597656,38.24912643432617,0</coordinates>
</Point>
</Placemark>
<Placemark>
<name>鈴川ことぶき荘</name>
<description></description>
<Point>
<coordinates>140.36221313476562,38.26974868774414,0</coordinates>
</Point>
</Placemark>
<Placemark>
<name>風間入口</name>
<description></description>
<Point>
<coordinates>140.36610412597656,38.294063568115234,0</coordinates>
</Point>
</Placemark>
<Placemark>
<name>旅篭町四辻</name>
<description></description>
<Point>
<coordinates>140.3363037109375,38.25502395629883,0</coordinates>
</Point>
</Placemark>
<Placemark>
<name>済生館前</name>
<description></description>
<Point>
<coordinates>140.33656311035156,38.25318908691406,0</coordinates>
</Point>
</Placemark>
<Placemark>
<name>霞城公園前</name>
<description></description>
<Point>
<coordinates>140.3333740234375,38.25352096557617,0</coordinates>
</Point>
</Placemark>
<Placemark>
<name>東北中央病院</name>
<description></description>
<Point>
<coordinates>140.36131286621094,38.26056671142578,0</coordinates>
</Point>
</Placemark>
<Placemark>
<name>旅篭町二丁目</name>
<description></description>
<Point>
<coordinates>140.33836364746094,38.25433349609375,0</coordinates>
</Point>
</Placemark>
<Placemark>
<name>風間</name>
<description></description>
<Point>
<coordinates>140.3705596923828,38.299652099609375,0</coordinates>
</Point>
</Placemark>
<Placemark>
<name>元高瀬公民館前</name>
<description></description>
<Point>
<coordinates>140.4031219482422,38.29383087158203,0</coordinates>
</Point>
</Placemark>
<Placemark>
<name>休石八幡神社前</name>
<description></description>
<Point>
<coordinates>140.40635681152344,38.29005432128906,0</coordinates>
</Point>
</Placemark>
<Placemark>
<name>下切畑集会所前</name>
<description></description>
<Point>
<coordinates>140.40306091308594,38.28834915161133,0</coordinates>
</Point>
</Placemark>
<Placemark>
<name>上切畑神明神社前</name>
<description></description>
<Point>
<coordinates>140.4038848876953,38.28287124633789,0</coordinates>
</Point>
</Placemark>
<Placemark>
<name>上蔦の木多目的集会所前</name>
<description></description>
<Point>
<coordinates>140.4088592529297,38.280860900878906,0</coordinates>
</Point>
</Placemark>
<Placemark>
<name>蔦の木十字路</name>
<description></description>
<Point>
<coordinates>140.4087371826172,38.28208923339844,0</coordinates>
</Point>
</Placemark>
<Placemark>
<name>平石水</name>
<description></description>
<Point>
<coordinates>140.41326904296875,38.27470016479492,0</coordinates>
</Point>
</Placemark>
<Placemark>
<name>平石水公民館前</name>
<description></description>
<Point>
<coordinates>140.41856384277344,38.274269104003906,0</coordinates>
</Point>
</Placemark>
<Placemark>
<name>高沢</name>
<description></description>
<Point>
<coordinates>140.4307098388672,38.27569580078125,0</coordinates>
</Point>
</Placemark>
<Placemark>
<name>高楯保育園前</name>
<description></description>
<Point>
<coordinates>140.3766632080078,38.30327224731445,0</coordinates>
</Point>
</Placemark>
<Placemark>
<name>高瀬小学校前</name>
<description></description>
<Point>
<coordinates>140.4003143310547,38.29545593261719,0</coordinates>
</Point>
</Placemark>
<Placemark>
<name>高瀬農協前</name>
<description></description>
<Point>
<coordinates>140.39959716796875,38.29625701904297,0</coordinates>
</Point>
</Placemark>
<Placemark>
<name>高瀬駅前</name>
<description></description>
<Point>
<coordinates>140.3954315185547,38.300113677978516,0</coordinates>
</Point>
</Placemark>
<Placemark>
<name>大森</name>
<description></description>
<Point>
<coordinates>140.3911895751953,38.3041877746582,0</coordinates>
</Point>
</Placemark>
<Placemark>
<name>二本堂</name>
<description></description>
<Point>
<coordinates>140.38938903808594,38.30287551879883,0</coordinates>
</Point>
</Placemark>
<Placemark>
<name>高楯中学校前</name>
<description></description>
<Point>
<coordinates>140.3805389404297,38.302146911621094,0</coordinates>
</Point>
</Placemark>
<Placemark>
<name>中里</name>
<description></description>
<Point>
<coordinates>140.38497924804688,38.30128479003906,0</coordinates>
</Point>
</Placemark>
<Placemark>
<name>田中</name>
<description></description>
<Point>
<coordinates>140.3935089111328,38.30262756347656,0</coordinates>
</Point>
</Placemark>
<Placemark>
<name>下蔦の木公民館前</name>
<description></description>
<Point>
<coordinates>140.40895080566406,38.284969329833984,0</coordinates>
</Point>
</Placemark>
<Placemark>
<name>十字屋前</name>
<description></description>
<Point>
<coordinates>140.32919311523438,38.247737884521484,0</coordinates>
</Point>
</Placemark>
<Placemark>
<name>3中前</name>
<description></description>
<Point>
<coordinates>140.07408142089844,37.91291809082031,0</coordinates>
</Point>
</Placemark>
<Placemark>
<name>福田町西</name>
<description></description>
<Point>
<coordinates>140.1146240234375,37.90274429321289,0</coordinates>
</Point>
</Placemark>
<Placemark>
<name>福田町1丁目</name>
<description></description>
<Point>
<coordinates>140.1203155517578,37.90121841430664,0</coordinates>
</Point>
</Placemark>
<Placemark>
<name>住之江橋</name>
<description></description>
<Point>
<coordinates>140.1170196533203,37.91120529174805,0</coordinates>
</Point>
</Placemark>
<Placemark>
<name>御廟前</name>
<description></description>
<Point>
<coordinates>140.09408569335938,37.911865234375,0</coordinates>
</Point>
</Placemark>
<Placemark>
<name>中央3丁目</name>
<description></description>
<Point>
<coordinates>140.11041259765625,37.91783142089844,0</coordinates>
</Point>
</Placemark>
<Placemark>
<name>舘山1丁目</name>
<description></description>
<Point>
<coordinates>140.0792999267578,37.91252517700195,0</coordinates>
</Point>
</Placemark>
<Placemark>
<name>下矢子</name>
<description></description>
<Point>
<coordinates>140.0605010986328,37.91514587402344,0</coordinates>
</Point>
</Placemark>
<Placemark>
<name>福田町2丁目</name>
<description></description>
<Point>
<coordinates>140.11740112304688,37.90201950073242,0</coordinates>
</Point>
</Placemark>
<Placemark>
<name>大町1丁目</name>
<description></description>
<Point>
<coordinates>140.11154174804688,37.903987884521484,0</coordinates>
</Point>
</Placemark>
<Placemark>
<name>相生町南</name>
<description></description>
<Point>
<coordinates>140.1151123046875,37.904396057128906,0</coordinates>
</Point>
</Placemark>
<Placemark>
<name>松が岬</name>
<description></description>
<Point>
<coordinates>140.10169982910156,37.911434173583984,0</coordinates>
</Point>
</Placemark>
<Placemark>
<name>城西町</name>
<description></description>
<Point>
<coordinates>140.0986328125,37.91163635253906,0</coordinates>
</Point>
</Placemark>
<Placemark>
<name>門東町3丁目</name>
<description></description>
<Point>
<coordinates>140.1103057861328,37.91244125366211,0</coordinates>
</Point>
</Placemark>
<Placemark>
<name>中央1丁目</name>
<description></description>
<Point>
<coordinates>140.1110076904297,37.91501998901367,0</coordinates>
</Point>
</Placemark>
<Placemark>
<name>中央4丁目</name>
<description></description>
<Point>
<coordinates>140.1083984375,37.91899490356445,0</coordinates>
</Point>
</Placemark>
<Placemark>
<name>興譲小前</name>
<description></description>
<Point>
<coordinates>140.10665893554688,37.91280746459961,0</coordinates>
</Point>
</Placemark>
<Placemark>
<name>舘山発電所前</name>
<description></description>
<Point>
<coordinates>140.06642150878906,37.91407012939453,0</coordinates>
</Point>
</Placemark>
<Placemark>
<name>中矢来</name>
<description></description>
<Point>
<coordinates>140.08441162109375,37.91237258911133,0</coordinates>
</Point>
</Placemark>
<Placemark>
<name>矢来</name>
<description></description>
<Point>
<coordinates>140.08897399902344,37.912132263183594,0</coordinates>
</Point>
</Placemark>
<Placemark>
<name>上杉神社前</name>
<description></description>
<Point>
<coordinates>140.1079559326172,37.908409118652344,0</coordinates>
</Point>
</Placemark>
<Placemark>
<name>大町上</name>
<description></description>
<Point>
<coordinates>140.111572265625,37.907779693603516,0</coordinates>
</Point>
</Placemark>
<Placemark>
<name>市立病院前</name>
<description></description>
<Point>
<coordinates>140.119384765625,37.90373611450195,0</coordinates>
</Point>
</Placemark>
<Placemark>
<name>大町</name>
<description></description>
<Point>
<coordinates>140.1127471923828,37.91187286376953,0</coordinates>
</Point>
</Placemark>
<Placemark>
<name>北村公園西</name>
<description></description>
<Point>
<coordinates>140.11544799804688,37.91803741455078,0</coordinates>
</Point>
</Placemark>
<Placemark>
<name>相生橋西</name>
<description></description>
<Point>
<coordinates>140.11749267578125,37.90782928466797,0</coordinates>
</Point>
</Placemark>
<Placemark>
<name>山大正門</name>
<description></description>
<Point>
<coordinates>140.10543823242188,37.901512145996094,0</coordinates>
</Point>
</Placemark>
<Placemark>
<name>二中前</name>
<description></description>
<Point>
<coordinates>140.09967041015625,37.902503967285156,0</coordinates>
</Point>
</Placemark>
<Placemark>
<name>愛宕小前</name>
<description></description>
<Point>
<coordinates>140.09564208984375,37.90461349487305,0</coordinates>
</Point>
</Placemark>
<Placemark>
<name>西部幼稚園前</name>
<description></description>
<Point>
<coordinates>140.09300231933594,37.908809661865234,0</coordinates>
</Point>
</Placemark>
<Placemark>
<name>御廟所西口</name>
<description></description>
<Point>
<coordinates>140.09042358398438,37.912940979003906,0</coordinates>
</Point>
</Placemark>
<Placemark>
<name>城西郵便局前</name>
<description></description>
<Point>
<coordinates>140.09542846679688,37.91611862182617,0</coordinates>
</Point>
</Placemark>
<Placemark>
<name>すこやかセンター</name>
<description></description>
<Point>
<coordinates>140.09925842285156,37.91716766357422,0</coordinates>
</Point>
</Placemark>
<Placemark>
<name>法泉寺西</name>
<description></description>
<Point>
<coordinates>140.10105895996094,37.91577911376953,0</coordinates>
</Point>
</Placemark>
<Placemark>
<name>NTT前</name>
<description></description>
<Point>
<coordinates>140.1068572998047,37.915401458740234,0</coordinates>
</Point>
</Placemark>
<Placemark>
<name>金池1丁目</name>
<description></description>
<Point>
<coordinates>140.1141357421875,37.91709899902344,0</coordinates>
</Point>
</Placemark>
<Placemark>
<name>文化センター南</name>
<description></description>
<Point>
<coordinates>140.11732482910156,37.919288635253906,0</coordinates>
</Point>
</Placemark>
<Placemark>
<name>通町1丁目</name>
<description></description>
<Point>
<coordinates>140.1320343017578,37.88563537597656,0</coordinates>
</Point>
</Placemark>
<Placemark>
<name>通町5丁目</name>
<description></description>
<Point>
<coordinates>140.12734985351562,37.89582061767578,0</coordinates>
</Point>
</Placemark>
<Placemark>
<name>通町7丁目</name>
<description></description>
<Point>
<coordinates>140.1261444091797,37.89750671386719,0</coordinates>
</Point>
</Placemark>
<Placemark>
<name>東大通</name>
<description></description>
<Point>
<coordinates>140.13238525390625,37.90361404418945,0</coordinates>
</Point>
</Placemark>
<Placemark>
<name>木場</name>
<description></description>
<Point>
<coordinates>140.18197631835938,37.88685989379883,0</coordinates>
</Point>
</Placemark>
<Placemark>
<name>松林寺口</name>
<description></description>
<Point>
<coordinates>140.17068481445312,37.891700744628906,0</coordinates>
</Point>
</Placemark>
<Placemark>
<name>テクノセンター前</name>
<description></description>
<Point>
<coordinates>140.16558837890625,37.90298843383789,0</coordinates>
</Point>
</Placemark>
<Placemark>
<name>桑山団地中</name>
<description></description>
<Point>
<coordinates>140.1531982421875,37.90359115600586,0</coordinates>
</Point>
</Placemark>
<Placemark>
<name>下原</name>
<description></description>
<Point>
<coordinates>140.1343536376953,37.88168716430664,0</coordinates>
</Point>
</Placemark>
<Placemark>
<name>米沢女子短大前</name>
<description></description>
<Point>
<coordinates>140.12454223632812,37.891334533691406,0</coordinates>
</Point>
</Placemark>
<Placemark>
<name>桑山団地口</name>
<description></description>
<Point>
<coordinates>140.14703369140625,37.898841857910156,0</coordinates>
</Point>
</Placemark>
<Placemark>
<name>片子</name>
<description></description>
<Point>
<coordinates>140.13734436035156,37.90095138549805,0</coordinates>
</Point>
</Placemark>
<Placemark>
<name>桑山公園前</name>
<description></description>
<Point>
<coordinates>140.15103149414062,37.902645111083984,0</coordinates>
</Point>
</Placemark>
<Placemark>
<name>桑山団地西</name>
<description></description>
<Point>
<coordinates>140.14996337890625,37.90132141113281,0</coordinates>
</Point>
</Placemark>
<Placemark>
<name>東1丁目</name>
<description></description>
<Point>
<coordinates>140.1273193359375,37.90618896484375,0</coordinates>
</Point>
</Placemark>
<Placemark>
<name>常信庵前</name>
<description></description>
<Point>
<coordinates>140.12277221679688,37.909156799316406,0</coordinates>
</Point>
</Placemark>
<Placemark>
<name>駅前2丁目</name>
<description></description>
<Point>
<coordinates>140.1252899169922,37.90928649902344,0</coordinates>
</Point>
</Placemark>
<Placemark>
<name>米沢待合所</name>
<description></description>
<Point>
<coordinates>140.1237030029297,37.910282135009766,0</coordinates>
</Point>
</Placemark>
<Placemark>
<name>駅前4丁目</name>
<description></description>
<Point>
<coordinates>140.121826171875,37.9106330871582,0</coordinates>
</Point>
</Placemark>
<Placemark>
<name>梓山</name>
<description></description>
<Point>
<coordinates>140.1773223876953,37.88907241821289,0</coordinates>
</Point>
</Placemark>
<Placemark>
<name>工業団地入口</name>
<description></description>
<Point>
<coordinates>140.1630859375,37.895851135253906,0</coordinates>
</Point>
</Placemark>
<Placemark>
<name>万世小学校前</name>
<description></description>
<Point>
<coordinates>140.16290283203125,37.902706146240234,0</coordinates>
</Point>
</Placemark>
<Placemark>
<name>通町8丁目</name>
<description></description>
<Point>
<coordinates>140.123779296875,37.90013122558594,0</coordinates>
</Point>
</Placemark>
<Placemark>
<name>牛森</name>
<description></description>
<Point>
<coordinates>140.16000366210938,37.902896881103516,0</coordinates>
</Point>
</Placemark>
<Placemark>
<name>金谷口</name>
<description></description>
<Point>
<coordinates>140.14747619628906,37.90144729614258,0</coordinates>
</Point>
</Placemark>
<Placemark>
<name>米沢女子短大口</name>
<description></description>
<Point>
<coordinates>140.1295166015625,37.892662048339844,0</coordinates>
</Point>
</Placemark>
<Placemark>
<name>通町3丁目</name>
<description></description>
<Point>
<coordinates>140.13038635253906,37.88868713378906,0</coordinates>
</Point>
</Placemark>
<Placemark>
<name>梓神社前</name>
<description></description>
<Point>
<coordinates>140.1671142578125,37.89323806762695,0</coordinates>
</Point>
</Placemark>
<Placemark>
<name>松原</name>
<description></description>
<Point>
<coordinates>140.13824462890625,37.885196685791016,0</coordinates>
</Point>
</Placemark>
<Placemark>
<name>国立米沢病院前</name>
<description></description>
<Point>
<coordinates>140.13919067382812,37.883792877197266,0</coordinates>
</Point>
</Placemark>
<Placemark>
<name>米工前</name>
<description></description>
<Point>
<coordinates>140.14605712890625,37.91621017456055,0</coordinates>
</Point>
</Placemark>
<Placemark>
<name>中央5丁目</name>
<description></description>
<Point>
<coordinates>140.10934448242188,37.92012405395508,0</coordinates>
</Point>
</Placemark>
<Placemark>
<name>米沢市役所前</name>
<description></description>
<Point>
<coordinates>140.11624145507812,37.92142868041992,0</coordinates>
</Point>
</Placemark>
<Placemark>
<name>春日1丁目</name>
<description></description>
<Point>
<coordinates>140.1106414794922,37.921913146972656,0</coordinates>
</Point>
</Placemark>
<Placemark>
<name>社会保険事務所西</name>
<description></description>
<Point>
<coordinates>140.1125030517578,37.922035217285156,0</coordinates>
</Point>
</Placemark>
<Placemark>
<name>サティ前</name>
<description></description>
<Point>
<coordinates>140.10743713378906,37.9228401184082,0</coordinates>
</Point>
</Placemark>
<Placemark>
<name>北部集会所前</name>
<description></description>
<Point>
<coordinates>140.10267639160156,37.92323684692383,0</coordinates>
</Point>
</Placemark>
<Placemark>
<name>信夫町</name>
<description></description>
<Point>
<coordinates>140.10040283203125,37.92265319824219,0</coordinates>
</Point>
</Placemark>
<Placemark>
<name>7中前</name>
<description></description>
<Point>
<coordinates>140.1458740234375,37.922061920166016,0</coordinates>
</Point>
</Placemark>
<Placemark>
<name>塩地平</name>
<description></description>
<Point>
<coordinates>139.99459838867188,37.84880828857422,0</coordinates>
</Point>
</Placemark>
<Placemark>
<name>戸長里</name>
<description></description>
<Point>
<coordinates>139.98741149902344,37.882957458496094,0</coordinates>
</Point>
</Placemark>
<Placemark>
<name>藤沢</name>
<description></description>
<Point>
<coordinates>139.98382568359375,37.87846374511719,0</coordinates>
</Point>
</Placemark>
<Placemark>
<name>白夫平</name>
<description></description>
<Point>
<coordinates>139.98251342773438,37.87214279174805,0</coordinates>
</Point>
</Placemark>
<Placemark>
<name>新屋敷</name>
<description></description>
<Point>
<coordinates>139.99412536621094,37.8875846862793,0</coordinates>
</Point>
</Placemark>
<Placemark>
<name>水沢</name>
<description></description>
<Point>
<coordinates>139.98785400390625,37.860103607177734,0</coordinates>
</Point>
</Placemark>
<Placemark>
<name>持原</name>
<description></description>
<Point>
<coordinates>139.98907470703125,37.885108947753906,0</coordinates>
</Point>
</Placemark>
<Placemark>
<name>唐原口</name>
<description></description>
<Point>
<coordinates>140.00277709960938,37.890525817871094,0</coordinates>
</Point>
</Placemark>
<Placemark>
<name>神原</name>
<description></description>
<Point>
<coordinates>140.00631713867188,37.89081954956055,0</coordinates>
</Point>
</Placemark>
<Placemark>
<name>神原下</name>
<description></description>
<Point>
<coordinates>140.00978088378906,37.89252471923828,0</coordinates>
</Point>
</Placemark>
<Placemark>
<name>上中原</name>
<description></description>
<Point>
<coordinates>140.01434326171875,37.89478302001953,0</coordinates>
</Point>
</Placemark>
<Placemark>
<name>中原</name>
<description></description>
<Point>
<coordinates>140.02076721191406,37.89887237548828,0</coordinates>
</Point>
</Placemark>
<Placemark>
<name>神原上</name>
<description></description>
<Point>
<coordinates>139.9993438720703,37.89093780517578,0</coordinates>
</Point>
</Placemark>
<Placemark>
<name>上の町</name>
<description></description>
<Point>
<coordinates>140.02960205078125,37.906761169433594,0</coordinates>
</Point>
</Placemark>
<Placemark>
<name>口田沢局前</name>
<description></description>
<Point>
<coordinates>140.0334930419922,37.908172607421875,0</coordinates>
</Point>
</Placemark>
<Placemark>
<name>下の町</name>
<description></description>
<Point>
<coordinates>140.03811645507812,37.909637451171875,0</coordinates>
</Point>
</Placemark>
<Placemark>
<name>潜清水</name>
<description></description>
<Point>
<coordinates>140.04701232910156,37.912376403808594,0</coordinates>
</Point>
</Placemark>
<Placemark>
<name>矢子</name>
<description></description>
<Point>
<coordinates>140.05300903320312,37.91464614868164,0</coordinates>
</Point>
</Placemark>
<Placemark>
<name>福祉の里入口</name>
<description></description>
<Point>
<coordinates>140.1938934326172,37.8841438293457,0</coordinates>
</Point>
</Placemark>
<Placemark>
<name>梓川</name>
<description></description>
<Point>
<coordinates>140.18898010253906,37.884151458740234,0</coordinates>
</Point>
</Placemark>
<Placemark>
<name>西部公民館前</name>
<description></description>
<Point>
<coordinates>140.09014892578125,37.915496826171875,0</coordinates>
</Point>
</Placemark>
<Placemark>
<name>城南2丁目</name>
<description></description>
<Point>
<coordinates>140.1071014404297,37.90304183959961,0</coordinates>
</Point>
</Placemark>
<Placemark>
<name>県営相生アパート東</name>
<description></description>
<Point>
<coordinates>140.1169891357422,37.905799865722656,0</coordinates>
</Point>
</Placemark>
<Placemark>
<name>舘山局前</name>
<description></description>
<Point>
<coordinates>140.0753936767578,37.912574768066406,0</coordinates>
</Point>
</Placemark>
<Placemark>
<name>桑山団地東</name>
<description></description>
<Point>
<coordinates>140.15679931640625,37.90326690673828,0</coordinates>
</Point>
</Placemark>
<Placemark>
<name>山根入口</name>
<description></description>
<Point>
<coordinates>140.025390625,37.9027214050293,0</coordinates>
</Point>
</Placemark>
<Placemark>
<name>片町南</name>
<description></description>
<Point>
<coordinates>139.95700073242188,38.86012649536133,0</coordinates>
</Point>
</Placemark>
<Placemark>
<name>片町北</name>
<description></description>
<Point>
<coordinates>139.96031188964844,38.86334991455078,0</coordinates>
</Point>
</Placemark>
<Placemark>
<name>車庫</name>
<description></description>
<Point>
<coordinates>139.95516967773438,38.857608795166016,0</coordinates>
</Point>
</Placemark>
<Placemark>
<name>最上学園前</name>
<description></description>
<Point>
<coordinates>140.2970428466797,38.750328063964844,0</coordinates>
</Point>
</Placemark>
<Placemark>
<name>松枝</name>
<description></description>
<Point>
<coordinates>140.30116271972656,38.750911712646484,0</coordinates>
</Point>
</Placemark>
<Placemark>
<name>本宮町</name>
<description></description>
<Point>
<coordinates>140.29571533203125,38.74627685546875,0</coordinates>
</Point>
</Placemark>
<Placemark>
<name>角沢</name>
<description></description>
<Point>
<coordinates>140.28306579589844,38.73070526123047,0</coordinates>
</Point>
</Placemark>
<Placemark>
<name>角沢公民館前</name>
<description></description>
<Point>
<coordinates>140.28195190429688,38.72911834716797,0</coordinates>
</Point>
</Placemark>
<Placemark>
<name>一本杉</name>
<description></description>
<Point>
<coordinates>140.28485107421875,38.733245849609375,0</coordinates>
</Point>
</Placemark>
<Placemark>
<name>東高前</name>
<description></description>
<Point>
<coordinates>140.2926025390625,38.7440299987793,0</coordinates>
</Point>
</Placemark>
<Placemark>
<name>野際団地前</name>
<description></description>
<Point>
<coordinates>140.28955078125,38.7431755065918,0</coordinates>
</Point>
</Placemark>
<Placemark>
<name>沖の町</name>
<description></description>
<Point>
<coordinates>140.30169677734375,38.76332473754883,0</coordinates>
</Point>
</Placemark>
<Placemark>
<name>北本町</name>
<description></description>
<Point>
<coordinates>140.30128479003906,38.76700210571289,0</coordinates>
</Point>
</Placemark>
<Placemark>
<name>南本町十字路</name>
<description></description>
<Point>
<coordinates>140.2991943359375,38.763248443603516,0</coordinates>
</Point>
</Placemark>
<Placemark>
<name>万場町</name>
<description></description>
<Point>
<coordinates>140.3018341064453,38.77079772949219,0</coordinates>
</Point>
</Placemark>
<Placemark>
<name>円満寺入口</name>
<description></description>
<Point>
<coordinates>140.30789184570312,38.771507263183594,0</coordinates>
</Point>
</Placemark>
<Placemark>
<name>円満寺</name>
<description></description>
<Point>
<coordinates>140.30776977539062,38.77292251586914,0</coordinates>
</Point>
</Placemark>
<Placemark>
<name>新庄駅前</name>
<description></description>
<Point>
<coordinates>140.30508422851562,38.76243209838867,0</coordinates>
</Point>
</Placemark>
<Placemark>
<name>県立病院前</name>
<description></description>
<Point>
<coordinates>140.30221557617188,38.75957489013672,0</coordinates>
</Point>
</Placemark>
<Placemark>
<name>南本町</name>
<description></description>
<Point>
<coordinates>140.30020141601562,38.764896392822266,0</coordinates>
</Point>
</Placemark>
<Placemark>
<name>金沢</name>
<description></description>
<Point>
<coordinates>140.3024444580078,38.75477600097656,0</coordinates>
</Point>
</Placemark>
<Placemark>
<name>鉄砲町</name>
<description></description>
<Point>
<coordinates>140.29852294921875,38.75909423828125,0</coordinates>
</Point>
</Placemark>
<Placemark>
<name>中山</name>
<description></description>
<Point>
<coordinates>140.3201141357422,38.78757095336914,0</coordinates>
</Point>
</Placemark>
<Placemark>
<name>中山入口</name>
<description></description>
<Point>
<coordinates>140.31744384765625,38.783992767333984,0</coordinates>
</Point>
</Placemark>
<Placemark>
<name>小泉入口</name>
<description></description>
<Point>
<coordinates>140.3243865966797,38.79189682006836,0</coordinates>
</Point>
</Placemark>
<Placemark>
<name>一本柳</name>
<description></description>
<Point>
<coordinates>140.3148193359375,38.78076171875,0</coordinates>
</Point>
</Placemark>
<Placemark>
<name>公民館前</name>
<description></description>
<Point>
<coordinates>140.32200622558594,38.789913177490234,0</coordinates>
</Point>
</Placemark>
<Placemark>
<name>芦沢</name>
<description></description>
<Point>
<coordinates>140.2751922607422,38.70991516113281,0</coordinates>
</Point>
</Placemark>
<Placemark>
<name>志津</name>
<description></description>
<Point>
<coordinates>140.27479553222656,38.71970748901367,0</coordinates>
</Point>
</Placemark>
<Placemark>
<name>芦沢公民館前</name>
<description></description>
<Point>
<coordinates>140.27487182617188,38.711978912353516,0</coordinates>
</Point>
</Placemark>
<Placemark>
<name>仁田山橋</name>
<description></description>
<Point>
<coordinates>140.3639678955078,38.823482513427734,0</coordinates>
</Point>
</Placemark>
<Placemark>
<name>吉沢</name>
<description></description>
<Point>
<coordinates>140.34744262695312,38.80537414550781,0</coordinates>
</Point>
</Placemark>
<Placemark>
<name>水上</name>
<description></description>
<Point>
<coordinates>140.36257934570312,38.816951751708984,0</coordinates>
</Point>
</Placemark>
<Placemark>
<name>仁田山</name>
<description></description>
<Point>
<coordinates>140.36387634277344,38.82923126220703,0</coordinates>
</Point>
</Placemark>
<Placemark>
<name>上野</name>
<description></description>
<Point>
<coordinates>140.35702514648438,38.81239318847656,0</coordinates>
</Point>
</Placemark>
<Placemark>
<name>六軒屋</name>
<description></description>
<Point>
<coordinates>140.3325958251953,38.79668426513672,0</coordinates>
</Point>
</Placemark>
<Placemark>
<name>萩野たばこ屋前</name>
<description></description>
<Point>
<coordinates>140.36077880859375,38.81476974487305,0</coordinates>
</Point>
</Placemark>
<Placemark>
<name>朴沢</name>
<description></description>
<Point>
<coordinates>140.38388061523438,38.84067153930664,0</coordinates>
</Point>
</Placemark>
<Placemark>
<name>黒岩</name>
<description></description>
<Point>
<coordinates>140.3883819580078,38.843292236328125,0</coordinates>
</Point>
</Placemark>
<Placemark>
<name>土内</name>
<description></description>
<Point>
<coordinates>140.39572143554688,38.848506927490234,0</coordinates>
</Point>
</Placemark>
<Placemark>
<name>二枚橋</name>
<description></description>
<Point>
<coordinates>140.35400390625,38.84070587158203,0</coordinates>
</Point>
</Placemark>
<Placemark>
<name>小泉</name>
<description></description>
<Point>
<coordinates>140.33447265625,38.79110336303711,0</coordinates>
</Point>
</Placemark>
<Placemark>
<name>格納庫前</name>
<description></description>
<Point>
<coordinates>140.35867309570312,38.813724517822266,0</coordinates>
</Point>
</Placemark>
<Placemark>
<name>萩野小学校前</name>
<description></description>
<Point>
<coordinates>140.3608856201172,38.81313705444336,0</coordinates>
</Point>
</Placemark>
<Placemark>
<name>東宮新橋</name>
<description></description>
<Point>
<coordinates>140.28211975097656,38.145416259765625,0</coordinates>
</Point>
</Placemark>
<Placemark>
<name>南小学校前</name>
<description></description>
<Point>
<coordinates>140.2733154296875,38.149383544921875,0</coordinates>
</Point>
</Placemark>
<Placemark>
<name>矢来三丁目</name>
<description></description>
<Point>
<coordinates>140.27496337890625,38.15087127685547,0</coordinates>
</Point>
</Placemark>
<Placemark>
<name>河崎温泉</name>
<description></description>
<Point>
<coordinates>140.2657470703125,38.15152359008789,0</coordinates>
</Point>
</Placemark>
<Placemark>
<name>鷺ヶ袋</name>
<description></description>
<Point>
<coordinates>140.28921508789062,38.16507339477539,0</coordinates>
</Point>
</Placemark>
<Placemark>
<name>松山</name>
<description></description>
<Point>
<coordinates>140.2676544189453,38.15647888183594,0</coordinates>
</Point>
</Placemark>
<Placemark>
<name>新丁坂下</name>
<description></description>
<Point>
<coordinates>140.2825469970703,38.1606559753418,0</coordinates>
</Point>
</Placemark>
<Placemark>
<name>浴場前</name>
<description></description>
<Point>
<coordinates>140.2812042236328,38.15968322753906,0</coordinates>
</Point>
</Placemark>
<Placemark>
<name>矢来四丁目</name>
<description></description>
<Point>
<coordinates>140.2790985107422,38.14643478393555,0</coordinates>
</Point>
</Placemark>
<Placemark>
<name>高松葉山</name>
<description></description>
<Point>
<coordinates>140.2655792236328,38.14927673339844,0</coordinates>
</Point>
</Placemark>
<Placemark>
<name>上山城口</name>
<description></description>
<Point>
<coordinates>140.27684020996094,38.155757904052734,0</coordinates>
</Point>
</Placemark>
<Placemark>
<name>湯町角</name>
<description></description>
<Point>
<coordinates>140.2790985107422,38.158447265625,0</coordinates>
</Point>
</Placemark>
<Placemark>
<name>こだま橋</name>
<description></description>
<Point>
<coordinates>140.29811096191406,38.16545867919922,0</coordinates>
</Point>
</Placemark>
<Placemark>
<name>カミン前</name>
<description></description>
<Point>
<coordinates>140.27577209472656,38.1544189453125,0</coordinates>
</Point>
</Placemark>
<Placemark>
<name>市役所</name>
<description></description>
<Point>
<coordinates>140.26739501953125,38.1502799987793,0</coordinates>
</Point>
</Placemark>
<Placemark>
<name>みなみ保育園前</name>
<description></description>
<Point>
<coordinates>140.27069091796875,38.14973068237305,0</coordinates>
</Point>
</Placemark>
<Placemark>
<name>カミン角</name>
<description></description>
<Point>
<coordinates>140.27691650390625,38.15483093261719,0</coordinates>
</Point>
</Placemark>
<Placemark>
<name>長寿園前</name>
<description></description>
<Point>
<coordinates>140.3003692626953,38.16455841064453,0</coordinates>
</Point>
</Placemark>
<Placemark>
<name>西山口</name>
<description></description>
<Point>
<coordinates>140.27175903320312,38.15871047973633,0</coordinates>
</Point>
</Placemark>
<Placemark>
<name>新湯</name>
<description></description>
<Point>
<coordinates>140.27395629882812,38.15617370605469,0</coordinates>
</Point>
</Placemark>
<Placemark>
<name>金生北</name>
<description></description>
<Point>
<coordinates>140.2842559814453,38.14582824707031,0</coordinates>
</Point>
</Placemark>
<Placemark>
<name>金生一丁目</name>
<description></description>
<Point>
<coordinates>140.2843780517578,38.1476936340332,0</coordinates>
</Point>
</Placemark>
<Placemark>
<name>蟹仙洞前</name>
<description></description>
<Point>
<coordinates>140.27969360351562,38.14992141723633,0</coordinates>
</Point>
</Placemark>
<Placemark>
<name>美咲町</name>
<description></description>
<Point>
<coordinates>140.2808837890625,38.15196990966797,0</coordinates>
</Point>
</Placemark>
<Placemark>
<name>高野口</name>
<description></description>
<Point>
<coordinates>140.3150177001953,38.1589241027832,0</coordinates>
</Point>
</Placemark>
<Placemark>
<name>中川農協前</name>
<description></description>
<Point>
<coordinates>140.3119354248047,38.16090774536133,0</coordinates>
</Point>
</Placemark>
<Placemark>
<name>高原橋</name>
<description></description>
<Point>
<coordinates>140.3675537109375,38.12985610961914,0</coordinates>
</Point>
</Placemark>
<Placemark>
<name>蔵王</name>
<description></description>
<Point>
<coordinates>140.3626708984375,38.131858825683594,0</coordinates>
</Point>
</Placemark>
<Placemark>
<name>上野原</name>
<description></description>
<Point>
<coordinates>140.353759765625,38.13343048095703,0</coordinates>
</Point>
</Placemark>
<Placemark>
<name>上永野</name>
<description></description>
<Point>
<coordinates>140.34002685546875,38.14053726196289,0</coordinates>
</Point>
</Placemark>
<Placemark>
<name>永野</name>
<description></description>
<Point>
<coordinates>140.33773803710938,38.14179992675781,0</coordinates>
</Point>
</Placemark>
<Placemark>
<name>下永野</name>
<description></description>
<Point>
<coordinates>140.3357696533203,38.14377975463867,0</coordinates>
</Point>
</Placemark>
<Placemark>
<name>片宿</name>
<description></description>
<Point>
<coordinates>140.3334503173828,38.14744567871094,0</coordinates>
</Point>
</Placemark>
<Placemark>
<name>薄沢</name>
<description></description>
<Point>
<coordinates>140.32550048828125,38.15259552001953,0</coordinates>
</Point>
</Placemark>
<Placemark>
<name>高野</name>
<description></description>
<Point>
<coordinates>140.31793212890625,38.15679931640625,0</coordinates>
</Point>
</Placemark>
<Placemark>
<name>田形口</name>
<description></description>
<Point>
<coordinates>140.3559112548828,38.13298416137695,0</coordinates>
</Point>
</Placemark>
<Placemark>
<name>甲石</name>
<description></description>
<Point>
<coordinates>140.30970764160156,38.161930084228516,0</coordinates>
</Point>
</Placemark>
<Placemark>
<name>みゆき会病院</name>
<description></description>
<Point>
<coordinates>140.2930145263672,38.169105529785156,0</coordinates>
</Point>
</Placemark>
<Placemark>
<name>金生住宅前</name>
<description></description>
<Point>
<coordinates>140.27932739257812,38.15361785888672,0</coordinates>
</Point>
</Placemark>
<Placemark>
<name>青山医院</name>
<description></description>
<Point>
<coordinates>140.27857971191406,38.154685974121094,0</coordinates>
</Point>
</Placemark>
<Placemark>
<name>カミン（図書館）</name>
<description></description>
<Point>
<coordinates>140.2763671875,38.15513229370117,0</coordinates>
</Point>
</Placemark>
<Placemark>
<name>かみのやま駅</name>
<description></description>
<Point>
<coordinates>140.2762908935547,38.152626037597656,0</coordinates>
</Point>
</Placemark>
<Placemark>
<name>高松葉山停留所</name>
<description></description>
<Point>
<coordinates>140.2646484375,38.148780822753906,0</coordinates>
</Point>
</Placemark>
<Placemark>
<name>上山郵便局</name>
<description></description>
<Point>
<coordinates>140.27792358398438,38.15371322631836,0</coordinates>
</Point>
</Placemark>
<Placemark>
<name>尾上医院</name>
<description></description>
<Point>
<coordinates>140.27828979492188,38.156532287597656,0</coordinates>
</Point>
</Placemark>
<Placemark>
<name>金沢医院</name>
<description></description>
<Point>
<coordinates>140.28346252441406,38.163387298583984,0</coordinates>
</Point>
</Placemark>
<Placemark>
<name>上山温泉診療所</name>
<description></description>
<Point>
<coordinates>140.28173828125,38.16010665893555,0</coordinates>
</Point>
</Placemark>
<Placemark>
<name>上山小児クリニック</name>
<description></description>
<Point>
<coordinates>140.26625061035156,38.14966583251953,0</coordinates>
</Point>
</Placemark>
<Placemark>
<name>北村医院</name>
<description></description>
<Point>
<coordinates>140.2727508544922,38.150203704833984,0</coordinates>
</Point>
</Placemark>
<Placemark>
<name>小関高橋眼科医院</name>
<description></description>
<Point>
<coordinates>140.26600646972656,38.149505615234375,0</coordinates>
</Point>
</Placemark>
<Placemark>
<name>御殿湯ひふ科医院</name>
<description></description>
<Point>
<coordinates>140.28036499023438,38.1590690612793,0</coordinates>
</Point>
</Placemark>
<Placemark>
<name>渋谷医院</name>
<description></description>
<Point>
<coordinates>140.27854919433594,38.15782928466797,0</coordinates>
</Point>
</Placemark>
<Placemark>
<name>須田医院</name>
<description></description>
<Point>
<coordinates>140.28021240234375,38.150787353515625,0</coordinates>
</Point>
</Placemark>
<Placemark>
<name>高橋外科医院</name>
<description></description>
<Point>
<coordinates>140.27523803710938,38.15384292602539,0</coordinates>
</Point>
</Placemark>
<Placemark>
<name>高橋耳鼻科医院</name>
<description></description>
<Point>
<coordinates>140.28077697753906,38.159393310546875,0</coordinates>
</Point>
</Placemark>
<Placemark>
<name>高野せきねクリニック</name>
<description></description>
<Point>
<coordinates>140.27447509765625,38.15346145629883,0</coordinates>
</Point>
</Placemark>
<Placemark>
<name>長岡医院</name>
<description></description>
<Point>
<coordinates>140.2742156982422,38.15532684326172,0</coordinates>
</Point>
</Placemark>
<Placemark>
<name>新田クリニック</name>
<description></description>
<Point>
<coordinates>140.27488708496094,38.15571975708008,0</coordinates>
</Point>
</Placemark>
<Placemark>
<name>二本松会上山病院</name>
<description></description>
<Point>
<coordinates>140.30384826660156,38.175350189208984,0</coordinates>
</Point>
</Placemark>
<Placemark>
<name>原田医院</name>
<description></description>
<Point>
<coordinates>140.27291870117188,38.15431594848633,0</coordinates>
</Point>
</Placemark>
<Placemark>
<name>原田香曾我部医院</name>
<description></description>
<Point>
<coordinates>140.28253173828125,38.1573371887207,0</coordinates>
</Point>
</Placemark>
<Placemark>
<name>原田眼科医院</name>
<description></description>
<Point>
<coordinates>140.27975463867188,38.159061431884766,0</coordinates>
</Point>
</Placemark>
<Placemark>
<name>藤倉医院</name>
<description></description>
<Point>
<coordinates>140.27928161621094,38.14833068847656,0</coordinates>
</Point>
</Placemark>
<Placemark>
<name>山形県立総合療育訓練センター</name>
<description></description>
<Point>
<coordinates>140.2613525390625,38.15267562866211,0</coordinates>
</Point>
</Placemark>
<Placemark>
<name>山口クリニック</name>
<description></description>
<Point>
<coordinates>140.28292846679688,38.16789627075195,0</coordinates>
</Point>
</Placemark>
<Placemark>
<name>吉井内科胃腸科クリニック</name>
<description></description>
<Point>
<coordinates>140.28643798828125,38.14403533935547,0</coordinates>
</Point>
</Placemark>
<Placemark>
<name>山形銀行上山支店</name>
<description></description>
<Point>
<coordinates>140.27352905273438,38.154911041259766,0</coordinates>
</Point>
</Placemark>
<Placemark>
<name>荘内銀行上山支店</name>
<description></description>
<Point>
<coordinates>140.27601623535156,38.15475845336914,0</coordinates>
</Point>
</Placemark>
<Placemark>
<name>きらやか銀行上山支店</name>
<description></description>
<Point>
<coordinates>140.2779083251953,38.15422058105469,0</coordinates>
</Point>
</Placemark>
<Placemark>
<name>山形信用金庫上山支店</name>
<description></description>
<Point>
<coordinates>140.2782440185547,38.1574821472168,0</coordinates>
</Point>
</Placemark>
<Placemark>
<name>東北労働金庫上山支店</name>
<description></description>
<Point>
<coordinates>140.28121948242188,38.156951904296875,0</coordinates>
</Point>
</Placemark>
<Placemark>
<name>市役所前</name>
<description></description>
<Point>
<coordinates>140.26800537109375,38.15058517456055,0</coordinates>
</Point>
</Placemark>
<Placemark>
<name>河北中学校</name>
<description></description>
<Point>
<coordinates>140.31222534179688,38.41828536987305,0</coordinates>
</Point>
</Placemark>
<Placemark>
<name>谷地待合所</name>
<description></description>
<Point>
<coordinates>140.31423950195312,38.4243278503418,0</coordinates>
</Point>
</Placemark>
<Placemark>
<name>中条</name>
<description></description>
<Point>
<coordinates>140.35812377929688,38.48031234741211,0</coordinates>
</Point>
</Placemark>
<Placemark>
<name>河島</name>
<description></description>
<Point>
<coordinates>140.35818481445312,38.483455657958984,0</coordinates>
</Point>
</Placemark>
<Placemark>
<name>北河島</name>
<description></description>
<Point>
<coordinates>140.35928344726562,38.487403869628906,0</coordinates>
</Point>
</Placemark>
<Placemark>
<name>下組</name>
<description></description>
<Point>
<coordinates>140.36126708984375,38.49169158935547,0</coordinates>
</Point>
</Placemark>
<Placemark>
<name>JA西郷支店前</name>
<description></description>
<Point>
<coordinates>140.3641815185547,38.49375915527344,0</coordinates>
</Point>
</Placemark>
<Placemark>
<name>西郷学校前</name>
<description></description>
<Point>
<coordinates>140.36502075195312,38.498023986816406,0</coordinates>
</Point>
</Placemark>
<Placemark>
<name>道六</name>
<description></description>
<Point>
<coordinates>140.3665771484375,38.501216888427734,0</coordinates>
</Point>
</Placemark>
<Placemark>
<name>河島郵便局前</name>
<description></description>
<Point>
<coordinates>140.3603515625,38.48974609375,0</coordinates>
</Point>
</Placemark>
<Placemark>
<name>河島山ニュータウン</name>
<description></description>
<Point>
<coordinates>140.36056518554688,38.49583053588867,0</coordinates>
</Point>
</Placemark>
<Placemark>
<name>そば街道口</name>
<description></description>
<Point>
<coordinates>140.34420776367188,38.48149490356445,0</coordinates>
</Point>
</Placemark>
<Placemark>
<name>驚滝</name>
<description></description>
<Point>
<coordinates>140.34523010253906,38.494998931884766,0</coordinates>
</Point>
</Placemark>
<Placemark>
<name>大槇会館</name>
<description></description>
<Point>
<coordinates>140.3413848876953,38.49660110473633,0</coordinates>
</Point>
</Placemark>
<Placemark>
<name>反田</name>
<description></description>
<Point>
<coordinates>140.3312530517578,38.49726486206055,0</coordinates>
</Point>
</Placemark>
<Placemark>
<name>戸沢小学校</name>
<description></description>
<Point>
<coordinates>140.3248291015625,38.494606018066406,0</coordinates>
</Point>
</Placemark>
<Placemark>
<name>土海在家</name>
<description></description>
<Point>
<coordinates>140.3241729736328,38.499229431152344,0</coordinates>
</Point>
</Placemark>
<Placemark>
<name>長善寺</name>
<description></description>
<Point>
<coordinates>140.31967163085938,38.493751525878906,0</coordinates>
</Point>
</Placemark>
<Placemark>
<name>クアハウス碁点前</name>
<description></description>
<Point>
<coordinates>140.34373474121094,38.484222412109375,0</coordinates>
</Point>
</Placemark>
<Placemark>
<name>北村山公立病院</name>
<description></description>
<Point>
<coordinates>140.388916015625,38.46169662475586,0</coordinates>
</Point>
</Placemark>
<Placemark>
<name>新町</name>
<description></description>
<Point>
<coordinates>140.38836669921875,38.4738883972168,0</coordinates>
</Point>
</Placemark>
<Placemark>
<name>名取</name>
<description></description>
<Point>
<coordinates>140.37420654296875,38.501773834228516,0</coordinates>
</Point>
</Placemark>
<Placemark>
<name>中央二丁目</name>
<description></description>
<Point>
<coordinates>140.37173461914062,38.48180389404297,0</coordinates>
</Point>
</Placemark>
<Placemark>
<name>村山駅前</name>
<description></description>
<Point>
<coordinates>140.38719177246094,38.47705078125,0</coordinates>
</Point>
</Placemark>
<Placemark>
<name>十日町</name>
<description></description>
<Point>
<coordinates>140.3881072998047,38.482093811035156,0</coordinates>
</Point>
</Placemark>
<Placemark>
<name>最上徳内記念館前</name>
<description></description>
<Point>
<coordinates>140.3809356689453,38.48190689086914,0</coordinates>
</Point>
</Placemark>
<Placemark>
<name>樽石</name>
<description></description>
<Point>
<coordinates>140.30409240722656,38.49553298950195,0</coordinates>
</Point>
</Placemark>
<Placemark>
<name>火の見前</name>
<description></description>
<Point>
<coordinates>140.29942321777344,38.492156982421875,0</coordinates>
</Point>
</Placemark>
<Placemark>
<name>冨本小学校前</name>
<description></description>
<Point>
<coordinates>140.30325317382812,38.47783279418945,0</coordinates>
</Point>
</Placemark>
<Placemark>
<name>谷地高校前</name>
<description></description>
<Point>
<coordinates>140.30795288085938,38.422332763671875,0</coordinates>
</Point>
</Placemark>
<Placemark>
<name>岩野</name>
<description></description>
<Point>
<coordinates>140.29786682128906,38.489891052246094,0</coordinates>
</Point>
</Placemark>
<Placemark>
<name>森</name>
<description></description>
<Point>
<coordinates>140.35874938964844,38.536102294921875,0</coordinates>
</Point>
</Placemark>
<Placemark>
<name>里</name>
<description></description>
<Point>
<coordinates>140.35379028320312,38.53693389892578,0</coordinates>
</Point>
</Placemark>
<Placemark>
<name>富並東</name>
<description></description>
<Point>
<coordinates>140.3495635986328,38.54226303100586,0</coordinates>
</Point>
</Placemark>
<Placemark>
<name>富並小学校前</name>
<description></description>
<Point>
<coordinates>140.34490966796875,38.54492950439453,0</coordinates>
</Point>
</Placemark>
<Placemark>
<name>富並</name>
<description></description>
<Point>
<coordinates>140.34384155273438,38.54691696166992,0</coordinates>
</Point>
</Placemark>
<Placemark>
<name>平林</name>
<description></description>
<Point>
<coordinates>140.34011840820312,38.54810333251953,0</coordinates>
</Point>
</Placemark>
<Placemark>
<name>下小屋</name>
<description></description>
<Point>
<coordinates>140.31356811523438,38.55644226074219,0</coordinates>
</Point>
</Placemark>
<Placemark>
<name>大石</name>
<description></description>
<Point>
<coordinates>140.30422973632812,38.56092834472656,0</coordinates>
</Point>
</Placemark>
<Placemark>
<name>大鳥居</name>
<description></description>
<Point>
<coordinates>140.29273986816406,38.56463623046875,0</coordinates>
</Point>
</Placemark>
<Placemark>
<name>西山</name>
<description></description>
<Point>
<coordinates>140.3655548095703,38.53463363647461,0</coordinates>
</Point>
</Placemark>
<Placemark>
<name>白鳥</name>
<description></description>
<Point>
<coordinates>140.32386779785156,38.50590896606445,0</coordinates>
</Point>
</Placemark>
<Placemark>
<name>隼橋</name>
<description></description>
<Point>
<coordinates>140.3682403564453,38.53377151489258,0</coordinates>
</Point>
</Placemark>
<Placemark>
<name>境ノ目</name>
<description></description>
<Point>
<coordinates>140.3710479736328,38.531829833984375,0</coordinates>
</Point>
</Placemark>
<Placemark>
<name>長島</name>
<description></description>
<Point>
<coordinates>140.3384246826172,38.522613525390625,0</coordinates>
</Point>
</Placemark>
<Placemark>
<name>大高根児童センター</name>
<description></description>
<Point>
<coordinates>140.34854125976562,38.544227600097656,0</coordinates>
</Point>
</Placemark>
<Placemark>
<name>深沢</name>
<description></description>
<Point>
<coordinates>140.33615112304688,38.5364875793457,0</coordinates>
</Point>
</Placemark>
<Placemark>
<name>中原</name>
<description></description>
<Point>
<coordinates>140.3751678466797,38.50880432128906,0</coordinates>
</Point>
</Placemark>
<Placemark>
<name>清水北</name>
<description></description>
<Point>
<coordinates>140.3740997314453,38.51710891723633,0</coordinates>
</Point>
</Placemark>
<Placemark>
<name>清水</name>
<description></description>
<Point>
<coordinates>140.37452697753906,38.513851165771484,0</coordinates>
</Point>
</Placemark>
<Placemark>
<name>大淀</name>
<description></description>
<Point>
<coordinates>140.35498046875,38.51449203491211,0</coordinates>
</Point>
</Placemark>
<Placemark>
<name>宮下口</name>
<description></description>
<Point>
<coordinates>140.32652282714844,38.51372528076172,0</coordinates>
</Point>
</Placemark>
<Placemark>
<name>中の目</name>
<description></description>
<Point>
<coordinates>140.0153350830078,38.11821746826172,0</coordinates>
</Point>
</Placemark>
<Placemark>
<name>五祭所</name>
<description></description>
<Point>
<coordinates>139.999267578125,38.11094284057617,0</coordinates>
</Point>
</Placemark>
<Placemark>
<name>スキー場口</name>
<description></description>
<Point>
<coordinates>140.0006866455078,38.12540817260742,0</coordinates>
</Point>
</Placemark>
<Placemark>
<name>市役所前</name>
<description></description>
<Point>
<coordinates>140.04049682617188,38.10722732543945,0</coordinates>
</Point>
</Placemark>
<Placemark>
<name>谷地</name>
<description></description>
<Point>
<coordinates>140.0228271484375,38.117366790771484,0</coordinates>
</Point>
</Placemark>
<Placemark>
<name>上野</name>
<description></description>
<Point>
<coordinates>139.9983673095703,38.11344528198242,0</coordinates>
</Point>
</Placemark>
<Placemark>
<name>平田</name>
<description></description>
<Point>
<coordinates>140.00836181640625,38.11079788208008,0</coordinates>
</Point>
</Placemark>
<Placemark>
<name>中道</name>
<description></description>
<Point>
<coordinates>140.03030395507812,38.10881042480469,0</coordinates>
</Point>
</Placemark>
<Placemark>
<name>公立置賜長井病院前</name>
<description></description>
<Point>
<coordinates>140.0397491455078,38.10993194580078,0</coordinates>
</Point>
</Placemark>
<Placemark>
<name>幸町</name>
<description></description>
<Point>
<coordinates>140.02769470214844,38.10964584350586,0</coordinates>
</Point>
</Placemark>
<Placemark>
<name>山岸十字路</name>
<description></description>
<Point>
<coordinates>139.9994354248047,38.1193733215332,0</coordinates>
</Point>
</Placemark>
<Placemark>
<name>福田十字路</name>
<description></description>
<Point>
<coordinates>140.0086212158203,38.11855697631836,0</coordinates>
</Point>
</Placemark>
<Placemark>
<name>ヨークベニマル前</name>
<description></description>
<Point>
<coordinates>140.03807067871094,38.103912353515625,0</coordinates>
</Point>
</Placemark>
<Placemark>
<name>長井高校前（西口）</name>
<description></description>
<Point>
<coordinates>140.036376953125,38.0980110168457,0</coordinates>
</Point>
</Placemark>
<Placemark>
<name>うめや南店前</name>
<description></description>
<Point>
<coordinates>140.04159545898438,38.09123229980469,0</coordinates>
</Point>
</Placemark>
<Placemark>
<name>長井駅前</name>
<description></description>
<Point>
<coordinates>140.0341033935547,38.106937408447266,0</coordinates>
</Point>
</Placemark>
<Placemark>
<name>福蔵院前</name>
<description></description>
<Point>
<coordinates>140.03805541992188,38.125545501708984,0</coordinates>
</Point>
</Placemark>
<Placemark>
<name>芳野</name>
<description></description>
<Point>
<coordinates>140.03726196289062,38.12207794189453,0</coordinates>
</Point>
</Placemark>
<Placemark>
<name>栄町</name>
<description></description>
<Point>
<coordinates>140.0363311767578,38.107032775878906,0</coordinates>
</Point>
</Placemark>
<Placemark>
<name>八雲神社前</name>
<description></description>
<Point>
<coordinates>140.0288543701172,38.095558166503906,0</coordinates>
</Point>
</Placemark>
<Placemark>
<name>石橋十字路</name>
<description></description>
<Point>
<coordinates>140.01991271972656,38.0941162109375,0</coordinates>
</Point>
</Placemark>
<Placemark>
<name>谷地橋東南</name>
<description></description>
<Point>
<coordinates>140.02745056152344,38.11326599121094,0</coordinates>
</Point>
</Placemark>
<Placemark>
<name>福田橋</name>
<description></description>
<Point>
<coordinates>140.04103088378906,38.08500289916992,0</coordinates>
</Point>
</Placemark>
<Placemark>
<name>ハイマン電子前</name>
<description></description>
<Point>
<coordinates>140.03797912597656,38.0762825012207,0</coordinates>
</Point>
</Placemark>
<Placemark>
<name>公立置賜総合病院前</name>
<description></description>
<Point>
<coordinates>140.05760192871094,38.05048370361328,0</coordinates>
</Point>
</Placemark>
<Placemark>
<name>時庭駅口</name>
<description></description>
<Point>
<coordinates>140.03253173828125,38.07583236694336,0</coordinates>
</Point>
</Placemark>
<Placemark>
<name>今泉駅前</name>
<description></description>
<Point>
<coordinates>140.04443359375,38.05717086791992,0</coordinates>
</Point>
</Placemark>
<Placemark>
<name>今泉駅前角</name>
<description></description>
<Point>
<coordinates>140.04705810546875,38.05731201171875,0</coordinates>
</Point>
</Placemark>
<Placemark>
<name>川原沢</name>
<description></description>
<Point>
<coordinates>140.0023956298828,38.12789535522461,0</coordinates>
</Point>
</Placemark>
<Placemark>
<name>川原沢中</name>
<description></description>
<Point>
<coordinates>140.0061492919922,38.12892150878906,0</coordinates>
</Point>
</Placemark>
<Placemark>
<name>西根農協前</name>
<description></description>
<Point>
<coordinates>140.0084228515625,38.131710052490234,0</coordinates>
</Point>
</Placemark>
<Placemark>
<name>中里</name>
<description></description>
<Point>
<coordinates>140.00936889648438,38.13558578491211,0</coordinates>
</Point>
</Placemark>
<Placemark>
<name>草岡新町</name>
<description></description>
<Point>
<coordinates>140.0121612548828,38.14191818237305,0</coordinates>
</Point>
</Placemark>
<Placemark>
<name>戸根林口</name>
<description></description>
<Point>
<coordinates>140.01373291015625,38.14459991455078,0</coordinates>
</Point>
</Placemark>
<Placemark>
<name>仁府</name>
<description></description>
<Point>
<coordinates>140.01583862304688,38.147953033447266,0</coordinates>
</Point>
</Placemark>
<Placemark>
<name>岡十字路</name>
<description></description>
<Point>
<coordinates>140.0211944580078,38.151588439941406,0</coordinates>
</Point>
</Placemark>
<Placemark>
<name>元勧進代分校前</name>
<description></description>
<Point>
<coordinates>140.02439880371094,38.15342330932617,0</coordinates>
</Point>
</Placemark>
<Placemark>
<name>蔵京</name>
<description></description>
<Point>
<coordinates>140.0279083251953,38.156890869140625,0</coordinates>
</Point>
</Placemark>
<Placemark>
<name>羽前成田郵便局前</name>
<description></description>
<Point>
<coordinates>140.03909301757812,38.129913330078125,0</coordinates>
</Point>
</Placemark>
<Placemark>
<name>致芳小学校前</name>
<description></description>
<Point>
<coordinates>140.04115295410156,38.13546371459961,0</coordinates>
</Point>
</Placemark>
<Placemark>
<name>宮内</name>
<description></description>
<Point>
<coordinates>140.04283142089844,38.141510009765625,0</coordinates>
</Point>
</Placemark>
<Placemark>
<name>袋地蔵前</name>
<description></description>
<Point>
<coordinates>140.0444793701172,38.146278381347656,0</coordinates>
</Point>
</Placemark>
<Placemark>
<name>白兎口</name>
<description></description>
<Point>
<coordinates>140.045166015625,38.15117263793945,0</coordinates>
</Point>
</Placemark>
<Placemark>
<name>白兎集会センター前</name>
<description></description>
<Point>
<coordinates>140.0400390625,38.15523910522461,0</coordinates>
</Point>
</Placemark>
<Placemark>
<name>酒町</name>
<description></description>
<Point>
<coordinates>140.04104614257812,38.13787078857422,0</coordinates>
</Point>
</Placemark>
<Placemark>
<name>八反田地蔵尊西</name>
<description></description>
<Point>
<coordinates>140.0406036376953,38.13332748413086,0</coordinates>
</Point>
</Placemark>
<Placemark>
<name>羽前成田駅前角</name>
<description></description>
<Point>
<coordinates>140.03871154785156,38.13340759277344,0</coordinates>
</Point>
</Placemark>
<Placemark>
<name>あやめ公園前</name>
<description></description>
<Point>
<coordinates>140.03448486328125,38.11640167236328,0</coordinates>
</Point>
</Placemark>
<Placemark>
<name>長井工業高前</name>
<description></description>
<Point>
<coordinates>140.03073120117188,38.11347198486328,0</coordinates>
</Point>
</Placemark>
<Placemark>
<name>ケミコン山形前</name>
<description></description>
<Point>
<coordinates>140.03128051757812,38.108802795410156,0</coordinates>
</Point>
</Placemark>
<Placemark>
<name>山形銀行前</name>
<description></description>
<Point>
<coordinates>140.0379180908203,38.107696533203125,0</coordinates>
</Point>
</Placemark>
<Placemark>
<name>撞木橋</name>
<description></description>
<Point>
<coordinates>140.0377960205078,38.109371185302734,0</coordinates>
</Point>
</Placemark>
<Placemark>
<name>うめや十日町店前</name>
<description></description>
<Point>
<coordinates>140.0396270751953,38.113338470458984,0</coordinates>
</Point>
</Placemark>
<Placemark>
<name>本町館前</name>
<description></description>
<Point>
<coordinates>140.03802490234375,38.105499267578125,0</coordinates>
</Point>
</Placemark>
<Placemark>
<name>白つつじ公園</name>
<description></description>
<Point>
<coordinates>140.04183959960938,38.10304260253906,0</coordinates>
</Point>
</Placemark>
<Placemark>
<name>TASビル</name>
<description></description>
<Point>
<coordinates>140.0427703857422,38.101043701171875,0</coordinates>
</Point>
</Placemark>
<Placemark>
<name>ヤマザワ前</name>
<description></description>
<Point>
<coordinates>140.0404510498047,38.09122085571289,0</coordinates>
</Point>
</Placemark>
<Placemark>
<name>南中前</name>
<description></description>
<Point>
<coordinates>140.0359344482422,38.08614730834961,0</coordinates>
</Point>
</Placemark>
<Placemark>
<name>豊田小学校前</name>
<description></description>
<Point>
<coordinates>140.04078674316406,38.068443298339844,0</coordinates>
</Point>
</Placemark>
<Placemark>
<name>置賜生涯学習プラザ前</name>
<description></description>
<Point>
<coordinates>140.02230834960938,38.08952331542969,0</coordinates>
</Point>
</Placemark>
<Placemark>
<name>谷地寺</name>
<description></description>
<Point>
<coordinates>140.0174102783203,38.087039947509766,0</coordinates>
</Point>
</Placemark>
<Placemark>
<name>平野郵便局前</name>
<description></description>
<Point>
<coordinates>140.0081787109375,38.089107513427734,0</coordinates>
</Point>
</Placemark>
<Placemark>
<name>平野小学校前</name>
<description></description>
<Point>
<coordinates>140.00743103027344,38.09175491333008,0</coordinates>
</Point>
</Placemark>
<Placemark>
<name>桜町十字路</name>
<description></description>
<Point>
<coordinates>140.00987243652344,38.09779739379883,0</coordinates>
</Point>
</Placemark>
<Placemark>
<name>浦原十字路</name>
<description></description>
<Point>
<coordinates>140.01878356933594,38.09914779663086,0</coordinates>
</Point>
</Placemark>
<Placemark>
<name>台町十字路</name>
<description></description>
<Point>
<coordinates>140.0325469970703,38.097530364990234,0</coordinates>
</Point>
</Placemark>
<Placemark>
<name>JA愛菜館前</name>
<description></description>
<Point>
<coordinates>140.0317840576172,38.10454559326172,0</coordinates>
</Point>
</Placemark>
<Placemark>
<name>うめやサンプラザ前</name>
<description></description>
<Point>
<coordinates>140.03147888183594,38.10704803466797,0</coordinates>
</Point>
</Placemark>
<Placemark>
<name>中丸</name>
<description></description>
<Point>
<coordinates>140.0438232421875,38.0633659362793,0</coordinates>
</Point>
</Placemark>
<Placemark>
<name>時庭口</name>
<description></description>
<Point>
<coordinates>140.03851318359375,38.0798454284668,0</coordinates>
</Point>
</Placemark>
<Placemark>
<name>長井病院前</name>
<description></description>
<Point>
<coordinates>140.0397491455078,38.10993194580078,0</coordinates>
</Point>
</Placemark>
<Placemark>
<name>歌丸学校前</name>
<description></description>
<Point>
<coordinates>140.03964233398438,38.070350646972656,0</coordinates>
</Point>
</Placemark>
<Placemark>
<name>町屋敷</name>
<description></description>
<Point>
<coordinates>140.03807067871094,38.078880310058594,0</coordinates>
</Point>
</Placemark>
<Placemark>
<name>中央会館</name>
<description></description>
<Point>
<coordinates>140.03736877441406,38.10709762573242,0</coordinates>
</Point>
</Placemark>
<Placemark>
<name>羽陽短大口</name>
<description></description>
<Point>
<coordinates>140.3540802001953,38.32820129394531,0</coordinates>
</Point>
</Placemark>
<Placemark>
<name>長岡中町</name>
<description></description>
<Point>
<coordinates>140.36070251464844,38.32940673828125,0</coordinates>
</Point>
</Placemark>
<Placemark>
<name>清池こせん橋</name>
<description></description>
<Point>
<coordinates>140.35708618164062,38.32545852661133,0</coordinates>
</Point>
</Placemark>
<Placemark>
<name>長岡南町</name>
<description></description>
<Point>
<coordinates>140.3594207763672,38.32752990722656,0</coordinates>
</Point>
</Placemark>
<Placemark>
<name>長岡郵便局前</name>
<description></description>
<Point>
<coordinates>140.35830688476562,38.32587814331055,0</coordinates>
</Point>
</Placemark>
<Placemark>
<name>清地</name>
<description></description>
<Point>
<coordinates>140.3517608642578,38.3259162902832,0</coordinates>
</Point>
</Placemark>
<Placemark>
<name>荒谷西</name>
<description></description>
<Point>
<coordinates>140.3700714111328,38.32270431518555,0</coordinates>
</Point>
</Placemark>
<Placemark>
<name>堀端公民館前</name>
<description></description>
<Point>
<coordinates>140.3418426513672,38.33563995361328,0</coordinates>
</Point>
</Placemark>
<Placemark>
<name>高擶街道口</name>
<description></description>
<Point>
<coordinates>140.35633850097656,38.33174514770508,0</coordinates>
</Point>
</Placemark>
<Placemark>
<name>長岡北</name>
<description></description>
<Point>
<coordinates>140.36476135253906,38.33418655395508,0</coordinates>
</Point>
</Placemark>
<Placemark>
<name>清池工業団地</name>
<description></description>
<Point>
<coordinates>140.3621368408203,38.324378967285156,0</coordinates>
</Point>
</Placemark>
<Placemark>
<name>荒谷四辻</name>
<description></description>
<Point>
<coordinates>140.38888549804688,38.31832504272461,0</coordinates>
</Point>
</Placemark>
<Placemark>
<name>片羽</name>
<description></description>
<Point>
<coordinates>140.39413452148438,38.3294563293457,0</coordinates>
</Point>
</Placemark>
<Placemark>
<name>出田原</name>
<description></description>
<Point>
<coordinates>140.39129638671875,38.332366943359375,0</coordinates>
</Point>
</Placemark>
<Placemark>
<name>ごくらく園口</name>
<description></description>
<Point>
<coordinates>140.3968963623047,38.33595657348633,0</coordinates>
</Point>
</Placemark>
<Placemark>
<name>石倉南</name>
<description></description>
<Point>
<coordinates>140.4002227783203,38.32887268066406,0</coordinates>
</Point>
</Placemark>
<Placemark>
<name>八千代台団地</name>
<description></description>
<Point>
<coordinates>140.3930206298828,38.31467819213867,0</coordinates>
</Point>
</Placemark>
<Placemark>
<name>奈良沢南</name>
<description></description>
<Point>
<coordinates>140.39710998535156,38.332679748535156,0</coordinates>
</Point>
</Placemark>
<Placemark>
<name>荒谷橋</name>
<description></description>
<Point>
<coordinates>140.38841247558594,38.31568908691406,0</coordinates>
</Point>
</Placemark>
<Placemark>
<name>石倉北</name>
<description></description>
<Point>
<coordinates>140.40081787109375,38.330528259277344,0</coordinates>
</Point>
</Placemark>
<Placemark>
<name>上荒谷公民館前</name>
<description></description>
<Point>
<coordinates>140.3961944580078,38.31700897216797,0</coordinates>
</Point>
</Placemark>
<Placemark>
<name>荒谷小学校前</name>
<description></description>
<Point>
<coordinates>140.39210510253906,38.318172454833984,0</coordinates>
</Point>
</Placemark>
<Placemark>
<name>荒谷下</name>
<description></description>
<Point>
<coordinates>140.38365173339844,38.32058334350586,0</coordinates>
</Point>
</Placemark>
<Placemark>
<name>上荻野戸</name>
<description></description>
<Point>
<coordinates>140.40391540527344,38.31943130493164,0</coordinates>
</Point>
</Placemark>
<Placemark>
<name>上荻野戸公民館前</name>
<description></description>
<Point>
<coordinates>140.39947509765625,38.32328796386719,0</coordinates>
</Point>
</Placemark>
<Placemark>
<name>荻野戸入口</name>
<description></description>
<Point>
<coordinates>140.39804077148438,38.327552795410156,0</coordinates>
</Point>
</Placemark>
<Placemark>
<name>上荒谷</name>
<description></description>
<Point>
<coordinates>140.39962768554688,38.31603240966797,0</coordinates>
</Point>
</Placemark>
<Placemark>
<name>南町通り</name>
<description></description>
<Point>
<coordinates>140.28282165527344,38.374149322509766,0</coordinates>
</Point>
</Placemark>
<Placemark>
<name>本楯口</name>
<description></description>
<Point>
<coordinates>140.2881317138672,38.373172760009766,0</coordinates>
</Point>
</Placemark>
<Placemark>
<name>日田</name>
<description></description>
<Point>
<coordinates>140.30087280273438,38.3735466003418,0</coordinates>
</Point>
</Placemark>
<Placemark>
<name>寒河江郵便局</name>
<description></description>
<Point>
<coordinates>140.27902221679688,38.37516403198242,0</coordinates>
</Point>
</Placemark>
<Placemark>
<name>日田口</name>
<description></description>
<Point>
<coordinates>140.30479431152344,38.373653411865234,0</coordinates>
</Point>
</Placemark>
<Placemark>
<name>寒河江バスターミナル</name>
<description></description>
<Point>
<coordinates>140.27574157714844,38.37176513671875,0</coordinates>
</Point>
</Placemark>
<Placemark>
<name>新山</name>
<description></description>
<Point>
<coordinates>140.29544067382812,38.37261962890625,0</coordinates>
</Point>
</Placemark>
<Placemark>
<name>東芳賀</name>
<description></description>
<Point>
<coordinates>140.36753845214844,38.33738708496094,0</coordinates>
</Point>
</Placemark>
<Placemark>
<name>村山橋西</name>
<description></description>
<Point>
<coordinates>140.31552124023438,38.374202728271484,0</coordinates>
</Point>
</Placemark>
<Placemark>
<name>村山橋</name>
<description></description>
<Point>
<coordinates>140.32559204101562,38.37151336669922,0</coordinates>
</Point>
</Placemark>
<Placemark>
<name>新田街道</name>
<description></description>
<Point>
<coordinates>140.3321533203125,38.370670318603516,0</coordinates>
</Point>
</Placemark>
<Placemark>
<name>願正壇口</name>
<description></description>
<Point>
<coordinates>140.33514404296875,38.370304107666016,0</coordinates>
</Point>
</Placemark>
<Placemark>
<name>蔵増</name>
<description></description>
<Point>
<coordinates>140.3380889892578,38.3698616027832,0</coordinates>
</Point>
</Placemark>
<Placemark>
<name>青年の家前</name>
<description></description>
<Point>
<coordinates>140.37115478515625,38.35638427734375,0</coordinates>
</Point>
</Placemark>
<Placemark>
<name>寒河江街道</name>
<description></description>
<Point>
<coordinates>140.37107849121094,38.355194091796875,0</coordinates>
</Point>
</Placemark>
<Placemark>
<name>田鶴町</name>
<description></description>
<Point>
<coordinates>140.36639404296875,38.35475158691406,0</coordinates>
</Point>
</Placemark>
<Placemark>
<name>一日町</name>
<description></description>
<Point>
<coordinates>140.37115478515625,38.350887298583984,0</coordinates>
</Point>
</Placemark>
<Placemark>
<name>矢野目西</name>
<description></description>
<Point>
<coordinates>140.3468475341797,38.3572998046875,0</coordinates>
</Point>
</Placemark>
<Placemark>
<name>矢野目</name>
<description></description>
<Point>
<coordinates>140.35044860839844,38.356727600097656,0</coordinates>
</Point>
</Placemark>
<Placemark>
<name>パナソニック前</name>
<description></description>
<Point>
<coordinates>140.37083435058594,38.34203338623047,0</coordinates>
</Point>
</Placemark>
<Placemark>
<name>小矢野目</name>
<description></description>
<Point>
<coordinates>140.35768127441406,38.355628967285156,0</coordinates>
</Point>
</Placemark>
<Placemark>
<name>天童バスターミナル</name>
<description></description>
<Point>
<coordinates>140.37013244628906,38.35990905761719,0</coordinates>
</Point>
</Placemark>