<?xml version="1.0" encoding="UTF-8"?>
<kml xmlns="http://www.opengis.net/kml/2.2">
<Document>
<name><![CDATA[バス停 : 愛知]]></name>
<Folder>
<name>Placemarks</name>
<Placemark>
<name>名古屋駅（太閤通口）</name>
<description></description>
<Point>
<coordinates>136.87982177734375,35.17106246948242,0</coordinates>
</Point>
</Placemark>
<Placemark>
<name>金山</name>
<description></description>
<Point>
<coordinates>136.90191650390625,35.1439094543457,0</coordinates>
</Point>
</Placemark>
<Placemark>
<name>野並</name>
<description></description>
<Point>
<coordinates>136.9557342529297,35.10225296020508,0</coordinates>
</Point>
</Placemark>
<Placemark>
<name>地下鉄高畑</name>
<description></description>
<Point>
<coordinates>136.85337829589844,35.1403694152832,0</coordinates>
</Point>
</Placemark>
<Placemark>
<name>中村公園</name>
<description></description>
<Point>
<coordinates>136.85491943359375,35.16836929321289,0</coordinates>
</Point>
</Placemark>
<Placemark>
<name>地下鉄原</name>
<description></description>
<Point>
<coordinates>136.99598693847656,35.126182556152344,0</coordinates>
</Point>
</Placemark>
<Placemark>
<name>丸田町</name>
<description></description>
<Point>
<coordinates>136.91554260253906,35.16166305541992,0</coordinates>
</Point>
</Placemark>
<Placemark>
<name>鶴舞公園前</name>
<description></description>
<Point>
<coordinates>136.9162139892578,35.15606689453125,0</coordinates>
</Point>
</Placemark>
<Placemark>
<name>東郊通三丁目</name>
<description></description>
<Point>
<coordinates>136.91754150390625,35.14712142944336,0</coordinates>
</Point>
</Placemark>
<Placemark>
<name>高辻</name>
<description></description>
<Point>
<coordinates>136.91830444335938,35.14004898071289,0</coordinates>
</Point>
</Placemark>
<Placemark>
<name>雁道</name>
<description></description>
<Point>
<coordinates>136.91885375976562,35.134525299072266,0</coordinates>
</Point>
</Placemark>
<Placemark>
<name>堀田通五丁目</name>
<description></description>
<Point>
<coordinates>136.91949462890625,35.1304931640625,0</coordinates>
</Point>
</Placemark>
<Placemark>
<name>牛巻</name>
<description></description>
<Point>
<coordinates>136.9200897216797,35.126853942871094,0</coordinates>
</Point>
</Placemark>
<Placemark>
<name>名鉄堀田</name>
<description></description>
<Point>
<coordinates>136.921142578125,35.120452880859375,0</coordinates>
</Point>
</Placemark>
<Placemark>
<name>地下鉄堀田</name>
<description></description>
<Point>
<coordinates>136.9217071533203,35.116615295410156,0</coordinates>
</Point>
</Placemark>
<Placemark>
<name>呼続大橋</name>
<description></description>
<Point>
<coordinates>136.92311096191406,35.10804748535156,0</coordinates>
</Point>
</Placemark>
<Placemark>
<name>千竈通二丁目</name>
<description></description>
<Point>
<coordinates>136.92356872558594,35.105106353759766,0</coordinates>
</Point>
</Placemark>
<Placemark>
<name>本星崎町</name>
<description></description>
<Point>
<coordinates>136.93307495117188,35.087242126464844,0</coordinates>
</Point>
</Placemark>
<Placemark>
<name>星崎</name>
<description></description>
<Point>
<coordinates>136.9318389892578,35.082740783691406,0</coordinates>
</Point>
</Placemark>
<Placemark>
<name>星崎小学校</name>
<description></description>
<Point>
<coordinates>136.93113708496094,35.07856369018555,0</coordinates>
</Point>
</Placemark>
<Placemark>
<name>上浜</name>
<description></description>
<Point>
<coordinates>136.93251037597656,35.0760612487793,0</coordinates>
</Point>
</Placemark>
<Placemark>
<name>鳴尾車庫</name>
<description></description>
<Point>
<coordinates>136.9282684326172,35.07420349121094,0</coordinates>
</Point>
</Placemark>
<Placemark>
<name>国際センター</name>
<description></description>
<Point>
<coordinates>136.88978576660156,35.17221450805664,0</coordinates>
</Point>
</Placemark>
<Placemark>
<name>桜通伏見</name>
<description></description>
<Point>
<coordinates>136.89553833007812,35.172874450683594,0</coordinates>
</Point>
</Placemark>
<Placemark>
<name>桜通本町</name>
<description></description>
<Point>
<coordinates>136.9016876220703,35.17331314086914,0</coordinates>
</Point>
</Placemark>
<Placemark>
<name>桜通大津</name>
<description></description>
<Point>
<coordinates>136.90635681152344,35.17363357543945,0</coordinates>
</Point>
</Placemark>
<Placemark>
<name>大津通</name>
<description></description>
<Point>
<coordinates>136.90611267089844,35.17587661743164,0</coordinates>
</Point>
</Placemark>
<Placemark>
<name>市役所</name>
<description></description>
<Point>
<coordinates>136.90528869628906,35.18208312988281,0</coordinates>
</Point>
</Placemark>
<Placemark>
<name>清水口</name>
<description></description>
<Point>
<coordinates>136.91354370117188,35.183197021484375,0</coordinates>
</Point>
</Placemark>
<Placemark>
<name>白壁</name>
<description></description>
<Point>
<coordinates>136.91921997070312,35.183597564697266,0</coordinates>
</Point>
</Placemark>
<Placemark>
<name>徳川園新出来</name>
<description></description>
<Point>
<coordinates>136.9339141845703,35.182212829589844,0</coordinates>
</Point>
</Placemark>
<Placemark>
<name>茶屋ケ坂</name>
<description></description>
<Point>
<coordinates>136.96197509765625,35.18355178833008,0</coordinates>
</Point>
</Placemark>
<Placemark>
<name>汁谷</name>
<description></description>
<Point>
<coordinates>136.96839904785156,35.18587112426758,0</coordinates>
</Point>
</Placemark>
<Placemark>
<name>猪子石原</name>
<description></description>
<Point>
<coordinates>136.99111938476562,35.19146728515625,0</coordinates>
</Point>
</Placemark>
<Placemark>
<name>引山</name>
<description></description>
<Point>
<coordinates>136.99684143066406,35.19172668457031,0</coordinates>
</Point>
</Placemark>
<Placemark>
<name>東猪子石</name>
<description></description>
<Point>
<coordinates>137.005615234375,35.19222640991211,0</coordinates>
</Point>
</Placemark>
<Placemark>
<name>赤坂町</name>
<description></description>
<Point>
<coordinates>136.96229553222656,35.1817626953125,0</coordinates>
</Point>
</Placemark>
<Placemark>
<name>霞ケ丘</name>
<description></description>
<Point>
<coordinates>136.96441650390625,35.179988861083984,0</coordinates>
</Point>
</Placemark>
<Placemark>
<name>自由ケ丘三丁目</name>
<description></description>
<Point>
<coordinates>136.9669189453125,35.177757263183594,0</coordinates>
</Point>
</Placemark>
<Placemark>
<name>千種台中学校</name>
<description></description>
<Point>
<coordinates>136.96975708007812,35.177547454833984,0</coordinates>
</Point>
</Placemark>
<Placemark>
<name>希望ケ丘四丁目</name>
<description></description>
<Point>
<coordinates>136.97390747070312,35.179203033447266,0</coordinates>
</Point>
</Placemark>
<Placemark>
<name>光ケ丘</name>
<description></description>
<Point>
<coordinates>136.97645568847656,35.179168701171875,0</coordinates>
</Point>
</Placemark>
<Placemark>
<name>猪高車庫</name>
<description></description>
<Point>
<coordinates>136.98455810546875,35.179542541503906,0</coordinates>
</Point>
</Placemark>
<Placemark>
<name>柳橋</name>
<description></description>
<Point>
<coordinates>136.8885955810547,35.168182373046875,0</coordinates>
</Point>
</Placemark>
<Placemark>
<name>広小路伏見</name>
<description></description>
<Point>
<coordinates>136.89752197265625,35.16823959350586,0</coordinates>
</Point>
</Placemark>
<Placemark>
<name>広小路本町</name>
<description></description>
<Point>
<coordinates>136.9022216796875,35.168548583984375,0</coordinates>
</Point>
</Placemark>
<Placemark>
<name>広小路栄</name>
<description></description>
<Point>
<coordinates>136.90518188476562,35.16876220703125,0</coordinates>
</Point>
</Placemark>
<Placemark>
<name>栄大津</name>
<description></description>
<Point>
<coordinates>136.9070281982422,35.16809844970703,0</coordinates>
</Point>
</Placemark>
<Placemark>
<name>ナディアパーク</name>
<description></description>
<Point>
<coordinates>136.9071807861328,35.16631317138672,0</coordinates>
</Point>
</Placemark>
<Placemark>
<name>白川通大津</name>
<description></description>
<Point>
<coordinates>136.90699768066406,35.16385269165039,0</coordinates>
</Point>
</Placemark>
<Placemark>
<name>ランの館</name>
<description></description>
<Point>
<coordinates>136.9091339111328,35.1617317199707,0</coordinates>
</Point>
</Placemark>
<Placemark>
<name>笹島町</name>
<description></description>
<Point>
<coordinates>136.88523864746094,35.167667388916016,0</coordinates>
</Point>
</Placemark>
<Placemark>
<name>上前津</name>
<description></description>
<Point>
<coordinates>136.90591430664062,35.15735626220703,0</coordinates>
</Point>
</Placemark>
<Placemark>
<name>大池町</name>
<description></description>
<Point>
<coordinates>136.91058349609375,35.156654357910156,0</coordinates>
</Point>
</Placemark>
<Placemark>
<name>東郊通一丁目</name>
<description></description>
<Point>
<coordinates>136.91714477539062,35.15162658691406,0</coordinates>
</Point>
</Placemark>
<Placemark>
<name>円上</name>
<description></description>
<Point>
<coordinates>136.91787719726562,35.14421844482422,0</coordinates>
</Point>
</Placemark>
<Placemark>
<name>有松町口無池</name>
<description></description>
<Point>
<coordinates>136.9676513671875,35.043121337890625,0</coordinates>
</Point>
</Placemark>
<Placemark>
<name>下切</name>
<description></description>
<Point>
<coordinates>136.9681396484375,35.045867919921875,0</coordinates>
</Point>
</Placemark>
<Placemark>
<name>郷前</name>
<description></description>
<Point>
<coordinates>136.96994018554688,35.05002975463867,0</coordinates>
</Point>
</Placemark>
<Placemark>
<name>桶狭間寺前</name>
<description></description>
<Point>
<coordinates>136.96958923339844,35.052982330322266,0</coordinates>
</Point>
</Placemark>
<Placemark>
<name>幕山</name>
<description></description>
<Point>
<coordinates>136.97036743164062,35.05612564086914,0</coordinates>
</Point>
</Placemark>
<Placemark>
<name>地蔵池</name>
<description></description>
<Point>
<coordinates>136.96946716308594,35.059505462646484,0</coordinates>
</Point>
</Placemark>
<Placemark>
<name>高根</name>
<description></description>
<Point>
<coordinates>136.97117614746094,35.06364059448242,0</coordinates>
</Point>
</Placemark>
<Placemark>
<name>有松中町</name>
<description></description>
<Point>
<coordinates>136.96730041503906,35.06659698486328,0</coordinates>
</Point>
</Placemark>
<Placemark>
<name>西有松</name>
<description></description>
<Point>
<coordinates>136.96546936035156,35.06789016723633,0</coordinates>
</Point>
</Placemark>
<Placemark>
<name>左京山</name>
<description></description>
<Point>
<coordinates>136.95877075195312,35.0707893371582,0</coordinates>
</Point>
</Placemark>
<Placemark>
<name>平部</name>
<description></description>
<Point>
<coordinates>136.9554901123047,35.071983337402344,0</coordinates>
</Point>
</Placemark>
<Placemark>
<name>緑区役所</name>
<description></description>
<Point>
<coordinates>136.95263671875,35.07011032104492,0</coordinates>
</Point>
</Placemark>
<Placemark>
<name>亀原</name>
<description></description>
<Point>
<coordinates>136.94801330566406,35.066375732421875,0</coordinates>
</Point>
</Placemark>
<Placemark>
<name>大高緑地西</name>
<description></description>
<Point>
<coordinates>136.94580078125,35.062843322753906,0</coordinates>
</Point>
</Placemark>
<Placemark>
<name>森の里団地</name>
<description></description>
<Point>
<coordinates>136.9434051513672,35.06110382080078,0</coordinates>
</Point>
</Placemark>
<Placemark>
<name>那古野町</name>
<description></description>
<Point>
<coordinates>136.8855438232422,35.17496109008789,0</coordinates>
</Point>
</Placemark>
<Placemark>
<name>菊井町</name>
<description></description>
<Point>
<coordinates>136.88601684570312,35.177913665771484,0</coordinates>
</Point>
</Placemark>
<Placemark>
<name>明道町</name>
<description></description>
<Point>
<coordinates>136.88986206054688,35.17778396606445,0</coordinates>
</Point>
</Placemark>
<Placemark>
<name>愛知県図書館</name>
<description></description>
<Point>
<coordinates>136.89479064941406,35.177467346191406,0</coordinates>
</Point>
</Placemark>
<Placemark>
<name>外堀通</name>
<description></description>
<Point>
<coordinates>136.90118408203125,35.177947998046875,0</coordinates>
</Point>
</Placemark>
<Placemark>
<name>大津橋</name>
<description></description>
<Point>
<coordinates>136.904541015625,35.17813491821289,0</coordinates>
</Point>
</Placemark>
<Placemark>
<name>市政資料館南</name>
<description></description>
<Point>
<coordinates>136.9105224609375,35.17839050292969,0</coordinates>
</Point>
</Placemark>
<Placemark>
<name>東片端</name>
<description></description>
<Point>
<coordinates>136.9140167236328,35.17862319946289,0</coordinates>
</Point>
</Placemark>
<Placemark>
<name>飯田町</name>
<description></description>
<Point>
<coordinates>136.9180145263672,35.178836822509766,0</coordinates>
</Point>
</Placemark>
<Placemark>
<name>平田町</name>
<description></description>
<Point>
<coordinates>136.92178344726562,35.17930221557617,0</coordinates>
</Point>
</Placemark>
<Placemark>
<name>東区役所</name>
<description></description>
<Point>
<coordinates>136.9249725341797,35.179054260253906,0</coordinates>
</Point>
</Placemark>
<Placemark>
<name>徳川町</name>
<description></description>
<Point>
<coordinates>136.92938232421875,35.18603515625,0</coordinates>
</Point>
</Placemark>
<Placemark>
<name>森下駅</name>
<description></description>
<Point>
<coordinates>136.9302215576172,35.18848419189453,0</coordinates>
</Point>
</Placemark>
<Placemark>
<name>西大曽根</name>
<description></description>
<Point>
<coordinates>136.93031311035156,35.19025802612305,0</coordinates>
</Point>
</Placemark>
<Placemark>
<name>平安通</name>
<description></description>
<Point>
<coordinates>136.92977905273438,35.19596481323242,0</coordinates>
</Point>
</Placemark>
<Placemark>
<name>御成通三丁目</name>
<description></description>
<Point>
<coordinates>136.92970275878906,35.19956970214844,0</coordinates>
</Point>
</Placemark>
<Placemark>
<name>上飯田</name>
<description></description>
<Point>
<coordinates>136.92967224121094,35.203060150146484,0</coordinates>
</Point>
</Placemark>
<Placemark>
<name>赤塚</name>
<description></description>
<Point>
<coordinates>136.92454528808594,35.18437576293945,0</coordinates>
</Point>
</Placemark>
<Placemark>
<name>芳野三丁目</name>
<description></description>
<Point>
<coordinates>136.9273681640625,35.187259674072266,0</coordinates>
</Point>
</Placemark>
<Placemark>
<name>大曽根</name>
<description></description>
<Point>
<coordinates>136.93621826171875,35.19259262084961,0</coordinates>
</Point>
</Placemark>
<Placemark>
<name>ささしまライブ</name>
<description></description>
<Point>
<coordinates>136.88587951660156,35.163333892822266,0</coordinates>
</Point>
</Placemark>
<Placemark>
<name>六反公園</name>
<description></description>
<Point>
<coordinates>136.8870086669922,35.1590576171875,0</coordinates>
</Point>
</Placemark>
<Placemark>
<name>猿子橋</name>
<description></description>
<Point>
<coordinates>136.88363647460938,35.15719223022461,0</coordinates>
</Point>
</Placemark>
<Placemark>
<name>小栗橋</name>
<description></description>
<Point>
<coordinates>136.87950134277344,35.15313720703125,0</coordinates>
</Point>
</Placemark>
<Placemark>
<name>長良橋</name>
<description></description>
<Point>
<coordinates>136.87535095214844,35.1483039855957,0</coordinates>
</Point>
</Placemark>
<Placemark>
<name>八熊橋</name>
<description></description>
<Point>
<coordinates>136.87515258789062,35.144229888916016,0</coordinates>
</Point>
</Placemark>
<Placemark>
<name>篠原橋</name>
<description></description>
<Point>
<coordinates>136.87525939941406,35.14076232910156,0</coordinates>
</Point>
</Placemark>
<Placemark>
<name>野立橋</name>
<description></description>
<Point>
<coordinates>136.8754119873047,35.135215759277344,0</coordinates>
</Point>
</Placemark>
<Placemark>
<name>中野橋</name>
<description></description>
<Point>
<coordinates>136.87551879882812,35.131465911865234,0</coordinates>
</Point>
</Placemark>
<Placemark>
<name>蜆橋</name>
<description></description>
<Point>
<coordinates>136.87562561035156,35.12812423706055,0</coordinates>
</Point>
</Placemark>
<Placemark>
<name>昭和橋</name>
<description></description>
<Point>
<coordinates>136.87571716308594,35.125205993652344,0</coordinates>
</Point>
</Placemark>
<Placemark>
<name>玉船町三丁目</name>
<description></description>
<Point>
<coordinates>136.8758544921875,35.120941162109375,0</coordinates>
</Point>
</Placemark>
<Placemark>
<name>東海橋</name>
<description></description>
<Point>
<coordinates>136.87608337402344,35.113525390625,0</coordinates>
</Point>
</Placemark>
<Placemark>
<name>金船町</name>
<description></description>
<Point>
<coordinates>136.8760528564453,35.10961151123047,0</coordinates>
</Point>
</Placemark>
<Placemark>
<name>中川本町</name>
<description></description>
<Point>
<coordinates>136.87615966796875,35.10649108886719,0</coordinates>
</Point>
</Placemark>
<Placemark>
<name>中川本町三丁目</name>
<description></description>
<Point>
<coordinates>136.87623596191406,35.103538513183594,0</coordinates>
</Point>
</Placemark>
<Placemark>
<name>運河事務所前</name>
<description></description>
<Point>
<coordinates>136.87620544433594,35.1015625,0</coordinates>
</Point>
</Placemark>
<Placemark>
<name>中川本町五丁目</name>
<description></description>
<Point>
<coordinates>136.87612915039062,35.09998321533203,0</coordinates>
</Point>
</Placemark>
<Placemark>
<name>中川橋</name>
<description></description>
<Point>
<coordinates>136.87591552734375,35.09645462036133,0</coordinates>
</Point>
</Placemark>
<Placemark>
<name>築三町</name>
<description></description>
<Point>
<coordinates>136.8729705810547,35.09528732299805,0</coordinates>
</Point>
</Placemark>
<Placemark>
<name>大手橋</name>
<description></description>
<Point>
<coordinates>136.87008666992188,35.094200134277344,0</coordinates>
</Point>
</Placemark>
<Placemark>
<name>一州町</name>
<description></description>
<Point>
<coordinates>136.865478515625,35.092506408691406,0</coordinates>
</Point>
</Placemark>
<Placemark>
<name>稲永駅</name>
<description></description>
<Point>
<coordinates>136.86239624023438,35.09135055541992,0</coordinates>
</Point>
</Placemark>
<Placemark>
<name>稲永町</name>
<description></description>
<Point>
<coordinates>136.8580322265625,35.08918762207031,0</coordinates>
</Point>
</Placemark>
<Placemark>
<name>稲永小学校</name>
<description></description>
<Point>
<coordinates>136.85687255859375,35.0870361328125,0</coordinates>
</Point>
</Placemark>
<Placemark>
<name>西稲永</name>
<description></description>
<Point>
<coordinates>136.85519409179688,35.0841178894043,0</coordinates>
</Point>
</Placemark>
<Placemark>
<name>稲永新田</name>
<description></description>
<Point>
<coordinates>136.85475158691406,35.08226013183594,0</coordinates>
</Point>
</Placemark>
<Placemark>
<name>野跡小学校</name>
<description></description>
<Point>
<coordinates>136.85415649414062,35.07899856567383,0</coordinates>
</Point>
</Placemark>
<Placemark>
<name>野跡駅</name>
<description></description>
<Point>
<coordinates>136.85389709472656,35.07539749145508,0</coordinates>
</Point>
</Placemark>
<Placemark>
<name>ノリタケの森</name>
<description></description>
<Point>
<coordinates>136.8798065185547,35.17721176147461,0</coordinates>
</Point>
</Placemark>
<Placemark>
<name>産業技術記念館</name>
<description></description>
<Point>
<coordinates>136.87725830078125,35.180328369140625,0</coordinates>
</Point>
</Placemark>
<Placemark>
<name>栄生町</name>
<description></description>
<Point>
<coordinates>136.87413024902344,35.184104919433594,0</coordinates>
</Point>
</Placemark>
<Placemark>
<name>枇杷島スポーツセンター</name>
<description></description>
<Point>
<coordinates>136.87562561035156,35.18784713745117,0</coordinates>
</Point>
</Placemark>
<Placemark>
<name>名西二丁目</name>
<description></description>
<Point>
<coordinates>136.87840270996094,35.19158172607422,0</coordinates>
</Point>
</Placemark>
<Placemark>
<name>康生通四丁目</name>
<description></description>
<Point>
<coordinates>136.88018798828125,35.19364547729492,0</coordinates>
</Point>
</Placemark>
<Placemark>
<name>康生通三丁目</name>
<description></description>
<Point>
<coordinates>136.8827362060547,35.19658279418945,0</coordinates>
</Point>
</Placemark>
<Placemark>
<name>堀越町</name>
<description></description>
<Point>
<coordinates>136.881591796875,35.19922637939453,0</coordinates>
</Point>
</Placemark>
<Placemark>
<name>上堀越町</name>
<description></description>
<Point>
<coordinates>136.88150024414062,35.20314025878906,0</coordinates>
</Point>
</Placemark>
<Placemark>
<name>名西橋</name>
<description></description>
<Point>
<coordinates>136.87649536132812,35.200714111328125,0</coordinates>
</Point>
</Placemark>
<Placemark>
<name>堀越町西</name>
<description></description>
<Point>
<coordinates>136.87588500976562,35.19829559326172,0</coordinates>
</Point>
</Placemark>
<Placemark>
<name>琵琶里町</name>
<description></description>
<Point>
<coordinates>136.8747100830078,35.1958122253418,0</coordinates>
</Point>
</Placemark>
<Placemark>
<name>白菊町</name>
<description></description>
<Point>
<coordinates>136.87335205078125,35.193119049072266,0</coordinates>
</Point>
</Placemark>
<Placemark>
<name>円頓寺通南</name>
<description></description>
<Point>
<coordinates>136.88986206054688,35.17571258544922,0</coordinates>
</Point>
</Placemark>
<Placemark>
<name>六句町</name>
<description></description>
<Point>
<coordinates>136.89007568359375,35.1812858581543,0</coordinates>
</Point>
</Placemark>
<Placemark>
<name>江川町</name>
<description></description>
<Point>
<coordinates>136.89051818847656,35.18495559692383,0</coordinates>
</Point>
</Placemark>
<Placemark>
<name>西区役所</name>
<description></description>
<Point>
<coordinates>136.89096069335938,35.18882751464844,0</coordinates>
</Point>
</Placemark>
<Placemark>
<name>浄心町</name>
<description></description>
<Point>
<coordinates>136.89083862304688,35.19221878051758,0</coordinates>
</Point>
</Placemark>
<Placemark>
<name>秩父通</name>
<description></description>
<Point>
<coordinates>136.89053344726562,35.19709396362305,0</coordinates>
</Point>
</Placemark>
<Placemark>
<name>庄内通一丁目</name>
<description></description>
<Point>
<coordinates>136.89073181152344,35.200111389160156,0</coordinates>
</Point>
</Placemark>
<Placemark>
<name>庄内通三丁目</name>
<description></description>
<Point>
<coordinates>136.89097595214844,35.20310974121094,0</coordinates>
</Point>
</Placemark>
<Placemark>
<name>名塚</name>
<description></description>
<Point>
<coordinates>136.89109802246094,35.205810546875,0</coordinates>
</Point>
</Placemark>
<Placemark>
<name>庄内公園</name>
<description></description>
<Point>
<coordinates>136.89129638671875,35.208839416503906,0</coordinates>
</Point>
</Placemark>
<Placemark>
<name>庄内橋</name>
<description></description>
<Point>
<coordinates>136.89010620117188,35.21360778808594,0</coordinates>
</Point>
</Placemark>
<Placemark>
<name>小田井市場木</name>
<description></description>
<Point>
<coordinates>136.89016723632812,35.215999603271484,0</coordinates>
</Point>
</Placemark>
<Placemark>
<name>大野木一丁目</name>
<description></description>
<Point>
<coordinates>136.89285278320312,35.218326568603516,0</coordinates>
</Point>
</Placemark>
<Placemark>
<name>大野木四丁目</name>
<description></description>
<Point>
<coordinates>136.89605712890625,35.2224235534668,0</coordinates>
</Point>
</Placemark>
<Placemark>
<name>大野木五丁目</name>
<description></description>
<Point>
<coordinates>136.89967346191406,35.223167419433594,0</coordinates>
</Point>
</Placemark>
<Placemark>
<name>蛇池神社前</name>
<description></description>
<Point>
<coordinates>136.89942932128906,35.22531509399414,0</coordinates>
</Point>
</Placemark>
<Placemark>
<name>比良口</name>
<description></description>
<Point>
<coordinates>136.89865112304688,35.22899627685547,0</coordinates>
</Point>
</Placemark>
<Placemark>
<name>比良</name>
<description></description>
<Point>
<coordinates>136.8983917236328,35.23106002807617,0</coordinates>
</Point>
</Placemark>
<Placemark>
<name>比良新橋</name>
<description></description>
<Point>
<coordinates>136.89817810058594,35.232032775878906,0</coordinates>
</Point>
</Placemark>
<Placemark>
<name>月縄手</name>
<description></description>
<Point>
<coordinates>136.89657592773438,35.227027893066406,0</coordinates>
</Point>
</Placemark>
<Placemark>
<name>喜惣治一丁目</name>
<description></description>
<Point>
<coordinates>136.90457153320312,35.233943939208984,0</coordinates>
</Point>
</Placemark>
<Placemark>
<name>大我麻町</name>
<description></description>
<Point>
<coordinates>136.90968322753906,35.23406982421875,0</coordinates>
</Point>
</Placemark>
<Placemark>
<name>如意車庫前</name>
<description></description>
<Point>
<coordinates>136.91273498535156,35.23420715332031,0</coordinates>
</Point>
</Placemark>
<Placemark>
<name>西藪下町</name>
<description></description>
<Point>
<coordinates>136.88275146484375,35.18185043334961,0</coordinates>
</Point>
</Placemark>
<Placemark>
<name>菊ノ尾通二丁目</name>
<description></description>
<Point>
<coordinates>136.88328552246094,35.185630798339844,0</coordinates>
</Point>
</Placemark>
<Placemark>
<name>葭原町</name>
<description></description>
<Point>
<coordinates>136.8832550048828,35.18846130371094,0</coordinates>
</Point>
</Placemark>
<Placemark>
<name>児玉町</name>
<description></description>
<Point>
<coordinates>136.88375854492188,35.191890716552734,0</coordinates>
</Point>
</Placemark>
<Placemark>
<name>天神山</name>
<description></description>
<Point>
<coordinates>136.8871612548828,35.192054748535156,0</coordinates>
</Point>
</Placemark>
<Placemark>
<name>康生通一丁目</name>
<description></description>
<Point>
<coordinates>136.8874053955078,35.19630813598633,0</coordinates>
</Point>
</Placemark>
<Placemark>
<name>笠取町</name>
<description></description>
<Point>
<coordinates>136.88775634765625,35.19924545288086,0</coordinates>
</Point>
</Placemark>
<Placemark>
<name>鳥見町</name>
<description></description>
<Point>
<coordinates>136.88787841796875,35.20311737060547,0</coordinates>
</Point>
</Placemark>
<Placemark>
<name>大金町</name>
<description></description>
<Point>
<coordinates>136.88792419433594,35.20512390136719,0</coordinates>
</Point>
</Placemark>
<Placemark>
<name>江向</name>
<description></description>
<Point>
<coordinates>136.8956756591797,35.20585632324219,0</coordinates>
</Point>
</Placemark>
<Placemark>
<name>又穂住宅東</name>
<description></description>
<Point>
<coordinates>136.9006805419922,35.20624542236328,0</coordinates>
</Point>
</Placemark>
<Placemark>
<name>愛工前</name>
<description></description>
<Point>
<coordinates>136.90028381347656,35.20988464355469,0</coordinates>
</Point>
</Placemark>
<Placemark>
<name>福徳町</name>
<description></description>
<Point>
<coordinates>136.90565490722656,35.21161651611328,0</coordinates>
</Point>
</Placemark>
<Placemark>
<name>川中</name>
<description></description>
<Point>
<coordinates>136.9107666015625,35.211727142333984,0</coordinates>
</Point>
</Placemark>
<Placemark>
<name>中切町四丁目</name>
<description></description>
<Point>
<coordinates>136.9105987548828,35.21372985839844,0</coordinates>
</Point>
</Placemark>
<Placemark>
<name>中切町</name>
<description></description>
<Point>
<coordinates>136.90945434570312,35.21571731567383,0</coordinates>
</Point>
</Placemark>
<Placemark>
<name>光音寺町</name>
<description></description>
<Point>
<coordinates>136.90635681152344,35.20734405517578,0</coordinates>
</Point>
</Placemark>
<Placemark>
<name>城北小学校</name>
<description></description>
<Point>
<coordinates>136.91114807128906,35.207862854003906,0</coordinates>
</Point>
</Placemark>
<Placemark>
<name>城北病院</name>
<description></description>
<Point>
<coordinates>136.91567993164062,35.20817184448242,0</coordinates>
</Point>
</Placemark>
<Placemark>
<name>金田町五丁目</name>
<description></description>
<Point>
<coordinates>136.9185333251953,35.208404541015625,0</coordinates>
</Point>
</Placemark>
<Placemark>
<name>辻町</name>
<description></description>
<Point>
<coordinates>136.92349243164062,35.20878601074219,0</coordinates>
</Point>
</Placemark>
<Placemark>
<name>辻本通</name>
<description></description>
<Point>
<coordinates>136.9239501953125,35.20487976074219,0</coordinates>
</Point>
</Placemark>
<Placemark>
<name>上飯田西町</name>
<description></description>
<Point>
<coordinates>136.92613220214844,35.20303726196289,0</coordinates>
</Point>
</Placemark>
<Placemark>
<name>名城病院</name>
<description></description>
<Point>
<coordinates>136.90025329589844,35.181453704833984,0</coordinates>
</Point>
</Placemark>
<Placemark>
<name>明和高校前</name>
<description></description>
<Point>
<coordinates>136.9088134765625,35.18376159667969,0</coordinates>
</Point>
</Placemark>
<Placemark>
<name>土居下</name>
<description></description>
<Point>
<coordinates>136.9085235595703,35.18747329711914,0</coordinates>
</Point>
</Placemark>
<Placemark>
<name>元柳原町</name>
<description></description>
<Point>
<coordinates>136.91038513183594,35.18964767456055,0</coordinates>
</Point>
</Placemark>
<Placemark>
<name>清水二丁目</name>
<description></description>
<Point>
<coordinates>136.91477966308594,35.18955993652344,0</coordinates>
</Point>
</Placemark>
<Placemark>
<name>東杉町一丁目</name>
<description></description>
<Point>
<coordinates>136.9197235107422,35.18949508666992,0</coordinates>
</Point>
</Placemark>
<Placemark>
<name>杉栄町</name>
<description></description>
<Point>
<coordinates>136.9243621826172,35.189422607421875,0</coordinates>
</Point>
</Placemark>
<Placemark>
<name>菊井通四丁目</name>
<description></description>
<Point>
<coordinates>136.88609313964844,35.18233871459961,0</coordinates>
</Point>
</Placemark>
<Placemark>
<name>押切町</name>
<description></description>
<Point>
<coordinates>136.88612365722656,35.18484115600586,0</coordinates>
</Point>
</Placemark>
<Placemark>
<name>平六通</name>
<description></description>
<Point>
<coordinates>136.89584350585938,35.19715881347656,0</coordinates>
</Point>
</Placemark>
<Placemark>
<name>西ハサバ</name>
<description></description>
<Point>
<coordinates>136.90003967285156,35.19721221923828,0</coordinates>
</Point>
</Placemark>
<Placemark>
<name>城見通二丁目</name>
<description></description>
<Point>
<coordinates>136.90322875976562,35.19719314575195,0</coordinates>
</Point>
</Placemark>
<Placemark>
<name>城見町</name>
<description></description>
<Point>
<coordinates>136.90696716308594,35.19720458984375,0</coordinates>
</Point>
</Placemark>
<Placemark>
<name>志賀橋</name>
<description></description>
<Point>
<coordinates>136.91612243652344,35.196632385253906,0</coordinates>
</Point>
</Placemark>
<Placemark>
<name>志賀本通</name>
<description></description>
<Point>
<coordinates>136.9189453125,35.19636917114258,0</coordinates>
</Point>
</Placemark>
<Placemark>
<name>若葉通</name>
<description></description>
<Point>
<coordinates>136.9243927001953,35.196189880371094,0</coordinates>
</Point>
</Placemark>
<Placemark>
<name>矢田</name>
<description></description>
<Point>
<coordinates>136.9436492919922,35.19101333618164,0</coordinates>
</Point>
</Placemark>
<Placemark>
<name>大幸</name>
<description></description>
<Point>
<coordinates>136.94699096679688,35.19032287597656,0</coordinates>
</Point>
</Placemark>
<Placemark>
<name>名大大幸医療センター</name>
<description></description>
<Point>
<coordinates>136.95004272460938,35.18971633911133,0</coordinates>
</Point>
</Placemark>
<Placemark>
<name>砂田橋</name>
<description></description>
<Point>
<coordinates>136.95516967773438,35.18861770629883,0</coordinates>
</Point>
</Placemark>
<Placemark>
<name>東新町</name>
<description></description>
<Point>
<coordinates>136.91458129882812,35.1694221496582,0</coordinates>
</Point>
</Placemark>
<Placemark>
<name>下広井町</name>
<description></description>
<Point>
<coordinates>136.88641357421875,35.16465377807617,0</coordinates>
</Point>
</Placemark>
<Placemark>
<name>下広井町三丁目</name>
<description></description>
<Point>
<coordinates>136.8897705078125,35.16242218017578,0</coordinates>
</Point>
</Placemark>
<Placemark>
<name>白川公園</name>
<description></description>
<Point>
<coordinates>136.89898681640625,35.162654876708984,0</coordinates>
</Point>
</Placemark>
<Placemark>
<name>千早小学校</name>
<description></description>
<Point>
<coordinates>136.9180145263672,35.1613655090332,0</coordinates>
</Point>
</Placemark>
<Placemark>
<name>千早</name>
<description></description>
<Point>
<coordinates>136.9241943359375,35.16074752807617,0</coordinates>
</Point>
</Placemark>
<Placemark>
<name>地下鉄吹上</name>
<description></description>
<Point>
<coordinates>136.93528747558594,35.159271240234375,0</coordinates>
</Point>
</Placemark>
<Placemark>
<name>大久手</name>
<description></description>
<Point>
<coordinates>136.93588256835938,35.1627197265625,0</coordinates>
</Point>
</Placemark>
<Placemark>
<name>春岡通</name>
<description></description>
<Point>
<coordinates>136.9402618408203,35.16207504272461,0</coordinates>
</Point>
</Placemark>
<Placemark>
<name>丸山本通</name>
<description></description>
<Point>
<coordinates>136.9452667236328,35.16138458251953,0</coordinates>
</Point>
</Placemark>
<Placemark>
<name>日進通五丁目</name>
<description></description>
<Point>
<coordinates>136.95013427734375,35.160858154296875,0</coordinates>
</Point>
</Placemark>
<Placemark>
<name>田代本通</name>
<description></description>
<Point>
<coordinates>136.9542999267578,35.16049575805664,0</coordinates>
</Point>
</Placemark>
<Placemark>
<name>見付小学校</name>
<description></description>
<Point>
<coordinates>136.9600067138672,35.15944290161133,0</coordinates>
</Point>
</Placemark>
<Placemark>
<name>四ツ谷通三丁目</name>
<description></description>
<Point>
<coordinates>136.96591186523438,35.15779113769531,0</coordinates>
</Point>
</Placemark>
<Placemark>
<name>名古屋大学</name>
<description></description>
<Point>
<coordinates>136.96621704101562,35.154029846191406,0</coordinates>
</Point>
</Placemark>
<Placemark>
<name>水主町</name>
<description></description>
<Point>
<coordinates>136.8914337158203,35.15962219238281,0</coordinates>
</Point>
</Placemark>
<Placemark>
<name>岩井通一丁目</name>
<description></description>
<Point>
<coordinates>136.89370727539062,35.15912628173828,0</coordinates>
</Point>
</Placemark>
<Placemark>
<name>西大須</name>
<description></description>
<Point>
<coordinates>136.89674377441406,35.158443450927734,0</coordinates>
</Point>
</Placemark>
<Placemark>
<name>大須</name>
<description></description>
<Point>
<coordinates>136.9012908935547,35.15769958496094,0</coordinates>
</Point>
</Placemark>
<Placemark>
<name>神宮東公園</name>
<description></description>
<Point>
<coordinates>136.91331481933594,35.13054656982422,0</coordinates>
</Point>
</Placemark>
<Placemark>
<name>名鉄神宮前</name>
<description></description>
<Point>
<coordinates>136.9125518798828,35.12769317626953,0</coordinates>
</Point>
</Placemark>
<Placemark>
<name>八角堂前</name>
<description></description>
<Point>
<coordinates>136.8905487060547,35.16374588012695,0</coordinates>
</Point>
</Placemark>
<Placemark>
<name>日置橋</name>
<description></description>
<Point>
<coordinates>136.89210510253906,35.15658187866211,0</coordinates>
</Point>
</Placemark>
<Placemark>
<name>山王橋</name>
<description></description>
<Point>
<coordinates>136.892578125,35.15285110473633,0</coordinates>
</Point>
</Placemark>
<Placemark>
<name>古渡橋</name>
<description></description>
<Point>
<coordinates>136.89285278320312,35.149234771728516,0</coordinates>
</Point>
</Placemark>
<Placemark>
<name>尾頭橋</name>
<description></description>
<Point>
<coordinates>136.89308166503906,35.143131256103516,0</coordinates>
</Point>
</Placemark>
<Placemark>
<name>八幡西通</name>
<description></description>
<Point>
<coordinates>136.8885955810547,35.14430618286133,0</coordinates>
</Point>
</Placemark>
<Placemark>
<name>荒江町</name>
<description></description>
<Point>
<coordinates>136.88690185546875,35.142208099365234,0</coordinates>
</Point>
</Placemark>
<Placemark>
<name>八幡小学校</name>
<description></description>
<Point>
<coordinates>136.88507080078125,35.14084243774414,0</coordinates>
</Point>
</Placemark>
<Placemark>
<name>牛立町</name>
<description></description>
<Point>
<coordinates>136.8821563720703,35.137603759765625,0</coordinates>
</Point>
</Placemark>
<Placemark>
<name>神郷町</name>
<description></description>
<Point>
<coordinates>136.88150024414062,35.13448715209961,0</coordinates>
</Point>
</Placemark>
<Placemark>
<name>中野本町二丁目</name>
<description></description>
<Point>
<coordinates>136.880126953125,35.1315803527832,0</coordinates>
</Point>
</Placemark>
<Placemark>
<name>外新町四丁目</name>
<description></description>
<Point>
<coordinates>136.8797149658203,35.12833786010742,0</coordinates>
</Point>
</Placemark>
<Placemark>
<name>十一番町</name>
<description></description>
<Point>
<coordinates>136.87974548339844,35.12468338012695,0</coordinates>
</Point>
</Placemark>
<Placemark>
<name>玉川町</name>
<description></description>
<Point>
<coordinates>136.87757873535156,35.11931610107422,0</coordinates>
</Point>
</Placemark>
<Placemark>
<name>臨港線踏切</name>
<description></description>
<Point>
<coordinates>136.88180541992188,35.113407135009766,0</coordinates>
</Point>
</Placemark>
<Placemark>
<name>東海通</name>
<description></description>
<Point>
<coordinates>136.88601684570312,35.11335372924805,0</coordinates>
</Point>
</Placemark>
<Placemark>
<name>港区役所</name>
<description></description>
<Point>
<coordinates>136.8851776123047,35.109256744384766,0</coordinates>
</Point>
</Placemark>
<Placemark>
<name>西日置</name>
<description></description>
<Point>
<coordinates>136.88755798339844,35.156864166259766,0</coordinates>
</Point>
</Placemark>
<Placemark>
<name>柳原橋</name>
<description></description>
<Point>
<coordinates>136.88609313964844,35.15366744995117,0</coordinates>
</Point>
</Placemark>
<Placemark>
<name>広川町二丁目</name>
<description></description>
<Point>
<coordinates>136.88217163085938,35.15345001220703,0</coordinates>
</Point>
</Placemark>
<Placemark>
<name>広川町四丁目</name>
<description></description>
<Point>
<coordinates>136.87911987304688,35.149925231933594,0</coordinates>
</Point>
</Placemark>
<Placemark>
<name>富川町</name>
<description></description>
<Point>
<coordinates>136.8767852783203,35.14474105834961,0</coordinates>
</Point>
</Placemark>
<Placemark>
<name>運河通</name>
<description></description>
<Point>
<coordinates>136.88204956054688,35.15839767456055,0</coordinates>
</Point>
</Placemark>
<Placemark>
<name>運河通三丁目</name>
<description></description>
<Point>
<coordinates>136.87721252441406,35.15716552734375,0</coordinates>
</Point>
</Placemark>
<Placemark>
<name>五月通</name>
<description></description>
<Point>
<coordinates>136.8736572265625,35.15581130981445,0</coordinates>
</Point>
</Placemark>
<Placemark>
<name>五月南通</name>
<description></description>
<Point>
<coordinates>136.8726806640625,35.151912689208984,0</coordinates>
</Point>
</Placemark>
<Placemark>
<name>長良町三丁目</name>
<description></description>
<Point>
<coordinates>136.87240600585938,35.14937973022461,0</coordinates>
</Point>
</Placemark>
<Placemark>
<name>四女子町</name>
<description></description>
<Point>
<coordinates>136.8719024658203,35.14545440673828,0</coordinates>
</Point>
</Placemark>
<Placemark>
<name>松葉公園前</name>
<description></description>
<Point>
<coordinates>136.8707275390625,35.14069747924805,0</coordinates>
</Point>
</Placemark>
<Placemark>
<name>太平通三丁目</name>
<description></description>
<Point>
<coordinates>136.86973571777344,35.136714935302734,0</coordinates>
</Point>
</Placemark>
<Placemark>
<name>長良中学校</name>
<description></description>
<Point>
<coordinates>136.868896484375,35.133296966552734,0</coordinates>
</Point>
</Placemark>
<Placemark>
<name>太平通六丁目</name>
<description></description>
<Point>
<coordinates>136.86900329589844,35.13009262084961,0</coordinates>
</Point>
</Placemark>
<Placemark>
<name>中野新町</name>
<description></description>
<Point>
<coordinates>136.869140625,35.1248779296875,0</coordinates>
</Point>
</Placemark>
<Placemark>
<name>市立工業高校</name>
<description></description>
<Point>
<coordinates>136.86402893066406,35.124610900878906,0</coordinates>
</Point>
</Placemark>
<Placemark>
<name>中島駅</name>
<description></description>
<Point>
<coordinates>136.8603057861328,35.12440872192383,0</coordinates>
</Point>
</Placemark>
<Placemark>
<name>東中島</name>
<description></description>
<Point>
<coordinates>136.85787963867188,35.12430191040039,0</coordinates>
</Point>
</Placemark>
<Placemark>
<name>中島橋</name>
<description></description>
<Point>
<coordinates>136.85458374023438,35.12412643432617,0</coordinates>
</Point>
</Placemark>
<Placemark>
<name>中島新町</name>
<description></description>
<Point>
<coordinates>136.85073852539062,35.12409973144531,0</coordinates>
</Point>
</Placemark>
<Placemark>
<name>中川車庫前</name>
<description></description>
<Point>
<coordinates>136.84703063964844,35.124088287353516,0</coordinates>
</Point>
</Placemark>
<Placemark>
<name>東起橋</name>
<description></description>
<Point>
<coordinates>136.8422393798828,35.1240348815918,0</coordinates>
</Point>
</Placemark>
<Placemark>
<name>松蔭公園前</name>
<description></description>
<Point>
<coordinates>136.83926391601562,35.124046325683594,0</coordinates>
</Point>
</Placemark>
<Placemark>
<name>一色大橋</name>
<description></description>
<Point>
<coordinates>136.83380126953125,35.12412643432617,0</coordinates>
</Point>
</Placemark>
<Placemark>
<name>権野</name>
<description></description>
<Point>
<coordinates>136.8291015625,35.12560272216797,0</coordinates>
</Point>
</Placemark>
<Placemark>
<name>笈瀬通</name>
<description></description>
<Point>
<coordinates>136.87948608398438,35.167449951171875,0</coordinates>
</Point>
</Placemark>
<Placemark>
<name>中村区役所</name>
<description></description>
<Point>
<coordinates>136.87242126464844,35.16766357421875,0</coordinates>
</Point>
</Placemark>
<Placemark>
<name>大門通東</name>
<description></description>
<Point>
<coordinates>136.8688507080078,35.167823791503906,0</coordinates>
</Point>
</Placemark>
<Placemark>
<name>大宮町</name>
<description></description>
<Point>
<coordinates>136.86386108398438,35.16653823852539,0</coordinates>
</Point>
</Placemark>
<Placemark>
<name>千成通</name>
<description></description>
<Point>
<coordinates>136.86474609375,35.1629753112793,0</coordinates>
</Point>
</Placemark>
<Placemark>
<name>城西病院前</name>
<description></description>
<Point>
<coordinates>136.8648681640625,35.15747833251953,0</coordinates>
</Point>
</Placemark>
<Placemark>
<name>烏森駅</name>
<description></description>
<Point>
<coordinates>136.8636474609375,35.15327072143555,0</coordinates>
</Point>
</Placemark>
<Placemark>
<name>烏森町七丁目</name>
<description></description>
<Point>
<coordinates>136.8577423095703,35.15134048461914,0</coordinates>
</Point>
</Placemark>
<Placemark>
<name>並木二丁目</name>
<description></description>
<Point>
<coordinates>136.85145568847656,35.14984130859375,0</coordinates>
</Point>
</Placemark>
<Placemark>
<name>中深</name>
<description></description>
<Point>
<coordinates>136.84671020507812,35.14875411987305,0</coordinates>
</Point>
</Placemark>
<Placemark>
<name>竪出</name>
<description></description>
<Point>
<coordinates>136.84356689453125,35.14854049682617,0</coordinates>
</Point>
</Placemark>
<Placemark>
<name>中村住宅</name>
<description></description>
<Point>
<coordinates>136.83627319335938,35.147830963134766,0</coordinates>
</Point>
</Placemark>
<Placemark>
<name>横井町</name>
<description></description>
<Point>
<coordinates>136.83316040039062,35.14813995361328,0</coordinates>
</Point>
</Placemark>
<Placemark>
<name>松蔭高校</name>
<description></description>
<Point>
<coordinates>136.861083984375,35.15760040283203,0</coordinates>
</Point>
</Placemark>
<Placemark>
<name>岩塚本通四丁目</name>
<description></description>
<Point>
<coordinates>136.8461456298828,35.15795135498047,0</coordinates>
</Point>
</Placemark>
<Placemark>
<name>並木町</name>
<description></description>
<Point>
<coordinates>136.8524932861328,35.15505599975586,0</coordinates>
</Point>
</Placemark>
<Placemark>
<name>岩塚小学校</name>
<description></description>
<Point>
<coordinates>136.84710693359375,35.15555191040039,0</coordinates>
</Point>
</Placemark>
<Placemark>
<name>岩塚石橋</name>
<description></description>
<Point>
<coordinates>136.84405517578125,35.155643463134766,0</coordinates>
</Point>
</Placemark>
<Placemark>
<name>城前</name>
<description></description>
<Point>
<coordinates>136.8443145751953,35.15312576293945,0</coordinates>
</Point>
</Placemark>
<Placemark>
<name>楠橋</name>
<description></description>
<Point>
<coordinates>136.8600616455078,35.16819381713867,0</coordinates>
</Point>
</Placemark>
<Placemark>
<name>大治役場前</name>
<description></description>
<Point>
<coordinates>136.81967163085938,35.17271041870117,0</coordinates>
</Point>
</Placemark>
<Placemark>
<name>西条</name>
<description></description>
<Point>
<coordinates>136.81265258789062,35.17266845703125,0</coordinates>
</Point>
</Placemark>
<Placemark>
<name>鷹羽町</name>
<description></description>
<Point>
<coordinates>136.87692260742188,35.17206573486328,0</coordinates>
</Point>
</Placemark>
<Placemark>
<name>則武町</name>
<description></description>
<Point>
<coordinates>136.87510681152344,35.17216110229492,0</coordinates>
</Point>
</Placemark>
<Placemark>
<name>中島町</name>
<description></description>
<Point>
<coordinates>136.87026977539062,35.17218780517578,0</coordinates>
</Point>
</Placemark>
<Placemark>
<name>大秋町</name>
<description></description>
<Point>
<coordinates>136.86656188964844,35.17253494262695,0</coordinates>
</Point>
</Placemark>
<Placemark>
<name>鳥居通三丁目</name>
<description></description>
<Point>
<coordinates>136.86256408691406,35.173152923583984,0</coordinates>
</Point>
</Placemark>
<Placemark>
<name>中村小学校前</name>
<description></description>
<Point>
<coordinates>136.85919189453125,35.17327117919922,0</coordinates>
</Point>
</Placemark>
<Placemark>
<name>豊国神社</name>
<description></description>
<Point>
<coordinates>136.8551025390625,35.17328643798828,0</coordinates>
</Point>
</Placemark>
<Placemark>
<name>東宿町</name>
<description></description>
<Point>
<coordinates>136.85015869140625,35.17378234863281,0</coordinates>
</Point>
</Placemark>
<Placemark>
<name>豊公橋</name>
<description></description>
<Point>
<coordinates>136.8494110107422,35.1777229309082,0</coordinates>
</Point>
</Placemark>
<Placemark>
<name>中村公園北口</name>
<description></description>
<Point>
<coordinates>136.8563690185547,35.17768478393555,0</coordinates>
</Point>
</Placemark>
<Placemark>
<name>豊臣小学校前</name>
<description></description>
<Point>
<coordinates>136.8613739013672,35.177642822265625,0</coordinates>
</Point>
</Placemark>
<Placemark>
<name>本陣</name>
<description></description>
<Point>
<coordinates>136.86773681640625,35.17760467529297,0</coordinates>
</Point>
</Placemark>
<Placemark>
<name>本陣通二丁目</name>
<description></description>
<Point>
<coordinates>136.87294006347656,35.177547454833984,0</coordinates>
</Point>
</Placemark>
<Placemark>
<name>済生会病院</name>
<description></description>
<Point>
<coordinates>136.87918090820312,35.18681335449219,0</coordinates>
</Point>
</Placemark>
<Placemark>
<name>古城</name>
<description></description>
<Point>
<coordinates>136.869384765625,35.209224700927734,0</coordinates>
</Point>
</Placemark>
<Placemark>
<name>小田井野田</name>
<description></description>
<Point>
<coordinates>136.87025451660156,35.212989807128906,0</coordinates>
</Point>
</Placemark>
<Placemark>
<name>島落</name>
<description></description>
<Point>
<coordinates>136.8726043701172,35.217437744140625,0</coordinates>
</Point>
</Placemark>
<Placemark>
<name>上小田井駅</name>
<description></description>
<Point>
<coordinates>136.87673950195312,35.222503662109375,0</coordinates>
</Point>
</Placemark>
<Placemark>
<name>木曽橋</name>
<description></description>
<Point>
<coordinates>136.8760223388672,35.221500396728516,0</coordinates>
</Point>
</Placemark>
<Placemark>
<name>平田口</name>
<description></description>
<Point>
<coordinates>136.8705291748047,35.2244873046875,0</coordinates>
</Point>
</Placemark>
<Placemark>
<name>平田中学校</name>
<description></description>
<Point>
<coordinates>136.86680603027344,35.221004486083984,0</coordinates>
</Point>
</Placemark>
<Placemark>
<name>新木町</name>
<description></description>
<Point>
<coordinates>136.8635711669922,35.2169303894043,0</coordinates>
</Point>
</Placemark>
<Placemark>
<name>見寄町</name>
<description></description>
<Point>
<coordinates>136.8620147705078,35.22006607055664,0</coordinates>
</Point>
</Placemark>
<Placemark>
<name>中沼町</name>
<description></description>
<Point>
<coordinates>136.86090087890625,35.22313690185547,0</coordinates>
</Point>
</Placemark>
<Placemark>
<name>平田折戸</name>
<description></description>
<Point>
<coordinates>136.8607940673828,35.224998474121094,0</coordinates>
</Point>
</Placemark>
<Placemark>
<name>平田住宅</name>
<description></description>
<Point>
<coordinates>136.86065673828125,35.22730255126953,0</coordinates>
</Point>
</Placemark>
<Placemark>
<name>則武本通三丁目</name>
<description></description>
<Point>
<coordinates>136.87290954589844,35.170875549316406,0</coordinates>
</Point>
</Placemark>
<Placemark>
<name>則武本通二丁目</name>
<description></description>
<Point>
<coordinates>136.8729248046875,35.17405319213867,0</coordinates>
</Point>
</Placemark>
<Placemark>
<name>森田町</name>
<description></description>
<Point>
<coordinates>136.8636474609375,35.17896270751953,0</coordinates>
</Point>
</Placemark>
<Placemark>
<name>高道町</name>
<description></description>
<Point>
<coordinates>136.86366271972656,35.18121337890625,0</coordinates>
</Point>
</Placemark>
<Placemark>
<name>日比津小学校前</name>
<description></description>
<Point>
<coordinates>136.8636932373047,35.184112548828125,0</coordinates>
</Point>
</Placemark>
<Placemark>
<name>猪之越町</name>
<description></description>
<Point>
<coordinates>136.8637237548828,35.1858024597168,0</coordinates>
</Point>
</Placemark>
<Placemark>
<name>新富町</name>
<description></description>
<Point>
<coordinates>136.8647918701172,35.1878662109375,0</coordinates>
</Point>
</Placemark>
<Placemark>
<name>枇杷島通三丁目</name>
<description></description>
<Point>
<coordinates>136.86947631835938,35.18966293334961,0</coordinates>
</Point>
</Placemark>
<Placemark>
<name>高岳</name>
<description></description>
<Point>
<coordinates>136.914306640625,35.17416000366211,0</coordinates>
</Point>
</Placemark>
<Placemark>
<name>深田町</name>
<description></description>
<Point>
<coordinates>136.9132537841797,35.18638229370117,0</coordinates>
</Point>
</Placemark>
<Placemark>
<name>西杉町</name>
<description></description>
<Point>
<coordinates>136.9127655029297,35.19134521484375,0</coordinates>
</Point>
</Placemark>
<Placemark>
<name>黒川本通四丁目</name>
<description></description>
<Point>
<coordinates>136.91184997558594,35.201175689697266,0</coordinates>
</Point>
</Placemark>
<Placemark>
<name>北図書館</name>
<description></description>
<Point>
<coordinates>136.9115447998047,35.2041015625,0</coordinates>
</Point>
</Placemark>
<Placemark>
<name>博物館</name>
<description></description>
<Point>
<coordinates>136.93394470214844,35.13554000854492,0</coordinates>
</Point>
</Placemark>
<Placemark>
<name>新川中橋</name>
<description></description>
<Point>
<coordinates>136.9100341796875,35.22370147705078,0</coordinates>
</Point>
</Placemark>
<Placemark>
<name>味鋺住宅</name>
<description></description>
<Point>
<coordinates>136.91653442382812,35.22233200073242,0</coordinates>
</Point>
</Placemark>
<Placemark>
<name>中味鋺</name>
<description></description>
<Point>
<coordinates>136.92019653320312,35.22243881225586,0</coordinates>
</Point>
</Placemark>
<Placemark>
<name>味鋺小学校北</name>
<description></description>
<Point>
<coordinates>136.92584228515625,35.222652435302734,0</coordinates>
</Point>
</Placemark>
<Placemark>
<name>味鋺</name>
<description></description>
<Point>
<coordinates>136.9273681640625,35.22041320800781,0</coordinates>
</Point>
</Placemark>
<Placemark>
<name>水分橋</name>
<description></description>
<Point>
<coordinates>136.9333038330078,35.22034454345703,0</coordinates>
</Point>
</Placemark>
<Placemark>
<name>北味鋺</name>
<description></description>
<Point>
<coordinates>136.9246826171875,35.22554016113281,0</coordinates>
</Point>
</Placemark>
<Placemark>
<name>楠支所</name>
<description></description>
<Point>
<coordinates>136.92330932617188,35.22882843017578,0</coordinates>
</Point>
</Placemark>
<Placemark>
<name>楠町</name>
<description></description>
<Point>
<coordinates>136.92092895507812,35.234737396240234,0</coordinates>
</Point>
</Placemark>
<Placemark>
<name>池端</name>
<description></description>
<Point>
<coordinates>136.92054748535156,35.23634719848633,0</coordinates>
</Point>
</Placemark>
<Placemark>
<name>如意上ノ池</name>
<description></description>
<Point>
<coordinates>136.9227294921875,35.23701858520508,0</coordinates>
</Point>
</Placemark>
<Placemark>
<name>如意住宅</name>
<description></description>
<Point>
<coordinates>136.9285125732422,35.23704528808594,0</coordinates>
</Point>
</Placemark>
<Placemark>
<name>新大正橋西</name>
<description></description>
<Point>
<coordinates>136.8303985595703,35.167991638183594,0</coordinates>
</Point>
</Placemark>
<Placemark>
<name>名城町</name>
<description></description>
<Point>
<coordinates>136.904541015625,35.18742752075195,0</coordinates>
</Point>
</Placemark>
<Placemark>
<name>名城公園</name>
<description></description>
<Point>
<coordinates>136.9036865234375,35.19042205810547,0</coordinates>
</Point>
</Placemark>
<Placemark>
<name>城北橋</name>
<description></description>
<Point>
<coordinates>136.9034423828125,35.19269561767578,0</coordinates>
</Point>
</Placemark>
<Placemark>
<name>志賀公園前</name>
<description></description>
<Point>
<coordinates>136.90322875976562,35.201507568359375,0</coordinates>
</Point>
</Placemark>
<Placemark>
<name>中丸町</name>
<description></description>
<Point>
<coordinates>136.9032440185547,35.2055778503418,0</coordinates>
</Point>
</Placemark>
<Placemark>
<name>庄内緑地公園</name>
<description></description>
<Point>
<coordinates>136.88572692871094,35.21626663208008,0</coordinates>
</Point>
</Placemark>
<Placemark>
<name>南川町</name>
<description></description>
<Point>
<coordinates>136.8818817138672,35.21836471557617,0</coordinates>
</Point>
</Placemark>
<Placemark>
<name>平田</name>
<description></description>
<Point>
<coordinates>136.86851501464844,35.226985931396484,0</coordinates>
</Point>
</Placemark>
<Placemark>
<name>平田小学校</name>
<description></description>
<Point>
<coordinates>136.8646697998047,35.22749710083008,0</coordinates>
</Point>
</Placemark>
<Placemark>
<name>新栄町</name>
<description></description>
<Point>
<coordinates>136.9193572998047,35.16972732543945,0</coordinates>
</Point>
</Placemark>
<Placemark>
<name>布池</name>
<description></description>
<Point>
<coordinates>136.9195098876953,35.174190521240234,0</coordinates>
</Point>
</Placemark>
<Placemark>
<name>杉村町</name>
<description></description>
<Point>
<coordinates>136.92430114746094,35.1884765625,0</coordinates>
</Point>
</Placemark>
<Placemark>
<name>杉栄町五丁目</name>
<description></description>
<Point>
<coordinates>136.9243927001953,35.19363784790039,0</coordinates>
</Point>
</Placemark>
<Placemark>
<name>瑠璃光町</name>
<description></description>
<Point>
<coordinates>136.92434692382812,35.19972610473633,0</coordinates>
</Point>
</Placemark>
<Placemark>
<name>安井町東</name>
<description></description>
<Point>
<coordinates>136.92160034179688,35.21113967895508,0</coordinates>
</Point>
</Placemark>
<Placemark>
<name>安井町</name>
<description></description>
<Point>
<coordinates>136.91836547851562,35.21155548095703,0</coordinates>
</Point>
</Placemark>
<Placemark>
<name>安井町西</name>
<description></description>
<Point>
<coordinates>136.91429138183594,35.21168899536133,0</coordinates>
</Point>
</Placemark>
<Placemark>
<name>袋町通本町</name>
<description></description>
<Point>
<coordinates>136.90194702148438,35.17090606689453,0</coordinates>
</Point>
</Placemark>
<Placemark>
<name>名古屋城正門前</name>
<description></description>
<Point>
<coordinates>136.8978729248047,35.18294143676758,0</coordinates>
</Point>
</Placemark>
<Placemark>
<name>樋ノ口町一丁目</name>
<description></description>
<Point>
<coordinates>136.89581298828125,35.184608459472656,0</coordinates>
</Point>
</Placemark>
<Placemark>
<name>樋ノ口町二丁目</name>
<description></description>
<Point>
<coordinates>136.8957061767578,35.18893814086914,0</coordinates>
</Point>
</Placemark>
<Placemark>
<name>弁天通三丁目</name>
<description></description>
<Point>
<coordinates>136.89590454101562,35.192474365234375,0</coordinates>
</Point>
</Placemark>
<Placemark>
<name>天塚町</name>
<description></description>
<Point>
<coordinates>136.89573669433594,35.20022201538086,0</coordinates>
</Point>
</Placemark>
<Placemark>
<name>香呑町</name>
<description></description>
<Point>
<coordinates>136.8957061767578,35.20275115966797,0</coordinates>
</Point>
</Placemark>
<Placemark>
<name>稲生町</name>
<description></description>
<Point>
<coordinates>136.8972625732422,35.209781646728516,0</coordinates>
</Point>
</Placemark>
<Placemark>
<name>水筒先</name>
<description></description>
<Point>
<coordinates>136.92576599121094,35.17401123046875,0</coordinates>
</Point>
</Placemark>
<Placemark>
<name>桜通車道</name>
<description></description>
<Point>
<coordinates>136.92945861816406,35.173458099365234,0</coordinates>
</Point>
</Placemark>
<Placemark>
<name>豊前</name>
<description></description>
<Point>
<coordinates>136.9321746826172,35.17580032348633,0</coordinates>
</Point>
</Placemark>
<Placemark>
<name>百人町</name>
<description></description>
<Point>
<coordinates>136.93296813964844,35.178829193115234,0</coordinates>
</Point>
</Placemark>
<Placemark>
<name>徳川町六丁目</name>
<description></description>
<Point>
<coordinates>136.93472290039062,35.185768127441406,0</coordinates>
</Point>
</Placemark>
<Placemark>
<name>大曽根駅西</name>
<description></description>
<Point>
<coordinates>136.93515014648438,35.18816375732422,0</coordinates>
</Point>
</Placemark>
<Placemark>
<name>山田町三丁目</name>
<description></description>
<Point>
<coordinates>136.9370574951172,35.19651794433594,0</coordinates>
</Point>
</Placemark>
<Placemark>
<name>山田</name>
<description></description>
<Point>
<coordinates>136.9388427734375,35.19890213012695,0</coordinates>
</Point>
</Placemark>
<Placemark>
<name>天神橋</name>
<description></description>
<Point>
<coordinates>136.93978881835938,35.20175552368164,0</coordinates>
</Point>
</Placemark>
<Placemark>
<name>瀬古口</name>
<description></description>
<Point>
<coordinates>136.94349670410156,35.20569610595703,0</coordinates>
</Point>
</Placemark>
<Placemark>
<name>瀬古</name>
<description></description>
<Point>
<coordinates>136.94467163085938,35.20850372314453,0</coordinates>
</Point>
</Placemark>
<Placemark>
<name>幸心口</name>
<description></description>
<Point>
<coordinates>136.9468536376953,35.21156692504883,0</coordinates>
</Point>
</Placemark>
<Placemark>
<name>幸心</name>
<description></description>
<Point>
<coordinates>136.94981384277344,35.2115592956543,0</coordinates>
</Point>
</Placemark>
<Placemark>
<name>二城小学校</name>
<description></description>
<Point>
<coordinates>136.9549102783203,35.21031951904297,0</coordinates>
</Point>
</Placemark>
<Placemark>
<name>新守山駅</name>
<description></description>
<Point>
<coordinates>136.95144653320312,35.20703125,0</coordinates>
</Point>
</Placemark>
<Placemark>
<name>新栄三丁目</name>
<description></description>
<Point>
<coordinates>136.92369079589844,35.16685104370117,0</coordinates>
</Point>
</Placemark>
<Placemark>
<name>千種本町</name>
<description></description>
<Point>
<coordinates>136.9275665283203,35.164527893066406,0</coordinates>
</Point>
</Placemark>
<Placemark>
<name>古井ノ坂</name>
<description></description>
<Point>
<coordinates>136.9301300048828,35.162662506103516,0</coordinates>
</Point>
</Placemark>
<Placemark>
<name>青柳町</name>
<description></description>
<Point>
<coordinates>136.9387969970703,35.158546447753906,0</coordinates>
</Point>
</Placemark>
<Placemark>
<name>安田通</name>
<description></description>
<Point>
<coordinates>136.94207763671875,35.15620040893555,0</coordinates>
</Point>
</Placemark>
<Placemark>
<name>宮裏</name>
<description></description>
<Point>
<coordinates>136.94577026367188,35.1539306640625,0</coordinates>
</Point>
</Placemark>
<Placemark>
<name>川原通</name>
<description></description>
<Point>
<coordinates>136.94927978515625,35.151756286621094,0</coordinates>
</Point>
</Placemark>
<Placemark>
<name>山花町</name>
<description></description>
<Point>
<coordinates>136.95309448242188,35.152591705322266,0</coordinates>
</Point>
</Placemark>
<Placemark>
<name>前山町</name>
<description></description>
<Point>
<coordinates>136.95657348632812,35.15337371826172,0</coordinates>
</Point>
</Placemark>
<Placemark>
<name>楽園町</name>
<description></description>
<Point>
<coordinates>136.95993041992188,35.15191650390625,0</coordinates>
</Point>
</Placemark>
<Placemark>
<name>八雲町</name>
<description></description>
<Point>
<coordinates>136.96353149414062,35.15263366699219,0</coordinates>
</Point>
</Placemark>
<Placemark>
<name>鶴舞公園北口</name>
<description></description>
<Point>
<coordinates>136.91799926757812,35.158077239990234,0</coordinates>
</Point>
</Placemark>
<Placemark>
<name>名大病院</name>
<description></description>
<Point>
<coordinates>136.92083740234375,35.157081604003906,0</coordinates>
</Point>
</Placemark>
<Placemark>
<name>竜ケ池</name>
<description></description>
<Point>
<coordinates>136.92425537109375,35.15509796142578,0</coordinates>
</Point>
</Placemark>
<Placemark>
<name>曙町一丁目</name>
<description></description>
<Point>
<coordinates>136.92691040039062,35.15574264526367,0</coordinates>
</Point>
</Placemark>
<Placemark>
<name>曙町二丁目</name>
<description></description>
<Point>
<coordinates>136.9305877685547,35.15555953979492,0</coordinates>
</Point>
</Placemark>
<Placemark>
<name>阿由知通二丁目</name>
<description></description>
<Point>
<coordinates>136.93453979492188,35.1548957824707,0</coordinates>
</Point>
</Placemark>
<Placemark>
<name>塩付</name>
<description></description>
<Point>
<coordinates>136.93905639648438,35.154136657714844,0</coordinates>
</Point>
</Placemark>
<Placemark>
<name>川名本町</name>
<description></description>
<Point>
<coordinates>136.94149780273438,35.1526985168457,0</coordinates>
</Point>
</Placemark>
<Placemark>
<name>弁天前</name>
<description></description>
<Point>
<coordinates>136.94419860839844,35.15040588378906,0</coordinates>
</Point>
</Placemark>
<Placemark>
<name>広路小学校</name>
<description></description>
<Point>
<coordinates>136.9481201171875,35.149688720703125,0</coordinates>
</Point>
</Placemark>
<Placemark>
<name>山中</name>
<description></description>
<Point>
<coordinates>136.95120239257812,35.148380279541016,0</coordinates>
</Point>
</Placemark>
<Placemark>
<name>滝川町</name>
<description></description>
<Point>
<coordinates>136.9596405029297,35.145565032958984,0</coordinates>
</Point>
</Placemark>
<Placemark>
<name>八事日赤病院</name>
<description></description>
<Point>
<coordinates>136.96458435058594,35.14659118652344,0</coordinates>
</Point>
</Placemark>
<Placemark>
<name>妙見町</name>
<description></description>
<Point>
<coordinates>136.96810913085938,35.14633560180664,0</coordinates>
</Point>
</Placemark>
<Placemark>
<name>千代田五丁目</name>
<description></description>
<Point>
<coordinates>136.91598510742188,35.15782165527344,0</coordinates>
</Point>
</Placemark>
<Placemark>
<name>洲原町</name>
<description></description>
<Point>
<coordinates>136.92144775390625,35.14997863769531,0</coordinates>
</Point>
</Placemark>
<Placemark>
<name>荒畑</name>
<description></description>
<Point>
<coordinates>136.9271697998047,35.149593353271484,0</coordinates>
</Point>
</Placemark>
<Placemark>
<name>広路通一丁目</name>
<description></description>
<Point>
<coordinates>136.9384307861328,35.14956283569336,0</coordinates>
</Point>
</Placemark>
<Placemark>
<name>塩付通四丁目</name>
<description></description>
<Point>
<coordinates>136.93821716308594,35.14733123779297,0</coordinates>
</Point>
</Placemark>
<Placemark>
<name>塩付通五丁目</name>
<description></description>
<Point>
<coordinates>136.93792724609375,35.1440544128418,0</coordinates>
</Point>
</Placemark>
<Placemark>
<name>長戸町</name>
<description></description>
<Point>
<coordinates>136.94142150878906,35.14422607421875,0</coordinates>
</Point>
</Placemark>
<Placemark>
<name>檀渓通三丁目</name>
<description></description>
<Point>
<coordinates>136.94580078125,35.14413070678711,0</coordinates>
</Point>
</Placemark>
<Placemark>
<name>石川橋</name>
<description></description>
<Point>
<coordinates>136.94491577148438,35.13871765136719,0</coordinates>
</Point>
</Placemark>
<Placemark>
<name>田辺通二丁目</name>
<description></description>
<Point>
<coordinates>136.9451141357422,35.134944915771484,0</coordinates>
</Point>
</Placemark>
<Placemark>
<name>市大薬学部</name>
<description></description>
<Point>
<coordinates>136.9453125,35.131526947021484,0</coordinates>
</Point>
</Placemark>
<Placemark>
<name>瑞穂保健所</name>
<description></description>
<Point>
<coordinates>136.94546508789062,35.12873840332031,0</coordinates>
</Point>
</Placemark>
<Placemark>
<name>田辺通四丁目</name>
<description></description>
<Point>
<coordinates>136.94625854492188,35.126060485839844,0</coordinates>
</Point>
</Placemark>
<Placemark>
<name>瑞穂運動場東</name>
<description></description>
<Point>
<coordinates>136.94775390625,35.121944427490234,0</coordinates>
</Point>
</Placemark>
<Placemark>
<name>藤成通一丁目</name>
<description></description>
<Point>
<coordinates>136.93829345703125,35.141151428222656,0</coordinates>
</Point>
</Placemark>
<Placemark>
<name>菊園町一丁目</name>
<description></description>
<Point>
<coordinates>136.9382781982422,35.1385383605957,0</coordinates>
</Point>
</Placemark>
<Placemark>
<name>汐路小学校</name>
<description></description>
<Point>
<coordinates>136.93853759765625,35.1353759765625,0</coordinates>
</Point>
</Placemark>
<Placemark>
<name>大殿町</name>
<description></description>
<Point>
<coordinates>136.9385986328125,35.132450103759766,0</coordinates>
</Point>
</Placemark>
<Placemark>
<name>汐路町四丁目</name>
<description></description>
<Point>
<coordinates>136.93997192382812,35.128997802734375,0</coordinates>
</Point>
</Placemark>
<Placemark>
<name>瑞穂公園</name>
<description></description>
<Point>
<coordinates>136.94036865234375,35.125396728515625,0</coordinates>
</Point>
</Placemark>
<Placemark>
<name>石田町</name>
<description></description>
<Point>
<coordinates>136.9407501220703,35.12184524536133,0</coordinates>
</Point>
</Placemark>
<Placemark>
<name>弥富通一丁目</name>
<description></description>
<Point>
<coordinates>136.94261169433594,35.117740631103516,0</coordinates>
</Point>
</Placemark>
<Placemark>
<name>下前津</name>
<description></description>
<Point>
<coordinates>136.90509033203125,35.15358352661133,0</coordinates>
</Point>
</Placemark>
<Placemark>
<name>東別院前</name>
<description></description>
<Point>
<coordinates>136.9037628173828,35.14994812011719,0</coordinates>
</Point>
</Placemark>
<Placemark>
<name>古沢町</name>
<description></description>
<Point>
<coordinates>136.90321350097656,35.14731216430664,0</coordinates>
</Point>
</Placemark>
<Placemark>
<name>沢上町</name>
<description></description>
<Point>
<coordinates>136.9031219482422,35.140045166015625,0</coordinates>
</Point>
</Placemark>
<Placemark>
<name>高蔵</name>
<description></description>
<Point>
<coordinates>136.9067840576172,35.13431167602539,0</coordinates>
</Point>
</Placemark>
<Placemark>
<name>熱田駅</name>
<description></description>
<Point>
<coordinates>136.9090118408203,35.1302375793457,0</coordinates>
</Point>
</Placemark>
<Placemark>
<name>熱田区役所</name>
<description></description>
<Point>
<coordinates>136.90977478027344,35.128318786621094,0</coordinates>
</Point>
</Placemark>
<Placemark>
<name>泉楽通四丁目</name>
<description></description>
<Point>
<coordinates>136.90560913085938,35.09645462036133,0</coordinates>
</Point>
</Placemark>
<Placemark>
<name>八熊通</name>
<description></description>
<Point>
<coordinates>136.89315795898438,35.14018630981445,0</coordinates>
</Point>
</Placemark>
<Placemark>
<name>中央卸売市場前</name>
<description></description>
<Point>
<coordinates>136.89329528808594,35.13599395751953,0</coordinates>
</Point>
</Placemark>
<Placemark>
<name>日比野</name>
<description></description>
<Point>
<coordinates>136.89334106445312,35.13313293457031,0</coordinates>
</Point>
</Placemark>
<Placemark>
<name>西町</name>
<description></description>
<Point>
<coordinates>136.89599609375,35.12795639038086,0</coordinates>
</Point>
</Placemark>
<Placemark>
<name>一番三丁目</name>
<description></description>
<Point>
<coordinates>136.89796447753906,35.124000549316406,0</coordinates>
</Point>
</Placemark>
<Placemark>
<name>二番町</name>
<description></description>
<Point>
<coordinates>136.89413452148438,35.12393569946289,0</coordinates>
</Point>
</Placemark>
<Placemark>
<name>六番町</name>
<description></description>
<Point>
<coordinates>136.88824462890625,35.12384033203125,0</coordinates>
</Point>
</Placemark>
<Placemark>
<name>六番三丁目</name>
<description></description>
<Point>
<coordinates>136.8874969482422,35.12035369873047,0</coordinates>
</Point>
</Placemark>
<Placemark>
<name>七番町</name>
<description></description>
<Point>
<coordinates>136.8866729736328,35.11638641357422,0</coordinates>
</Point>
</Placemark>
<Placemark>
<name>乗越町</name>
<description></description>
<Point>
<coordinates>136.87095642089844,35.154502868652344,0</coordinates>
</Point>
</Placemark>
<Placemark>
<name>松葉町一丁目</name>
<description></description>
<Point>
<coordinates>136.86563110351562,35.151790618896484,0</coordinates>
</Point>
</Placemark>
<Placemark>
<name>小本駅</name>
<description></description>
<Point>
<coordinates>136.8615264892578,35.14916229248047,0</coordinates>
</Point>
</Placemark>
<Placemark>
<name>万町</name>
<description></description>
<Point>
<coordinates>136.86062622070312,35.148799896240234,0</coordinates>
</Point>
</Placemark>
<Placemark>
<name>地下鉄八田</name>
<description></description>
<Point>
<coordinates>136.8541259765625,35.14741516113281,0</coordinates>
</Point>
</Placemark>
<Placemark>
<name>花池町</name>
<description></description>
<Point>
<coordinates>136.85104370117188,35.146881103515625,0</coordinates>
</Point>
</Placemark>
<Placemark>
<name>柳瀬町</name>
<description></description>
<Point>
<coordinates>136.8481903076172,35.14601135253906,0</coordinates>
</Point>
</Placemark>
<Placemark>
<name>野田町</name>
<description></description>
<Point>
<coordinates>136.84475708007812,35.1446418762207,0</coordinates>
</Point>
</Placemark>
<Placemark>
<name>八王子町</name>
<description></description>
<Point>
<coordinates>136.8430633544922,35.140533447265625,0</coordinates>
</Point>
</Placemark>
<Placemark>
<name>打出町</name>
<description></description>
<Point>
<coordinates>136.8424072265625,35.136749267578125,0</coordinates>
</Point>
</Placemark>
<Placemark>
<name>打出本町七丁目</name>
<description></description>
<Point>
<coordinates>136.84237670898438,35.13275146484375,0</coordinates>
</Point>
</Placemark>
<Placemark>
<name>法華西町</name>
<description></description>
<Point>
<coordinates>136.84234619140625,35.129173278808594,0</coordinates>
</Point>
</Placemark>
<Placemark>
<name>高杉町</name>
<description></description>
<Point>
<coordinates>136.84230041503906,35.1263542175293,0</coordinates>
</Point>
</Placemark>
<Placemark>
<name>牧野町</name>
<description></description>
<Point>
<coordinates>136.8784942626953,35.16458511352539,0</coordinates>
</Point>
</Placemark>
<Placemark>
<name>権現通</name>
<description></description>
<Point>
<coordinates>136.87454223632812,35.163726806640625,0</coordinates>
</Point>
</Placemark>
<Placemark>
<name>黄金中学校前</name>
<description></description>
<Point>
<coordinates>136.87098693847656,35.163631439208984,0</coordinates>
</Point>
</Placemark>
<Placemark>
<name>千成通四丁目</name>
<description></description>
<Point>
<coordinates>136.8606719970703,35.162601470947266,0</coordinates>
</Point>
</Placemark>
<Placemark>
<name>豊国通四丁目</name>
<description></description>
<Point>
<coordinates>136.85462951660156,35.162837982177734,0</coordinates>
</Point>
</Placemark>
<Placemark>
<name>向島町五丁目</name>
<description></description>
<Point>
<coordinates>136.85137939453125,35.16284942626953,0</coordinates>
</Point>
</Placemark>
<Placemark>
<name>豊正中学校前</name>
<description></description>
<Point>
<coordinates>136.847900390625,35.162872314453125,0</coordinates>
</Point>
</Placemark>
<Placemark>
<name>鴨付町</name>
<description></description>
<Point>
<coordinates>136.8449249267578,35.16289138793945,0</coordinates>
</Point>
</Placemark>
<Placemark>
<name>荒輪井</name>
<description></description>
<Point>
<coordinates>136.8404998779297,35.162879943847656,0</coordinates>
</Point>
</Placemark>
<Placemark>
<name>稲西車庫</name>
<description></description>
<Point>
<coordinates>136.8372039794922,35.1636848449707,0</coordinates>
</Point>
</Placemark>
<Placemark>
<name>弁天通一丁目</name>
<description></description>
<Point>
<coordinates>136.8998260498047,35.19267272949219,0</coordinates>
</Point>
</Placemark>
<Placemark>
<name>名塚中学</name>
<description></description>
<Point>
<coordinates>136.88421630859375,35.20315170288086,0</coordinates>
</Point>
</Placemark>
<Placemark>
<name>瓦町</name>
<description></description>
<Point>
<coordinates>136.9151611328125,35.164852142333984,0</coordinates>
</Point>
</Placemark>
<Placemark>
<name>滝子通二丁目</name>
<description></description>
<Point>
<coordinates>136.9210205078125,35.14019775390625,0</coordinates>
</Point>
</Placemark>
<Placemark>
<name>滝子</name>
<description></description>
<Point>
<coordinates>136.92514038085938,35.14043426513672,0</coordinates>
</Point>
</Placemark>
<Placemark>
<name>広見町</name>
<description></description>
<Point>
<coordinates>136.92919921875,35.14065170288086,0</coordinates>
</Point>
</Placemark>
<Placemark>
<name>桜山</name>
<description></description>
<Point>
<coordinates>136.93328857421875,35.14087677001953,0</coordinates>
</Point>
</Placemark>
<Placemark>
<name>市立大学病院</name>
<description></description>
<Point>
<coordinates>136.9333953857422,35.13980484008789,0</coordinates>
</Point>
</Placemark>
<Placemark>
<name>川澄町</name>
<description></description>
<Point>
<coordinates>136.9347686767578,35.13833236694336,0</coordinates>
</Point>
</Placemark>
<Placemark>
<name>博物館</name>
<description></description>
<Point>
<coordinates>136.93540954589844,35.1369743347168,0</coordinates>
</Point>
</Placemark>
<Placemark>
<name>巾下橋</name>
<description></description>
<Point>
<coordinates>136.89532470703125,35.181678771972656,0</coordinates>
</Point>
</Placemark>
<Placemark>
<name>浅間町東</name>
<description></description>
<Point>
<coordinates>136.89202880859375,35.18312454223633,0</coordinates>
</Point>
</Placemark>
<Placemark>
<name>浅間町</name>
<description></description>
<Point>
<coordinates>136.8903350830078,35.183597564697266,0</coordinates>
</Point>
</Placemark>
<Placemark>
<name>枇杷島四丁目</name>
<description></description>
<Point>
<coordinates>136.87579345703125,35.19228744506836,0</coordinates>
</Point>
</Placemark>
<Placemark>
<name>数寄屋町</name>
<description></description>
<Point>
<coordinates>136.89854431152344,35.18935012817383,0</coordinates>
</Point>
</Placemark>
<Placemark>
<name>池内町</name>
<description></description>
<Point>
<coordinates>136.9093475341797,35.139862060546875,0</coordinates>
</Point>
</Placemark>
<Placemark>
<name>藤成通五丁目</name>
<description></description>
<Point>
<coordinates>136.943603515625,35.14142990112305,0</coordinates>
</Point>
</Placemark>
<Placemark>
<name>川原通二丁目</name>
<description></description>
<Point>
<coordinates>136.95211791992188,35.15666580200195,0</coordinates>
</Point>
</Placemark>
<Placemark>
<name>末盛通二丁目</name>
<description></description>
<Point>
<coordinates>136.95736694335938,35.16596984863281,0</coordinates>
</Point>
</Placemark>
<Placemark>
<name>覚王山</name>
<description></description>
<Point>
<coordinates>136.95213317871094,35.16644287109375,0</coordinates>
</Point>
</Placemark>
<Placemark>
<name>池下</name>
<description></description>
<Point>
<coordinates>136.9454803466797,35.167633056640625,0</coordinates>
</Point>
</Placemark>
<Placemark>
<name>洲雲町</name>
<description></description>
<Point>
<coordinates>136.931396484375,35.13882064819336,0</coordinates>
</Point>
</Placemark>
<Placemark>
<name>菊園町四丁目</name>
<description></description>
<Point>
<coordinates>136.9415283203125,35.13862991333008,0</coordinates>
</Point>
</Placemark>
<Placemark>
<name>上山町</name>
<description></description>
<Point>
<coordinates>136.94882202148438,35.13795471191406,0</coordinates>
</Point>
</Placemark>
<Placemark>
<name>南山</name>
<description></description>
<Point>
<coordinates>136.95359802246094,35.13789749145508,0</coordinates>
</Point>
</Placemark>
<Placemark>
<name>雲雀ケ岡</name>
<description></description>
<Point>
<coordinates>136.95835876464844,35.135860443115234,0</coordinates>
</Point>
</Placemark>
<Placemark>
<name>山手通五丁目</name>
<description></description>
<Point>
<coordinates>136.96717834472656,35.13899230957031,0</coordinates>
</Point>
</Placemark>
<Placemark>
<name>山手通四丁目</name>
<description></description>
<Point>
<coordinates>136.96588134765625,35.14231872558594,0</coordinates>
</Point>
</Placemark>
<Placemark>
<name>瑞穂通一丁目</name>
<description></description>
<Point>
<coordinates>136.93365478515625,35.1373405456543,0</coordinates>
</Point>
</Placemark>
<Placemark>
<name>松栄町</name>
<description></description>
<Point>
<coordinates>136.95005798339844,35.13218307495117,0</coordinates>
</Point>
</Placemark>
<Placemark>
<name>弥富緑ケ岡</name>
<description></description>
<Point>
<coordinates>136.95553588867188,35.13425064086914,0</coordinates>
</Point>
</Placemark>
<Placemark>
<name>清水ケ岡</name>
<description></description>
<Point>
<coordinates>136.95547485351562,35.131893157958984,0</coordinates>
</Point>
</Placemark>
<Placemark>
<name>総合リハビリセンター</name>
<description></description>
<Point>
<coordinates>136.9537353515625,35.129146575927734,0</coordinates>
</Point>
</Placemark>
<Placemark>
<name>八勝通二丁目</name>
<description></description>
<Point>
<coordinates>136.95008850097656,35.12504959106445,0</coordinates>
</Point>
</Placemark>
<Placemark>
<name>熱田プール</name>
<description></description>
<Point>
<coordinates>136.9136962890625,35.13446807861328,0</coordinates>
</Point>
</Placemark>
<Placemark>
<name>大喜</name>
<description></description>
<Point>
<coordinates>136.92642211914062,35.12736511230469,0</coordinates>
</Point>
</Placemark>
<Placemark>
<name>豊岡通</name>
<description></description>
<Point>
<coordinates>136.93116760253906,35.126033782958984,0</coordinates>
</Point>
</Placemark>
<Placemark>
<name>瑞穂運動場西</name>
<description></description>
<Point>
<coordinates>136.9355926513672,35.12445831298828,0</coordinates>
</Point>
</Placemark>
<Placemark>
<name>豊岡小学校</name>
<description></description>
<Point>
<coordinates>136.93980407714844,35.12299728393555,0</coordinates>
</Point>
</Placemark>
<Placemark>
<name>瑞穂グランド</name>
<description></description>
<Point>
<coordinates>136.94326782226562,35.121742248535156,0</coordinates>
</Point>
</Placemark>
<Placemark>
<name>呼続大橋北</name>
<description></description>
<Point>
<coordinates>136.92250061035156,35.11172103881836,0</coordinates>
</Point>
</Placemark>
<Placemark>
<name>千竈通五丁目</name>
<description></description>
<Point>
<coordinates>136.92562866210938,35.1010856628418,0</coordinates>
</Point>
</Placemark>
<Placemark>
<name>千竈通七丁目</name>
<description></description>
<Point>
<coordinates>136.92750549316406,35.09759521484375,0</coordinates>
</Point>
</Placemark>
<Placemark>
<name>廻間</name>
<description></description>
<Point>
<coordinates>136.93092346191406,35.09127426147461,0</coordinates>
</Point>
</Placemark>
<Placemark>
<name>星崎町</name>
<description></description>
<Point>
<coordinates>136.93450927734375,35.084564208984375,0</coordinates>
</Point>
</Placemark>
<Placemark>
<name>大慶橋</name>
<description></description>
<Point>
<coordinates>136.93951416015625,35.08086013793945,0</coordinates>
</Point>
</Placemark>
<Placemark>
<name>鳴尾町</name>
<description></description>
<Point>
<coordinates>136.93597412109375,35.07809066772461,0</coordinates>
</Point>
</Placemark>
<Placemark>
<name>下浜</name>
<description></description>
<Point>
<coordinates>136.9258575439453,35.07390213012695,0</coordinates>
</Point>
</Placemark>
<Placemark>
<name>要町</name>
<description></description>
<Point>
<coordinates>136.92079162597656,35.073280334472656,0</coordinates>
</Point>
</Placemark>
<Placemark>
<name>南陽通四丁目</name>
<description></description>
<Point>
<coordinates>136.90174865722656,35.10329055786133,0</coordinates>
</Point>
</Placemark>
<Placemark>
<name>南陽通五丁目</name>
<description></description>
<Point>
<coordinates>136.9015350341797,35.10151672363281,0</coordinates>
</Point>
</Placemark>
<Placemark>
<name>南陽通六丁目</name>
<description></description>
<Point>
<coordinates>136.90127563476562,35.09974670410156,0</coordinates>
</Point>
</Placemark>
<Placemark>
<name>竜宮町</name>
<description></description>
<Point>
<coordinates>136.89967346191406,35.0959358215332,0</coordinates>
</Point>
</Placemark>
<Placemark>
<name>東橋</name>
<description></description>
<Point>
<coordinates>136.89854431152344,35.09284591674805,0</coordinates>
</Point>
</Placemark>
<Placemark>
<name>大江町</name>
<description></description>
<Point>
<coordinates>136.89830017089844,35.08885192871094,0</coordinates>
</Point>
</Placemark>
<Placemark>
<name>開橋</name>
<description></description>
<Point>
<coordinates>136.89813232421875,35.08625411987305,0</coordinates>
</Point>
</Placemark>
<Placemark>
<name>昭和町</name>
<description></description>
<Point>
<coordinates>136.89794921875,35.08323669433594,0</coordinates>
</Point>
</Placemark>
<Placemark>
<name>昭和町南</name>
<description></description>
<Point>
<coordinates>136.897705078125,35.079994201660156,0</coordinates>
</Point>
</Placemark>
<Placemark>
<name>船見町</name>
<description></description>
<Point>
<coordinates>136.89743041992188,35.0757942199707,0</coordinates>
</Point>
</Placemark>
<Placemark>
<name>船見町西</name>
<description></description>
<Point>
<coordinates>136.89297485351562,35.076053619384766,0</coordinates>
</Point>
</Placemark>
<Placemark>
<name>船見寮前</name>
<description></description>
<Point>
<coordinates>136.89039611816406,35.07191848754883,0</coordinates>
</Point>
</Placemark>
<Placemark>
<name>潮見橋</name>
<description></description>
<Point>
<coordinates>136.88592529296875,35.06977462768555,0</coordinates>
</Point>
</Placemark>
<Placemark>
<name>ワイルドフラワーガーデン</name>
<description></description>
<Point>
<coordinates>136.87973022460938,35.06995391845703,0</coordinates>
</Point>
</Placemark>
<Placemark>
<name>潮見町</name>
<description></description>
<Point>
<coordinates>136.87625122070312,35.069515228271484,0</coordinates>
</Point>
</Placemark>
<Placemark>
<name>潮見町中</name>
<description></description>
<Point>
<coordinates>136.8739471435547,35.063663482666016,0</coordinates>
</Point>
</Placemark>
<Placemark>
<name>潮見</name>
<description></description>
<Point>
<coordinates>136.87258911132812,35.06013107299805,0</coordinates>
</Point>
</Placemark>
<Placemark>
<name>名港潮見インター</name>
<description></description>
<Point>
<coordinates>136.87066650390625,35.05518341064453,0</coordinates>
</Point>
</Placemark>
<Placemark>
<name>潮見町南</name>
<description></description>
<Point>
<coordinates>136.86915588378906,35.05138397216797,0</coordinates>
</Point>
</Placemark>
<Placemark>
<name>新尾頭町</name>
<description></description>
<Point>
<coordinates>136.89808654785156,35.14012908935547,0</coordinates>
</Point>
</Placemark>
<Placemark>
<name>八熊通二丁目</name>
<description></description>
<Point>
<coordinates>136.88938903808594,35.14049530029297,0</coordinates>
</Point>
</Placemark>
<Placemark>
<name>野立小学校</name>
<description></description>
<Point>
<coordinates>136.8887481689453,35.13631820678711,0</coordinates>
</Point>
</Placemark>
<Placemark>
<name>野立町</name>
<description></description>
<Point>
<coordinates>136.88827514648438,35.132652282714844,0</coordinates>
</Point>
</Placemark>
<Placemark>
<name>中野本町</name>
<description></description>
<Point>
<coordinates>136.882568359375,35.13193130493164,0</coordinates>
</Point>
</Placemark>
<Placemark>
<name>太平通五丁目</name>
<description></description>
<Point>
<coordinates>136.86920166015625,35.13154602050781,0</coordinates>
</Point>
</Placemark>
<Placemark>
<name>上流町</name>
<description></description>
<Point>
<coordinates>136.86427307128906,35.1314582824707,0</coordinates>
</Point>
</Placemark>
<Placemark>
<name>南荒子駅</name>
<description></description>
<Point>
<coordinates>136.86117553710938,35.131439208984375,0</coordinates>
</Point>
</Placemark>
<Placemark>
<name>的場町</name>
<description></description>
<Point>
<coordinates>136.8590850830078,35.131439208984375,0</coordinates>
</Point>
</Placemark>
<Placemark>
<name>荒中町</name>
<description></description>
<Point>
<coordinates>136.85406494140625,35.13188934326172,0</coordinates>
</Point>
</Placemark>
<Placemark>
<name>一柳中学校</name>
<description></description>
<Point>
<coordinates>136.84832763671875,35.13273620605469,0</coordinates>
</Point>
</Placemark>
<Placemark>
<name>大当郎橋</name>
<description></description>
<Point>
<coordinates>136.8319549560547,35.13277816772461,0</coordinates>
</Point>
</Placemark>
<Placemark>
<name>三日月住宅</name>
<description></description>
<Point>
<coordinates>136.8300018310547,35.13029098510742,0</coordinates>
</Point>
</Placemark>
<Placemark>
<name>金山南口</name>
<description></description>
<Point>
<coordinates>136.9011993408203,35.14188003540039,0</coordinates>
</Point>
</Placemark>
<Placemark>
<name>新橋通</name>
<description></description>
<Point>
<coordinates>136.8969268798828,35.14263153076172,0</coordinates>
</Point>
</Placemark>
<Placemark>
<name>五女子</name>
<description></description>
<Point>
<coordinates>136.88470458984375,35.14537811279297,0</coordinates>
</Point>
</Placemark>
<Placemark>
<name>二女子</name>
<description></description>
<Point>
<coordinates>136.87838745117188,35.147254943847656,0</coordinates>
</Point>
</Placemark>
<Placemark>
<name>長良本町</name>
<description></description>
<Point>
<coordinates>136.86936950683594,35.15046310424805,0</coordinates>
</Point>
</Placemark>
<Placemark>
<name>松葉</name>
<description></description>
<Point>
<coordinates>136.86595153808594,35.14896011352539,0</coordinates>
</Point>
</Placemark>
<Placemark>
<name>小本本町</name>
<description></description>
<Point>
<coordinates>136.8648223876953,35.145355224609375,0</coordinates>
</Point>
</Placemark>
<Placemark>
<name>篠原橋通三丁目</name>
<description></description>
<Point>
<coordinates>136.86436462402344,35.140560150146484,0</coordinates>
</Point>
</Placemark>
<Placemark>
<name>小塚町</name>
<description></description>
<Point>
<coordinates>136.86436462402344,35.138370513916016,0</coordinates>
</Point>
</Placemark>
<Placemark>
<name>荒子観音</name>
<description></description>
<Point>
<coordinates>136.86053466796875,35.13690948486328,0</coordinates>
</Point>
</Placemark>
<Placemark>
<name>荒子町</name>
<description></description>
<Point>
<coordinates>136.85694885253906,35.13719940185547,0</coordinates>
</Point>
</Placemark>
<Placemark>
<name>高畑三丁目</name>
<description></description>
<Point>
<coordinates>136.85366821289062,35.137027740478516,0</coordinates>
</Point>
</Placemark>
<Placemark>
<name>中郷町</name>
<description></description>
<Point>
<coordinates>136.84812927246094,35.1367073059082,0</coordinates>
</Point>
</Placemark>
<Placemark>
<name>篠原橋東</name>
<description></description>
<Point>
<coordinates>136.88009643554688,35.140869140625,0</coordinates>
</Point>
</Placemark>
<Placemark>
<name>荒子駅</name>
<description></description>
<Point>
<coordinates>136.8614959716797,35.14051818847656,0</coordinates>
</Point>
</Placemark>
<Placemark>
<name>荒子一丁目</name>
<description></description>
<Point>
<coordinates>136.85948181152344,35.140464782714844,0</coordinates>
</Point>
</Placemark>
<Placemark>
<name>中島小学校</name>
<description></description>
<Point>
<coordinates>136.85433959960938,35.127952575683594,0</coordinates>
</Point>
</Placemark>
<Placemark>
<name>野田小学校</name>
<description></description>
<Point>
<coordinates>136.84793090820312,35.140445709228516,0</coordinates>
</Point>
</Placemark>
<Placemark>
<name>寺腰</name>
<description></description>
<Point>
<coordinates>136.8385467529297,35.14061737060547,0</coordinates>
</Point>
</Placemark>
<Placemark>
<name>中川商高</name>
<description></description>
<Point>
<coordinates>136.8400115966797,35.14401626586914,0</coordinates>
</Point>
</Placemark>
<Placemark>
<name>本前田町</name>
<description></description>
<Point>
<coordinates>136.8383026123047,35.14303970336914,0</coordinates>
</Point>
</Placemark>
<Placemark>
<name>伏屋</name>
<description></description>
<Point>
<coordinates>136.8271026611328,35.14215087890625,0</coordinates>
</Point>
</Placemark>
<Placemark>
<name>伏屋橋</name>
<description></description>
<Point>
<coordinates>136.820556640625,35.14192581176758,0</coordinates>
</Point>
</Placemark>
<Placemark>
<name>富田中学校前</name>
<description></description>
<Point>
<coordinates>136.8152618408203,35.14168930053711,0</coordinates>
</Point>
</Placemark>
<Placemark>
<name>春田駅</name>
<description></description>
<Point>
<coordinates>136.81373596191406,35.1429557800293,0</coordinates>
</Point>
</Placemark>
<Placemark>
<name>富田町</name>
<description></description>
<Point>
<coordinates>136.8107147216797,35.14158248901367,0</coordinates>
</Point>
</Placemark>
<Placemark>
<name>戸田小学校前</name>
<description></description>
<Point>
<coordinates>136.8060302734375,35.13983154296875,0</coordinates>
</Point>
</Placemark>
<Placemark>
<name>戸田苗代</name>
<description></description>
<Point>
<coordinates>136.80361938476562,35.13828659057617,0</coordinates>
</Point>
</Placemark>
<Placemark>
<name>戸田</name>
<description></description>
<Point>
<coordinates>136.8029327392578,35.13666534423828,0</coordinates>
</Point>
</Placemark>
<Placemark>
<name>岩塚本通五丁目</name>
<description></description>
<Point>
<coordinates>136.84234619140625,35.15803527832031,0</coordinates>
</Point>
</Placemark>
<Placemark>
<name>万場大橋</name>
<description></description>
<Point>
<coordinates>136.8334197998047,35.15647888183594,0</coordinates>
</Point>
</Placemark>
<Placemark>
<name>万場小橋</name>
<description></description>
<Point>
<coordinates>136.82867431640625,35.15696334838867,0</coordinates>
</Point>
</Placemark>
<Placemark>
<name>吉津一丁目</name>
<description></description>
<Point>
<coordinates>136.82168579101562,35.15768051147461,0</coordinates>
</Point>
</Placemark>
<Placemark>
<name>千音寺</name>
<description></description>
<Point>
<coordinates>136.81529235839844,35.158260345458984,0</coordinates>
</Point>
</Placemark>
<Placemark>
<name>名古屋西インター</name>
<description></description>
<Point>
<coordinates>136.81103515625,35.157371520996094,0</coordinates>
</Point>
</Placemark>
<Placemark>
<name>富田町新家</name>
<description></description>
<Point>
<coordinates>136.8047332763672,35.15508270263672,0</coordinates>
</Point>
</Placemark>
<Placemark>
<name>戸田荘</name>
<description></description>
<Point>
<coordinates>136.80426025390625,35.14772415161133,0</coordinates>
</Point>
</Placemark>
<Placemark>
<name>熱田駅西</name>
<description></description>
<Point>
<coordinates>136.90805053710938,35.1286735534668,0</coordinates>
</Point>
</Placemark>
<Placemark>
<name>旗屋町</name>
<description></description>
<Point>
<coordinates>136.9056854248047,35.12726593017578,0</coordinates>
</Point>
</Placemark>
<Placemark>
<name>白鳥橋</name>
<description></description>
<Point>
<coordinates>136.90365600585938,35.12498092651367,0</coordinates>
</Point>
</Placemark>
<Placemark>
<name>船方</name>
<description></description>
<Point>
<coordinates>136.89950561523438,35.121009826660156,0</coordinates>
</Point>
</Placemark>
<Placemark>
<name>南一番町</name>
<description></description>
<Point>
<coordinates>136.8972625732422,35.11664962768555,0</coordinates>
</Point>
</Placemark>
<Placemark>
<name>千年</name>
<description></description>
<Point>
<coordinates>136.8951873779297,35.113182067871094,0</coordinates>
</Point>
</Placemark>
<Placemark>
<name>港明町</name>
<description></description>
<Point>
<coordinates>136.8936004638672,35.111228942871094,0</coordinates>
</Point>
</Placemark>
<Placemark>
<name>労災病院前</name>
<description></description>
<Point>
<coordinates>136.89028930664062,35.107147216796875,0</coordinates>
</Point>
</Placemark>
<Placemark>
<name>港楽町</name>
<description></description>
<Point>
<coordinates>136.8884735107422,35.104915618896484,0</coordinates>
</Point>
</Placemark>
<Placemark>
<name>港陽町</name>
<description></description>
<Point>
<coordinates>136.88623046875,35.10214614868164,0</coordinates>
</Point>
</Placemark>
<Placemark>
<name>港郵便局</name>
<description></description>
<Point>
<coordinates>136.88401794433594,35.10371398925781,0</coordinates>
</Point>
</Placemark>
<Placemark>
<name>大井町</name>
<description></description>
<Point>
<coordinates>136.90792846679688,35.1500244140625,0</coordinates>
</Point>
</Placemark>
<Placemark>
<name>吸場町</name>
<description></description>
<Point>
<coordinates>136.912841796875,35.15019607543945,0</coordinates>
</Point>
</Placemark>
<Placemark>
<name>東郊通二丁目</name>
<description></description>
<Point>
<coordinates>136.91725158691406,35.1502799987793,0</coordinates>
</Point>
</Placemark>
<Placemark>
<name>恵方町</name>
<description></description>
<Point>
<coordinates>136.9334259033203,35.14446258544922,0</coordinates>
</Point>
</Placemark>
<Placemark>
<name>出口町</name>
<description></description>
<Point>
<coordinates>136.92884826660156,35.14495849609375,0</coordinates>
</Point>
</Placemark>
<Placemark>
<name>御器所四丁目</name>
<description></description>
<Point>
<coordinates>136.9247283935547,35.145816802978516,0</coordinates>
</Point>
</Placemark>
<Placemark>
<name>福江二丁目</name>
<description></description>
<Point>
<coordinates>136.91371154785156,35.14695358276367,0</coordinates>
</Point>
</Placemark>
<Placemark>
<name>向田町</name>
<description></description>
<Point>
<coordinates>136.9094696044922,35.146793365478516,0</coordinates>
</Point>
</Placemark>
<Placemark>
<name>流町</name>
<description></description>
<Point>
<coordinates>136.90597534179688,35.1441535949707,0</coordinates>
</Point>
</Placemark>
<Placemark>
<name>富が丘</name>
<description></description>
<Point>
<coordinates>137.01739501953125,35.18579864501953,0</coordinates>
</Point>
</Placemark>
<Placemark>
<name>藤里町</name>
<description></description>
<Point>
<coordinates>137.01829528808594,35.189701080322266,0</coordinates>
</Point>
</Placemark>
<Placemark>
<name>西本地ケ原</name>
<description></description>
<Point>
<coordinates>137.0263671875,35.194549560546875,0</coordinates>
</Point>
</Placemark>
<Placemark>
<name>本地住宅</name>
<description></description>
<Point>
<coordinates>137.02613830566406,35.198272705078125,0</coordinates>
</Point>
</Placemark>
<Placemark>
<name>新藤森橋</name>
<description></description>
<Point>
<coordinates>137.01266479492188,35.18894958496094,0</coordinates>
</Point>
</Placemark>
<Placemark>
<name>向野田</name>
<description></description>
<Point>
<coordinates>137.01144409179688,35.1972541809082,0</coordinates>
</Point>
</Placemark>
<Placemark>
<name>天子田</name>
<description></description>
<Point>
<coordinates>137.0089569091797,35.198875427246094,0</coordinates>
</Point>
</Placemark>
<Placemark>
<name>下市場</name>
<description></description>
<Point>
<coordinates>137.00352478027344,35.197418212890625,0</coordinates>
</Point>
</Placemark>
<Placemark>
<name>大森住宅</name>
<description></description>
<Point>
<coordinates>136.99813842773438,35.202213287353516,0</coordinates>
</Point>
</Placemark>
<Placemark>
<name>大森</name>
<description></description>
<Point>
<coordinates>136.99624633789062,35.20553970336914,0</coordinates>
</Point>
</Placemark>
<Placemark>
<name>八剣</name>
<description></description>
<Point>
<coordinates>137.00253295898438,35.20705032348633,0</coordinates>
</Point>
</Placemark>
<Placemark>
<name>大森霞ケ丘</name>
<description></description>
<Point>
<coordinates>137.0069580078125,35.2086181640625,0</coordinates>
</Point>
</Placemark>
<Placemark>
<name>四軒家北</name>
<description></description>
<Point>
<coordinates>137.0199432373047,35.195926666259766,0</coordinates>
</Point>
</Placemark>
<Placemark>
<name>庄中向</name>
<description></description>
<Point>
<coordinates>137.01895141601562,35.19866180419922,0</coordinates>
</Point>
</Placemark>
<Placemark>
<name>庄中天王</name>
<description></description>
<Point>
<coordinates>137.01617431640625,35.20496368408203,0</coordinates>
</Point>
</Placemark>
<Placemark>
<name>鳥居</name>
<description></description>
<Point>
<coordinates>137.01513671875,35.20732116699219,0</coordinates>
</Point>
</Placemark>
<Placemark>
<name>印場</name>
<description></description>
<Point>
<coordinates>137.0141143798828,35.20972442626953,0</coordinates>
</Point>
</Placemark>
<Placemark>
<name>旭桜ヶ丘</name>
<description></description>
<Point>
<coordinates>137.0120391845703,35.215641021728516,0</coordinates>
</Point>
</Placemark>
<Placemark>
<name>東尾張病院南</name>
<description></description>
<Point>
<coordinates>137.01185607910156,35.22125244140625,0</coordinates>
</Point>
</Placemark>
<Placemark>
<name>長廻間</name>
<description></description>
<Point>
<coordinates>137.0147247314453,35.226436614990234,0</coordinates>
</Point>
</Placemark>
<Placemark>
<name>吉根住宅</name>
<description></description>
<Point>
<coordinates>137.0165252685547,35.22880554199219,0</coordinates>
</Point>
</Placemark>
<Placemark>
<name>玉野川学園</name>
<description></description>
<Point>
<coordinates>137.0186767578125,35.23127746582031,0</coordinates>
</Point>
</Placemark>
<Placemark>
<name>志段味サイエンスパーク</name>
<description></description>
<Point>
<coordinates>137.02130126953125,35.235408782958984,0</coordinates>
</Point>
</Placemark>
<Placemark>
<name>穴ヶ洞</name>
<description></description>
<Point>
<coordinates>137.0217742919922,35.23870086669922,0</coordinates>
</Point>
</Placemark>
<Placemark>
<name>長戸橋</name>
<description></description>
<Point>
<coordinates>137.023681640625,35.24142837524414,0</coordinates>
</Point>
</Placemark>
<Placemark>
<name>雨池</name>
<description></description>
<Point>
<coordinates>137.0242919921875,35.24441146850586,0</coordinates>
</Point>
</Placemark>
<Placemark>
<name>中志段味</name>
<description></description>
<Point>
<coordinates>137.02394104003906,35.24736022949219,0</coordinates>
</Point>
</Placemark>
<Placemark>
<name>藤塚</name>
<description></description>
<Point>
<coordinates>137.02664184570312,35.24872589111328,0</coordinates>
</Point>
</Placemark>
<Placemark>
<name>寺林</name>
<description></description>
<Point>
<coordinates>137.03179931640625,35.25106430053711,0</coordinates>
</Point>
</Placemark>
<Placemark>
<name>上志段味</name>
<description></description>
<Point>
<coordinates>137.0340118408203,35.2533073425293,0</coordinates>
</Point>
</Placemark>
<Placemark>
<name>新東谷橋南</name>
<description></description>
<Point>
<coordinates>137.03622436523438,35.25471115112305,0</coordinates>
</Point>
</Placemark>
<Placemark>
<name>所下</name>
<description></description>
<Point>
<coordinates>137.0404510498047,35.256404876708984,0</coordinates>
</Point>
</Placemark>
<Placemark>
<name>東谷山フルーツパーク</name>
<description></description>
<Point>
<coordinates>137.0430450439453,35.25553512573242,0</coordinates>
</Point>
</Placemark>
<Placemark>
<name>本郷</name>
<description></description>
<Point>
<coordinates>137.01382446289062,35.176021575927734,0</coordinates>
</Point>
</Placemark>
<Placemark>
<name>平池</name>
<description></description>
<Point>
<coordinates>137.01316833496094,35.1722297668457,0</coordinates>
</Point>
</Placemark>
<Placemark>
<name>楽陶館</name>
<description></description>
<Point>
<coordinates>137.0145721435547,35.168212890625,0</coordinates>
</Point>
</Placemark>
<Placemark>
<name>障害者スポーツセンター</name>
<description></description>
<Point>
<coordinates>137.0174102783203,35.16502380371094,0</coordinates>
</Point>
</Placemark>
<Placemark>
<name>高針台中学</name>
<description></description>
<Point>
<coordinates>137.0195770263672,35.1599006652832,0</coordinates>
</Point>
</Placemark>
<Placemark>
<name>極楽</name>
<description></description>
<Point>
<coordinates>137.0185089111328,35.15431213378906,0</coordinates>
</Point>
</Placemark>
<Placemark>
<name>極楽東</name>
<description></description>
<Point>
<coordinates>137.02285766601562,35.15533447265625,0</coordinates>
</Point>
</Placemark>
<Placemark>
<name>猪高緑地</name>
<description></description>
<Point>
<coordinates>137.026611328125,35.15618133544922,0</coordinates>
</Point>
</Placemark>
<Placemark>
<name>極楽西</name>
<description></description>
<Point>
<coordinates>137.01499938964844,35.155879974365234,0</coordinates>
</Point>
</Placemark>
<Placemark>
<name>勢子坊</name>
<description></description>
<Point>
<coordinates>137.01171875,35.15879440307617,0</coordinates>
</Point>
</Placemark>
<Placemark>
<name>名東消防署</name>
<description></description>
<Point>
<coordinates>137.00942993164062,35.1608772277832,0</coordinates>
</Point>
</Placemark>
<Placemark>
<name>貴船小学校</name>
<description></description>
<Point>
<coordinates>137.01353454589844,35.1629524230957,0</coordinates>
</Point>
</Placemark>
<Placemark>
<name>大針</name>
<description></description>
<Point>
<coordinates>137.0159454345703,35.151424407958984,0</coordinates>
</Point>
</Placemark>