<?xml version="1.0" encoding="UTF-8" ?>
<gpx xmlns="http://www.topografix.com/GPX/1/1" version="1.1" creator="osmtracker-android" xmlns:xsi="http://www.w3.org/2001/XMLSchema-instance" xsi:schemaLocation="http://www.topografix.com/GPX/1/1 http://www.topografix.com/GPX/1/1/gpx.xsd ">
<metadata>
<name><![CDATA[バス停 : 山口]]></name>
<desc><![CDATA[国土数値情報に基づく]]></desc>
</metadata>
<wpt lat="34.603919982910156" lon="131.69598388671875">
 <time>2015-12-06T02:24:46ZZ</time>
 <name><![CDATA[小島]]></name>
</wpt>

<wpt lat="34.60295104980469" lon="131.6999053955078">
 <time>2015-12-06T02:24:46ZZ</time>
 <name><![CDATA[畠田]]></name>
</wpt>

<wpt lat="34.6014518737793" lon="131.71018981933594">
 <time>2015-12-06T02:24:46ZZ</time>
 <name><![CDATA[保田]]></name>
</wpt>

<wpt lat="34.62630844116211" lon="131.61573791503906">
 <time>2015-12-06T02:24:46ZZ</time>
 <name><![CDATA[北谷]]></name>
</wpt>

<wpt lat="34.62629318237305" lon="131.63633728027344">
 <time>2015-12-06T02:24:46ZZ</time>
 <name><![CDATA[帆柱]]></name>
</wpt>

<wpt lat="34.634586334228516" lon="131.64248657226562">
 <time>2015-12-06T02:24:46ZZ</time>
 <name><![CDATA[江津]]></name>
</wpt>

<wpt lat="34.63885498046875" lon="131.6463623046875">
 <time>2015-12-06T02:24:46ZZ</time>
 <name><![CDATA[尾浦入口]]></name>
</wpt>

<wpt lat="34.64009475708008" lon="131.64398193359375">
 <time>2015-12-06T02:24:46ZZ</time>
 <name><![CDATA[江崎港]]></name>
</wpt>

<wpt lat="34.64028549194336" lon="131.6458740234375">
 <time>2015-12-06T02:24:46ZZ</time>
 <name><![CDATA[漁港橋]]></name>
</wpt>

<wpt lat="34.642337799072266" lon="131.6586151123047">
 <time>2015-12-06T02:24:46ZZ</time>
 <name><![CDATA[江崎駅入口]]></name>
</wpt>

<wpt lat="34.643917083740234" lon="131.6608428955078">
 <time>2015-12-06T02:24:46ZZ</time>
 <name><![CDATA[須潟]]></name>
</wpt>

<wpt lat="34.65528106689453" lon="131.6732635498047">
 <time>2015-12-06T02:24:46ZZ</time>
 <name><![CDATA[市味]]></name>
</wpt>

<wpt lat="34.50386047363281" lon="131.47357177734375">
 <time>2015-12-06T02:24:46ZZ</time>
 <name><![CDATA[奈古駅]]></name>
</wpt>

<wpt lat="34.47432327270508" lon="131.44805908203125">
 <time>2015-12-06T02:24:46ZZ</time>
 <name><![CDATA[大井馬場]]></name>
</wpt>

<wpt lat="34.44642639160156" lon="131.41436767578125">
 <time>2015-12-06T02:24:46ZZ</time>
 <name><![CDATA[越ヶ浜入口]]></name>
</wpt>

<wpt lat="34.41686248779297" lon="131.4101104736328">
 <time>2015-12-06T02:24:46ZZ</time>
 <name><![CDATA[東萩駅]]></name>
</wpt>

<wpt lat="34.384071350097656" lon="132.0142059326172">
 <time>2015-12-06T02:24:46ZZ</time>
 <name><![CDATA[深谷パーキング]]></name>
</wpt>

<wpt lat="33.95692825317383" lon="130.9424285888672">
 <time>2015-12-06T02:24:46ZZ</time>
 <name><![CDATA[唐戸]]></name>
</wpt>

<wpt lat="33.9893684387207" lon="130.9916229248047">
 <time>2015-12-06T02:24:46ZZ</time>
 <name><![CDATA[市立美術館]]></name>
</wpt>

<wpt lat="34.10926818847656" lon="131.13919067382812">
 <time>2015-12-06T02:24:46ZZ</time>
 <name><![CDATA[美祢西インター]]></name>
</wpt>

<wpt lat="34.170570373535156" lon="131.24822998046875">
 <time>2015-12-06T02:24:46ZZ</time>
 <name><![CDATA[美祢インター]]></name>
</wpt>

<wpt lat="34.16611099243164" lon="131.3260040283203">
 <time>2015-12-06T02:24:46ZZ</time>
 <name><![CDATA[真名]]></name>
</wpt>

<wpt lat="34.12487030029297" lon="131.40899658203125">
 <time>2015-12-06T02:24:46ZZ</time>
 <name><![CDATA[三条岡]]></name>
</wpt>

<wpt lat="34.16508483886719" lon="131.4578399658203">
 <time>2015-12-06T02:24:46ZZ</time>
 <name><![CDATA[湯田温泉]]></name>
</wpt>

<wpt lat="34.167823791503906" lon="131.46234130859375">
 <time>2015-12-06T02:24:46ZZ</time>
 <name><![CDATA[NTT山口前]]></name>
</wpt>

<wpt lat="34.17607879638672" lon="131.4733428955078">
 <time>2015-12-06T02:24:46ZZ</time>
 <name><![CDATA[中国電力前]]></name>
</wpt>

<wpt lat="34.18351745605469" lon="131.471923828125">
 <time>2015-12-06T02:24:46ZZ</time>
 <name><![CDATA[山口県庁前]]></name>
</wpt>

<wpt lat="34.17670822143555" lon="131.47633361816406">
 <time>2015-12-06T02:24:46ZZ</time>
 <name><![CDATA[米屋町]]></name>
</wpt>

<wpt lat="34.1724853515625" lon="131.48033142089844">
 <time>2015-12-06T02:24:46ZZ</time>
 <name><![CDATA[山口駅]]></name>
</wpt>

<wpt lat="34.02931213378906" lon="131.11367797851562">
 <time>2015-12-06T02:24:46ZZ</time>
 <name><![CDATA[周防灘PA]]></name>
</wpt>

<wpt lat="34.02279281616211" lon="131.18429565429688">
 <time>2015-12-06T02:24:46ZZ</time>
 <name><![CDATA[小野田インター]]></name>
</wpt>

<wpt lat="33.993064880371094" lon="131.2821807861328">
 <time>2015-12-06T02:24:46ZZ</time>
 <name><![CDATA[宇部インター]]></name>
</wpt>

<wpt lat="33.93246078491211" lon="131.27272033691406">
 <time>2015-12-06T02:24:46ZZ</time>
 <name><![CDATA[山口宇部空港]]></name>
</wpt>

<wpt lat="33.93162536621094" lon="131.25686645507812">
 <time>2015-12-06T02:24:46ZZ</time>
 <name><![CDATA[フジグラン宇部]]></name>
</wpt>

<wpt lat="34.00702667236328" lon="131.18482971191406">
 <time>2015-12-06T02:24:46ZZ</time>
 <name><![CDATA[小野田駅]]></name>
</wpt>

<wpt lat="34.094364166259766" lon="131.3956298828125">
 <time>2015-12-06T02:24:46ZZ</time>
 <name><![CDATA[新山口駅]]></name>
</wpt>

<wpt lat="33.96038818359375" lon="131.24786376953125">
 <time>2015-12-06T02:24:46ZZ</time>
 <name><![CDATA[大学病院前（山口）]]></name>
</wpt>

<wpt lat="33.96800231933594" lon="130.92991638183594">
 <time>2015-12-06T02:24:46ZZ</time>
 <name><![CDATA[東駅]]></name>
</wpt>

<wpt lat="33.97922134399414" lon="130.937744140625">
 <time>2015-12-06T02:24:46ZZ</time>
 <name><![CDATA[宝蔵寺]]></name>
</wpt>

<wpt lat="33.94343566894531" lon="131.28099060058594">
 <time>2015-12-06T02:24:46ZZ</time>
 <name><![CDATA[常盤公園入口]]></name>
</wpt>

<wpt lat="33.9754638671875" lon="131.19969177246094">
 <time>2015-12-06T02:24:46ZZ</time>
 <name><![CDATA[流川]]></name>
</wpt>

<wpt lat="33.977333068847656" lon="131.21609497070312">
 <time>2015-12-06T02:24:46ZZ</time>
 <name><![CDATA[東割]]></name>
</wpt>

<wpt lat="34.00299835205078" lon="131.18247985839844">
 <time>2015-12-06T02:24:46ZZ</time>
 <name><![CDATA[小野田市役所前]]></name>
</wpt>

<wpt lat="34.0810546875" lon="131.0389404296875">
 <time>2015-12-06T02:24:46ZZ</time>
 <name><![CDATA[高速小月]]></name>
</wpt>

<wpt lat="34.094879150390625" lon="131.0690460205078">
 <time>2015-12-06T02:24:46ZZ</time>
 <name><![CDATA[長門吉田]]></name>
</wpt>

<wpt lat="34.17607879638672" lon="131.4733428955078">
 <time>2015-12-06T02:24:46ZZ</time>
 <name><![CDATA[センタービル前（中電前）]]></name>
</wpt>

<wpt lat="34.013816833496094" lon="131.86944580078125">
 <time>2015-12-06T02:24:46ZZ</time>
 <name><![CDATA[下松]]></name>
</wpt>

<wpt lat="34.009033203125" lon="131.8673095703125">
 <time>2015-12-06T02:24:46ZZ</time>
 <name><![CDATA[下松駅前]]></name>
</wpt>

<wpt lat="33.99795150756836" lon="131.8739776611328">
 <time>2015-12-06T02:24:46ZZ</time>
 <name><![CDATA[東豊井]]></name>
</wpt>

<wpt lat="33.97219467163086" lon="131.91171264648438">
 <time>2015-12-06T02:24:46ZZ</time>
 <name><![CDATA[虹ヶ浜]]></name>
</wpt>

<wpt lat="33.97261047363281" lon="131.91419982910156">
 <time>2015-12-06T02:24:46ZZ</time>
 <name><![CDATA[光駅前]]></name>
</wpt>

<wpt lat="33.972965240478516" lon="131.9163818359375">
 <time>2015-12-06T02:24:46ZZ</time>
 <name><![CDATA[光]]></name>
</wpt>

<wpt lat="33.97236251831055" lon="131.92205810546875">
 <time>2015-12-06T02:24:46ZZ</time>
 <name><![CDATA[西河原]]></name>
</wpt>

<wpt lat="33.971805572509766" lon="131.92405700683594">
 <time>2015-12-06T02:24:46ZZ</time>
 <name><![CDATA[筒井]]></name>
</wpt>

<wpt lat="33.970314025878906" lon="131.9295654296875">
 <time>2015-12-06T02:24:46ZZ</time>
 <name><![CDATA[浅江千歳橋]]></name>
</wpt>

<wpt lat="33.96100997924805" lon="131.94244384765625">
 <time>2015-12-06T02:24:46ZZ</time>
 <name><![CDATA[市役所前]]></name>
</wpt>

<wpt lat="33.95895004272461" lon="131.94558715820312">
 <time>2015-12-06T02:24:46ZZ</time>
 <name><![CDATA[光郵便局前]]></name>
</wpt>

<wpt lat="33.95671463012695" lon="131.94911193847656">
 <time>2015-12-06T02:24:46ZZ</time>
 <name><![CDATA[警察署]]></name>
</wpt>

<wpt lat="33.94938278198242" lon="131.96035766601562">
 <time>2015-12-06T02:24:46ZZ</time>
 <name><![CDATA[新宮]]></name>
</wpt>

<wpt lat="33.94033432006836" lon="131.96771240234375">
 <time>2015-12-06T02:24:46ZZ</time>
 <name><![CDATA[東部いこいの家前]]></name>
</wpt>

<wpt lat="33.93789291381836" lon="131.96932983398438">
 <time>2015-12-06T02:24:46ZZ</time>
 <name><![CDATA[松原口]]></name>
</wpt>

<wpt lat="33.932334899902344" lon="131.97129821777344">
 <time>2015-12-06T02:24:46ZZ</time>
 <name><![CDATA[室積西ノ浜]]></name>
</wpt>

<wpt lat="33.930206298828125" lon="131.972900390625">
 <time>2015-12-06T02:24:46ZZ</time>
 <name><![CDATA[室積]]></name>
</wpt>

<wpt lat="33.9272575378418" lon="131.9695281982422">
 <time>2015-12-06T02:24:46ZZ</time>
 <name><![CDATA[室積小学校前]]></name>
</wpt>

<wpt lat="33.92473602294922" lon="131.96812438964844">
 <time>2015-12-06T02:24:46ZZ</time>
 <name><![CDATA[山根町]]></name>
</wpt>

<wpt lat="33.92128372192383" lon="131.9689483642578">
 <time>2015-12-06T02:24:46ZZ</time>
 <name><![CDATA[公園口]]></name>
</wpt>

<wpt lat="34.1724853515625" lon="131.48033142089844">
 <time>2015-12-06T02:24:46ZZ</time>
 <name><![CDATA[山口]]></name>
</wpt>

<wpt lat="34.17454528808594" lon="131.4786376953125">
 <time>2015-12-06T02:24:46ZZ</time>
 <name><![CDATA[今市通]]></name>
</wpt>

<wpt lat="34.18351745605469" lon="131.471923828125">
 <time>2015-12-06T02:24:46ZZ</time>
 <name><![CDATA[県庁前]]></name>
</wpt>

<wpt lat="34.17666244506836" lon="131.47430419921875">
 <time>2015-12-06T02:24:46ZZ</time>
 <name><![CDATA[センタービル前]]></name>
</wpt>

<wpt lat="34.167823791503906" lon="131.46234130859375">
 <time>2015-12-06T02:24:46ZZ</time>
 <name><![CDATA[中電前]]></name>
</wpt>

<wpt lat="34.16371154785156" lon="131.45565795898438">
 <time>2015-12-06T02:24:46ZZ</time>
 <name><![CDATA[下湯田]]></name>
</wpt>

<wpt lat="34.164695739746094" lon="131.4461212158203">
 <time>2015-12-06T02:24:46ZZ</time>
 <name><![CDATA[松ヶ鼻]]></name>
</wpt>

<wpt lat="34.16743469238281" lon="131.43357849121094">
 <time>2015-12-06T02:24:46ZZ</time>
 <name><![CDATA[吉敷]]></name>
</wpt>

<wpt lat="34.17211151123047" lon="131.4311065673828">
 <time>2015-12-06T02:24:46ZZ</time>
 <name><![CDATA[赤田]]></name>
</wpt>

<wpt lat="34.17641067504883" lon="131.42933654785156">
 <time>2015-12-06T02:24:46ZZ</time>
 <name><![CDATA[赤田公民館前]]></name>
</wpt>

<wpt lat="34.18012619018555" lon="131.43048095703125">
 <time>2015-12-06T02:24:46ZZ</time>
 <name><![CDATA[四ノ宮前]]></name>
</wpt>

<wpt lat="34.185367584228516" lon="131.43020629882812">
 <time>2015-12-06T02:24:46ZZ</time>
 <name><![CDATA[中尾口]]></name>
</wpt>

<wpt lat="34.1983757019043" lon="131.41543579101562">
 <time>2015-12-06T02:24:46ZZ</time>
 <name><![CDATA[吉敷畑]]></name>
</wpt>

<wpt lat="34.19943618774414" lon="131.38943481445312">
 <time>2015-12-06T02:24:46ZZ</time>
 <name><![CDATA[長門大石]]></name>
</wpt>

<wpt lat="34.20297622680664" lon="131.38504028320312">
 <time>2015-12-06T02:24:46ZZ</time>
 <name><![CDATA[下大石]]></name>
</wpt>

<wpt lat="34.20732498168945" lon="131.37939453125">
 <time>2015-12-06T02:24:46ZZ</time>
 <name><![CDATA[影平]]></name>
</wpt>

<wpt lat="34.21199035644531" lon="131.37481689453125">
 <time>2015-12-06T02:24:46ZZ</time>
 <name><![CDATA[薬王寺]]></name>
</wpt>

<wpt lat="34.20232009887695" lon="131.36456298828125">
 <time>2015-12-06T02:24:46ZZ</time>
 <name><![CDATA[四ノ瀬]]></name>
</wpt>

<wpt lat="34.197933197021484" lon="131.34881591796875">
 <time>2015-12-06T02:24:46ZZ</time>
 <name><![CDATA[綾木]]></name>
</wpt>

<wpt lat="34.202510833740234" lon="131.35211181640625">
 <time>2015-12-06T02:24:46ZZ</time>
 <name><![CDATA[長門高山]]></name>
</wpt>

<wpt lat="34.2148551940918" lon="131.349365234375">
 <time>2015-12-06T02:24:46ZZ</time>
 <name><![CDATA[温湯]]></name>
</wpt>

<wpt lat="34.220298767089844" lon="131.34078979492188">
 <time>2015-12-06T02:24:46ZZ</time>
 <name><![CDATA[美東病院前]]></name>
</wpt>

<wpt lat="34.21742630004883" lon="131.33070373535156">
 <time>2015-12-06T02:24:46ZZ</time>
 <name><![CDATA[平ヶ谷]]></name>
</wpt>

<wpt lat="34.213844299316406" lon="131.322998046875">
 <time>2015-12-06T02:24:46ZZ</time>
 <name><![CDATA[八重ヶ原]]></name>
</wpt>

<wpt lat="34.214630126953125" lon="131.3135223388672">
 <time>2015-12-06T02:24:46ZZ</time>
 <name><![CDATA[上八重]]></name>
</wpt>

<wpt lat="34.21332931518555" lon="131.31092834472656">
 <time>2015-12-06T02:24:46ZZ</time>
 <name><![CDATA[下八重]]></name>
</wpt>

<wpt lat="34.213226318359375" lon="131.3074493408203">
 <time>2015-12-06T02:24:46ZZ</time>
 <name><![CDATA[秋吉小前]]></name>
</wpt>

<wpt lat="34.20661926269531" lon="131.29006958007812">
 <time>2015-12-06T02:24:46ZZ</time>
 <name><![CDATA[旦]]></name>
</wpt>

<wpt lat="34.20056915283203" lon="131.2871551513672">
 <time>2015-12-06T02:24:46ZZ</time>
 <name><![CDATA[内ヶ島]]></name>
</wpt>

<wpt lat="34.19803237915039" lon="131.28160095214844">
 <time>2015-12-06T02:24:46ZZ</time>
 <name><![CDATA[照岡]]></name>
</wpt>

<wpt lat="34.1963005065918" lon="131.27980041503906">
 <time>2015-12-06T02:24:46ZZ</time>
 <name><![CDATA[堀之内]]></name>
</wpt>

<wpt lat="34.18846130371094" lon="131.27716064453125">
 <time>2015-12-06T02:24:46ZZ</time>
 <name><![CDATA[岩永]]></name>
</wpt>

<wpt lat="34.17691421508789" lon="131.26553344726562">
 <time>2015-12-06T02:24:46ZZ</time>
 <name><![CDATA[上曾原]]></name>
</wpt>

<wpt lat="34.17342758178711" lon="131.25421142578125">
 <time>2015-12-06T02:24:46ZZ</time>
 <name><![CDATA[下曾原]]></name>
</wpt>

<wpt lat="34.17348861694336" lon="131.2440948486328">
 <time>2015-12-06T02:24:46ZZ</time>
 <name><![CDATA[相川]]></name>
</wpt>

<wpt lat="34.17145538330078" lon="131.23585510253906">
 <time>2015-12-06T02:24:46ZZ</time>
 <name><![CDATA[野崎]]></name>
</wpt>

<wpt lat="34.16804504394531" lon="131.2300567626953">
 <time>2015-12-06T02:24:46ZZ</time>
 <name><![CDATA[北川]]></name>
</wpt>

<wpt lat="34.167625427246094" lon="131.22682189941406">
 <time>2015-12-06T02:24:46ZZ</time>
 <name><![CDATA[伊佐中学校前]]></name>
</wpt>

<wpt lat="34.16615295410156" lon="131.22145080566406">
 <time>2015-12-06T02:24:46ZZ</time>
 <name><![CDATA[伊佐町]]></name>
</wpt>

<wpt lat="34.16712951660156" lon="131.2084503173828">
 <time>2015-12-06T02:24:46ZZ</time>
 <name><![CDATA[美祢警察署前]]></name>
</wpt>

<wpt lat="34.16709899902344" lon="131.20555114746094">
 <time>2015-12-06T02:24:46ZZ</time>
 <name><![CDATA[美祢市役所前]]></name>
</wpt>

<wpt lat="34.16902542114258" lon="131.20437622070312">
 <time>2015-12-06T02:24:46ZZ</time>
 <name><![CDATA[美祢]]></name>
</wpt>

<wpt lat="34.41686248779297" lon="131.4101104736328">
 <time>2015-12-06T02:24:46ZZ</time>
 <name><![CDATA[東萩]]></name>
</wpt>

<wpt lat="34.417232513427734" lon="131.4040985107422">
 <time>2015-12-06T02:24:46ZZ</time>
 <name><![CDATA[浮島]]></name>
</wpt>

<wpt lat="34.41395950317383" lon="131.4033660888672">
 <time>2015-12-06T02:24:46ZZ</time>
 <name><![CDATA[荻吉田町]]></name>
</wpt>

<wpt lat="34.40379333496094" lon="131.40223693847656">
 <time>2015-12-06T02:24:46ZZ</time>
 <name><![CDATA[荻橋本町]]></name>
</wpt>

<wpt lat="34.394126892089844" lon="131.40110778808594">
 <time>2015-12-06T02:24:46ZZ</time>
 <name><![CDATA[萩]]></name>
</wpt>

<wpt lat="34.374000549316406" lon="131.4381561279297">
 <time>2015-12-06T02:24:46ZZ</time>
 <name><![CDATA[立野渡]]></name>
</wpt>

<wpt lat="34.362491607666016" lon="131.4404296875">
 <time>2015-12-06T02:24:46ZZ</time>
 <name><![CDATA[長門峡北口]]></name>
</wpt>

<wpt lat="34.34420394897461" lon="131.41407775878906">
 <time>2015-12-06T02:24:46ZZ</time>
 <name><![CDATA[明木]]></name>
</wpt>

<wpt lat="34.34194564819336" lon="131.41232299804688">
 <time>2015-12-06T02:24:46ZZ</time>
 <name><![CDATA[牛地]]></name>
</wpt>

<wpt lat="34.341556549072266" lon="131.41571044921875">
 <time>2015-12-06T02:24:46ZZ</time>
 <name><![CDATA[明木]]></name>
</wpt>

<wpt lat="34.33538055419922" lon="131.41050720214844">
 <time>2015-12-06T02:24:46ZZ</time>
 <name><![CDATA[下菅蓋]]></name>
</wpt>

<wpt lat="34.33198547363281" lon="131.40866088867188">
 <time>2015-12-06T02:24:46ZZ</time>
 <name><![CDATA[菅蓋]]></name>
</wpt>

<wpt lat="34.326133728027344" lon="131.40155029296875">
 <time>2015-12-06T02:24:46ZZ</time>
 <name><![CDATA[角力場]]></name>
</wpt>

<wpt lat="34.31971740722656" lon="131.40298461914062">
 <time>2015-12-06T02:24:46ZZ</time>
 <name><![CDATA[小野山]]></name>
</wpt>

<wpt lat="34.312896728515625" lon="131.4155731201172">
 <time>2015-12-06T02:24:46ZZ</time>
 <name><![CDATA[同前]]></name>
</wpt>

<wpt lat="34.31282424926758" lon="131.42282104492188">
 <time>2015-12-06T02:24:46ZZ</time>
 <name><![CDATA[古戦場]]></name>
</wpt>

<wpt lat="34.31914138793945" lon="131.43826293945312">
 <time>2015-12-06T02:24:46ZZ</time>
 <name><![CDATA[釿切]]></name>
</wpt>

<wpt lat="34.315895080566406" lon="131.44496154785156">
 <time>2015-12-06T02:24:46ZZ</time>
 <name><![CDATA[中の峠]]></name>
</wpt>

<wpt lat="34.3084716796875" lon="131.45333862304688">
 <time>2015-12-06T02:24:46ZZ</time>
 <name><![CDATA[新茶屋]]></name>
</wpt>

<wpt lat="34.304264068603516" lon="131.45965576171875">
 <time>2015-12-06T02:24:46ZZ</time>
 <name><![CDATA[根引]]></name>
</wpt>

<wpt lat="34.29798126220703" lon="131.4583740234375">
 <time>2015-12-06T02:24:46ZZ</time>
 <name><![CDATA[与三原]]></name>
</wpt>

<wpt lat="34.28832244873047" lon="131.45791625976562">
 <time>2015-12-06T02:24:46ZZ</time>
 <name><![CDATA[小松ヶ谷]]></name>
</wpt>

<wpt lat="34.2850227355957" lon="131.4626007080078">
 <time>2015-12-06T02:24:46ZZ</time>
 <name><![CDATA[佐々並]]></name>
</wpt>

<wpt lat="34.2811164855957" lon="131.4693145751953">
 <time>2015-12-06T02:24:46ZZ</time>
 <name><![CDATA[板橋口]]></name>
</wpt>

<wpt lat="34.2722282409668" lon="131.4738311767578">
 <time>2015-12-06T02:24:46ZZ</time>
 <name><![CDATA[大迫口]]></name>
</wpt>

<wpt lat="34.26505661010742" lon="131.4735565185547">
 <time>2015-12-06T02:24:46ZZ</time>
 <name><![CDATA[中作]]></name>
</wpt>

<wpt lat="34.26213836669922" lon="131.47821044921875">
 <time>2015-12-06T02:24:46ZZ</time>
 <name><![CDATA[日南瀬]]></name>
</wpt>

<wpt lat="34.25218963623047" lon="131.4873504638672">
 <time>2015-12-06T02:24:46ZZ</time>
 <name><![CDATA[下小木原]]></name>
</wpt>

<wpt lat="34.24623489379883" lon="131.49105834960938">
 <time>2015-12-06T02:24:46ZZ</time>
 <name><![CDATA[上小木原]]></name>
</wpt>

<wpt lat="34.25089645385742" lon="131.52276611328125">
 <time>2015-12-06T02:24:46ZZ</time>
 <name><![CDATA[宮野大峠]]></name>
</wpt>

<wpt lat="34.241302490234375" lon="131.52049255371094">
 <time>2015-12-06T02:24:46ZZ</time>
 <name><![CDATA[向田橋]]></name>
</wpt>

<wpt lat="34.22246170043945" lon="131.51492309570312">
 <time>2015-12-06T02:24:46ZZ</time>
 <name><![CDATA[奥湯田温泉口]]></name>
</wpt>

<wpt lat="34.21291732788086" lon="131.51754760742188">
 <time>2015-12-06T02:24:46ZZ</time>
 <name><![CDATA[七房]]></name>
</wpt>

<wpt lat="34.20587921142578" lon="131.51272583007812">
 <time>2015-12-06T02:24:46ZZ</time>
 <name><![CDATA[宮野新橋]]></name>
</wpt>

<wpt lat="34.20303726196289" lon="131.50892639160156">
 <time>2015-12-06T02:24:46ZZ</time>
 <name><![CDATA[スポーツの森前]]></name>
</wpt>

<wpt lat="34.19668197631836" lon="131.5023956298828">
 <time>2015-12-06T02:24:46ZZ</time>
 <name><![CDATA[宮野中学校前]]></name>
</wpt>

<wpt lat="34.189422607421875" lon="131.49539184570312">
 <time>2015-12-06T02:24:46ZZ</time>
 <name><![CDATA[折本]]></name>
</wpt>

<wpt lat="34.187538146972656" lon="131.4919891357422">
 <time>2015-12-06T02:24:46ZZ</time>
 <name><![CDATA[三の宮前]]></name>
</wpt>

<wpt lat="34.18376922607422" lon="131.4846954345703">
 <time>2015-12-06T02:24:46ZZ</time>
 <name><![CDATA[日赤前]]></name>
</wpt>

<wpt lat="34.18618392944336" lon="131.48252868652344">
 <time>2015-12-06T02:24:46ZZ</time>
 <name><![CDATA[山口自衛隊前]]></name>
</wpt>

<wpt lat="34.094364166259766" lon="131.3956298828125">
 <time>2015-12-06T02:24:46ZZ</time>
 <name><![CDATA[新山口駅新幹線口]]></name>
</wpt>

<wpt lat="34.1723747253418" lon="131.4725799560547">
 <time>2015-12-06T02:24:46ZZ</time>
 <name><![CDATA[荒高]]></name>
</wpt>

<wpt lat="34.167083740234375" lon="131.47906494140625">
 <time>2015-12-06T02:24:46ZZ</time>
 <name><![CDATA[宮島町]]></name>
</wpt>

<wpt lat="34.16383743286133" lon="131.48690795898438">
 <time>2015-12-06T02:24:46ZZ</time>
 <name><![CDATA[御堀橋]]></name>
</wpt>

<wpt lat="34.158592224121094" lon="131.4913787841797">
 <time>2015-12-06T02:24:46ZZ</time>
 <name><![CDATA[千坊]]></name>
</wpt>

<wpt lat="34.15758514404297" lon="131.49359130859375">
 <time>2015-12-06T02:24:46ZZ</time>
 <name><![CDATA[ゆめタウン山口]]></name>
</wpt>

<wpt lat="34.15573501586914" lon="131.50157165527344">
 <time>2015-12-06T02:24:46ZZ</time>
 <name><![CDATA[光円寺前]]></name>
</wpt>

<wpt lat="34.152286529541016" lon="131.5164031982422">
 <time>2015-12-06T02:24:46ZZ</time>
 <name><![CDATA[大内中学校前]]></name>
</wpt>

<wpt lat="34.232337951660156" lon="131.298828125">
 <time>2015-12-06T02:24:46ZZ</time>
 <name><![CDATA[黒谷口]]></name>
</wpt>

<wpt lat="34.23372268676758" lon="131.3054962158203">
 <time>2015-12-06T02:24:46ZZ</time>
 <name><![CDATA[秋吉台]]></name>
</wpt>

<wpt lat="34.15770721435547" lon="131.45974731445312">
 <time>2015-12-06T02:24:46ZZ</time>
 <name><![CDATA[湯田温泉駅入口]]></name>
</wpt>

<wpt lat="34.160518646240234" lon="131.4595947265625">
 <time>2015-12-06T02:24:46ZZ</time>
 <name><![CDATA[湯田温泉]]></name>
</wpt>

<wpt lat="34.15604782104492" lon="131.46144104003906">
 <time>2015-12-06T02:24:46ZZ</time>
 <name><![CDATA[あいわたせ]]></name>
</wpt>

<wpt lat="34.15248489379883" lon="131.46466064453125">
 <time>2015-12-06T02:24:46ZZ</time>
 <name><![CDATA[台]]></name>
</wpt>

<wpt lat="34.15062713623047" lon="131.46607971191406">
 <time>2015-12-06T02:24:46ZZ</time>
 <name><![CDATA[山口大学前（房府方面のみ）]]></name>
</wpt>

<wpt lat="34.148651123046875" lon="131.46676635742188">
 <time>2015-12-06T02:24:46ZZ</time>
 <name><![CDATA[山口大学]]></name>
</wpt>

<wpt lat="34.147804260253906" lon="131.5201416015625">
 <time>2015-12-06T02:24:46ZZ</time>
 <name><![CDATA[柊]]></name>
</wpt>

<wpt lat="34.14042282104492" lon="131.52291870117188">
 <time>2015-12-06T02:24:46ZZ</time>
 <name><![CDATA[鯖地]]></name>
</wpt>

<wpt lat="34.13225555419922" lon="131.52586364746094">
 <time>2015-12-06T02:24:46ZZ</time>
 <name><![CDATA[鳴滝]]></name>
</wpt>

<wpt lat="34.119869232177734" lon="131.53073120117188">
 <time>2015-12-06T02:24:46ZZ</time>
 <name><![CDATA[下鯖山]]></name>
</wpt>

<wpt lat="34.11686706542969" lon="131.5321807861328">
 <time>2015-12-06T02:24:46ZZ</time>
 <name><![CDATA[禅昌寺前]]></name>
</wpt>

<wpt lat="34.109580993652344" lon="131.53579711914062">
 <time>2015-12-06T02:24:46ZZ</time>
 <name><![CDATA[上鯖山]]></name>
</wpt>

<wpt lat="34.1023063659668" lon="131.53965759277344">
 <time>2015-12-06T02:24:46ZZ</time>
 <name><![CDATA[洞道北口]]></name>
</wpt>

<wpt lat="34.087188720703125" lon="131.54759216308594">
 <time>2015-12-06T02:24:46ZZ</time>
 <name><![CDATA[上勝坂]]></name>
</wpt>

<wpt lat="34.08047866821289" lon="131.55091857910156">
 <time>2015-12-06T02:24:46ZZ</time>
 <name><![CDATA[勝坂]]></name>
</wpt>

<wpt lat="34.063026428222656" lon="131.55824279785156">
 <time>2015-12-06T02:24:46ZZ</time>
 <name><![CDATA[防府新橋]]></name>
</wpt>

<wpt lat="34.05288314819336" lon="131.56912231445312">
 <time>2015-12-06T02:24:46ZZ</time>
 <name><![CDATA[防府]]></name>
</wpt>

<wpt lat="34.420326232910156" lon="131.40762329101562">
 <time>2015-12-06T02:24:46ZZ</time>
 <name><![CDATA[新川]]></name>
</wpt>

<wpt lat="34.03480529785156" lon="131.9705810546875">
 <time>2015-12-06T02:24:46ZZ</time>
 <name><![CDATA[熊毛インター]]></name>
</wpt>

<wpt lat="34.044979095458984" lon="131.85487365722656">
 <time>2015-12-06T02:24:46ZZ</time>
 <name><![CDATA[徳山東インター]]></name>
</wpt>

<wpt lat="34.039398193359375" lon="131.8437957763672">
 <time>2015-12-06T02:24:46ZZ</time>
 <name><![CDATA[秋本]]></name>
</wpt>

<wpt lat="34.04728317260742" lon="131.8427276611328">
 <time>2015-12-06T02:24:46ZZ</time>
 <name><![CDATA[馬屋（徳山大学入口）]]></name>
</wpt>

<wpt lat="34.048805236816406" lon="131.834228515625">
 <time>2015-12-06T02:24:46ZZ</time>
 <name><![CDATA[周陽町中央病院入口]]></name>
</wpt>

<wpt lat="34.052696228027344" lon="131.82485961914062">
 <time>2015-12-06T02:24:46ZZ</time>
 <name><![CDATA[扇町]]></name>
</wpt>

<wpt lat="34.05717086791992" lon="131.81752014160156">
 <time>2015-12-06T02:24:46ZZ</time>
 <name><![CDATA[東辻]]></name>
</wpt>

<wpt lat="34.05426025390625" lon="131.80633544921875">
 <time>2015-12-06T02:24:46ZZ</time>
 <name><![CDATA[市役所前]]></name>
</wpt>

<wpt lat="34.05182647705078" lon="131.8031463623047">
 <time>2015-12-06T02:24:46ZZ</time>
 <name><![CDATA[徳山駅前]]></name>
</wpt>

<wpt lat="34.04956817626953" lon="131.79977416992188">
 <time>2015-12-06T02:24:46ZZ</time>
 <name><![CDATA[徳山港]]></name>
</wpt>

<wpt lat="34.220863342285156" lon="132.07736206054688">
 <time>2015-12-06T02:24:46ZZ</time>
 <name><![CDATA[鮎谷]]></name>
</wpt>

<wpt lat="34.21994400024414" lon="132.08157348632812">
 <time>2015-12-06T02:24:46ZZ</time>
 <name><![CDATA[東谷口]]></name>
</wpt>

<wpt lat="34.22170639038086" lon="132.0851287841797">
 <time>2015-12-06T02:24:46ZZ</time>
 <name><![CDATA[坂上高校前]]></name>
</wpt>

<wpt lat="34.22294998168945" lon="132.08935546875">
 <time>2015-12-06T02:24:46ZZ</time>
 <name><![CDATA[名坪]]></name>
</wpt>

<wpt lat="34.223052978515625" lon="132.09156799316406">
 <time>2015-12-06T02:24:46ZZ</time>
 <name><![CDATA[向原口]]></name>
</wpt>

<wpt lat="34.223289489746094" lon="132.09625244140625">
 <time>2015-12-06T02:24:46ZZ</time>
 <name><![CDATA[小田口]]></name>
</wpt>

<wpt lat="34.22416305541992" lon="132.09884643554688">
 <time>2015-12-06T02:24:46ZZ</time>
 <name><![CDATA[下迫]]></name>
</wpt>

<wpt lat="34.22482681274414" lon="132.1026611328125">
 <time>2015-12-06T02:24:46ZZ</time>
 <name><![CDATA[周坊坂上]]></name>
</wpt>

<wpt lat="34.22547149658203" lon="132.10581970214844">
 <time>2015-12-06T02:24:46ZZ</time>
 <name><![CDATA[上佐坂]]></name>
</wpt>

<wpt lat="34.22914505004883" lon="132.111328125">
 <time>2015-12-06T02:24:46ZZ</time>
 <name><![CDATA[佐坂]]></name>
</wpt>

<wpt lat="34.23091125488281" lon="132.1150360107422">
 <time>2015-12-06T02:24:46ZZ</time>
 <name><![CDATA[中佐坂]]></name>
</wpt>

<wpt lat="34.23466491699219" lon="132.12220764160156">
 <time>2015-12-06T02:24:46ZZ</time>
 <name><![CDATA[下佐坂]]></name>
</wpt>

<wpt lat="34.23805618286133" lon="132.12588500976562">
 <time>2015-12-06T02:24:46ZZ</time>
 <name><![CDATA[中垣内]]></name>
</wpt>

<wpt lat="34.24087142944336" lon="132.12770080566406">
 <time>2015-12-06T02:24:46ZZ</time>
 <name><![CDATA[黒沢]]></name>
</wpt>

<wpt lat="34.241207122802734" lon="132.1314239501953">
 <time>2015-12-06T02:24:46ZZ</time>
 <name><![CDATA[日光寺山団地]]></name>
</wpt>

<wpt lat="34.24193572998047" lon="132.1337127685547">
 <time>2015-12-06T02:24:46ZZ</time>
 <name><![CDATA[根岸]]></name>
</wpt>

<wpt lat="34.236324310302734" lon="132.13995361328125">
 <time>2015-12-06T02:24:46ZZ</time>
 <name><![CDATA[百合谷口]]></name>
</wpt>

<wpt lat="34.05491638183594" lon="131.80677795410156">
 <time>2015-12-06T02:24:46ZZ</time>
 <name><![CDATA[周南市役所前]]></name>
</wpt>

<wpt lat="33.96342086791992" lon="132.1009979248047">
 <time>2015-12-06T02:24:46ZZ</time>
 <name><![CDATA[柳井市役所前]]></name>
</wpt>

<wpt lat="33.967613220214844" lon="132.0980987548828">
 <time>2015-12-06T02:24:46ZZ</time>
 <name><![CDATA[柳井保健所前]]></name>
</wpt>

<wpt lat="33.970001220703125" lon="132.09471130371094">
 <time>2015-12-06T02:24:46ZZ</time>
 <name><![CDATA[土穂石]]></name>
</wpt>

<wpt lat="33.970664978027344" lon="132.0895538330078">
 <time>2015-12-06T02:24:46ZZ</time>
 <name><![CDATA[新庄]]></name>
</wpt>

<wpt lat="33.97035217285156" lon="132.08351135253906">
 <time>2015-12-06T02:24:46ZZ</time>
 <name><![CDATA[新庄西]]></name>
</wpt>

<wpt lat="33.970252990722656" lon="132.07388305664062">
 <time>2015-12-06T02:24:46ZZ</time>
 <name><![CDATA[余田東]]></name>
</wpt>

<wpt lat="33.96854019165039" lon="132.069091796875">
 <time>2015-12-06T02:24:46ZZ</time>
 <name><![CDATA[余田]]></name>
</wpt>

<wpt lat="33.96145248413086" lon="132.0683135986328">
 <time>2015-12-06T02:24:46ZZ</time>
 <name><![CDATA[尾林]]></name>
</wpt>

<wpt lat="33.95969009399414" lon="132.0668487548828">
 <time>2015-12-06T02:24:46ZZ</time>
 <name><![CDATA[坂本病院]]></name>
</wpt>

<wpt lat="33.96477508544922" lon="132.06153869628906">
 <time>2015-12-06T02:24:46ZZ</time>
 <name><![CDATA[八和田東]]></name>
</wpt>

<wpt lat="33.96358871459961" lon="132.05938720703125">
 <time>2015-12-06T02:24:46ZZ</time>
 <name><![CDATA[八和田]]></name>
</wpt>

<wpt lat="33.95623779296875" lon="132.05450439453125">
 <time>2015-12-06T02:24:46ZZ</time>
 <name><![CDATA[土井の内]]></name>
</wpt>

<wpt lat="33.95491027832031" lon="132.05152893066406">
 <time>2015-12-06T02:24:46ZZ</time>
 <name><![CDATA[本町]]></name>
</wpt>

<wpt lat="33.95564651489258" lon="132.0482635498047">
 <time>2015-12-06T02:24:46ZZ</time>
 <name><![CDATA[砂田東]]></name>
</wpt>

<wpt lat="33.96605682373047" lon="132.10618591308594">
 <time>2015-12-06T02:24:46ZZ</time>
 <name><![CDATA[柳井駅前]]></name>
</wpt>

<wpt lat="33.96403503417969" lon="132.11415100097656">
 <time>2015-12-06T02:24:46ZZ</time>
 <name><![CDATA[北浜]]></name>
</wpt>

<wpt lat="33.9624137878418" lon="132.1203155517578">
 <time>2015-12-06T02:24:46ZZ</time>
 <name><![CDATA[自動車学校前]]></name>
</wpt>

<wpt lat="33.96099090576172" lon="132.1239776611328">
 <time>2015-12-06T02:24:46ZZ</time>
 <name><![CDATA[宮本]]></name>
</wpt>

<wpt lat="33.958683013916016" lon="132.1294708251953">
 <time>2015-12-06T02:24:46ZZ</time>
 <name><![CDATA[白潟]]></name>
</wpt>

<wpt lat="33.95746994018555" lon="132.13328552246094">
 <time>2015-12-06T02:24:46ZZ</time>
 <name><![CDATA[柳井港]]></name>
</wpt>

<wpt lat="33.95648956298828" lon="132.1440887451172">
 <time>2015-12-06T02:24:46ZZ</time>
 <name><![CDATA[遠崎]]></name>
</wpt>

<wpt lat="33.95649719238281" lon="132.14828491210938">
 <time>2015-12-06T02:24:46ZZ</time>
 <name><![CDATA[遠崎東]]></name>
</wpt>

<wpt lat="33.96053695678711" lon="132.16827392578125">
 <time>2015-12-06T02:24:46ZZ</time>
 <name><![CDATA[本町]]></name>
</wpt>

<wpt lat="33.96162033081055" lon="132.17173767089844">
 <time>2015-12-06T02:24:46ZZ</time>
 <name><![CDATA[住吉町]]></name>
</wpt>

<wpt lat="33.96346664428711" lon="132.18115234375">
 <time>2015-12-06T02:24:46ZZ</time>
 <name><![CDATA[大畠駅]]></name>
</wpt>

<wpt lat="33.947628021240234" lon="132.2028350830078">
 <time>2015-12-06T02:24:46ZZ</time>
 <name><![CDATA[西の浜]]></name>
</wpt>

<wpt lat="33.947208404541016" lon="132.20558166503906">
 <time>2015-12-06T02:24:46ZZ</time>
 <name><![CDATA[周防中村]]></name>
</wpt>

<wpt lat="33.947425842285156" lon="132.20953369140625">
 <time>2015-12-06T02:24:46ZZ</time>
 <name><![CDATA[三蒲]]></name>
</wpt>

<wpt lat="33.95028305053711" lon="132.21298217773438">
 <time>2015-12-06T02:24:46ZZ</time>
 <name><![CDATA[周防東浜]]></name>
</wpt>

<wpt lat="33.958492279052734" lon="132.220947265625">
 <time>2015-12-06T02:24:46ZZ</time>
 <name><![CDATA[西椋野]]></name>
</wpt>

<wpt lat="33.957950592041016" lon="132.2263641357422">
 <time>2015-12-06T02:24:46ZZ</time>
 <name><![CDATA[周防椋野]]></name>
</wpt>

<wpt lat="33.95864486694336" lon="132.22952270507812">
 <time>2015-12-06T02:24:46ZZ</time>
 <name><![CDATA[東椋野]]></name>
</wpt>

<wpt lat="33.96378707885742" lon="132.23193359375">
 <time>2015-12-06T02:24:46ZZ</time>
 <name><![CDATA[新椋野]]></name>
</wpt>

<wpt lat="33.9547233581543" lon="132.2473907470703">
 <time>2015-12-06T02:24:46ZZ</time>
 <name><![CDATA[宗光西]]></name>
</wpt>

<wpt lat="33.952186584472656" lon="132.25198364257812">
 <time>2015-12-06T02:24:46ZZ</time>
 <name><![CDATA[宗光]]></name>
</wpt>

<wpt lat="33.950111389160156" lon="132.25784301757812">
 <time>2015-12-06T02:24:46ZZ</time>
 <name><![CDATA[流田]]></name>
</wpt>

<wpt lat="33.949398040771484" lon="132.26004028320312">
 <time>2015-12-06T02:24:46ZZ</time>
 <name><![CDATA[総合庁舎前]]></name>
</wpt>

<wpt lat="33.94822692871094" lon="132.26495361328125">
 <time>2015-12-06T02:24:46ZZ</time>
 <name><![CDATA[天神前]]></name>
</wpt>

<wpt lat="33.94790267944336" lon="132.26937866210938">
 <time>2015-12-06T02:24:46ZZ</time>
 <name><![CDATA[周防久賀]]></name>
</wpt>

<wpt lat="33.94812774658203" lon="132.27304077148438">
 <time>2015-12-06T02:24:46ZZ</time>
 <name><![CDATA[周防八幡]]></name>
</wpt>

<wpt lat="33.94864273071289" lon="132.28684997558594">
 <time>2015-12-06T02:24:46ZZ</time>
 <name><![CDATA[午神前]]></name>
</wpt>

<wpt lat="33.945159912109375" lon="132.28736877441406">
 <time>2015-12-06T02:24:46ZZ</time>
 <name><![CDATA[周防大崎]]></name>
</wpt>

<wpt lat="33.940956115722656" lon="132.2876434326172">
 <time>2015-12-06T02:24:46ZZ</time>
 <name><![CDATA[周防白石]]></name>
</wpt>

<wpt lat="33.934818267822266" lon="132.2964324951172">
 <time>2015-12-06T02:24:46ZZ</time>
 <name><![CDATA[周防長浜]]></name>
</wpt>

<wpt lat="33.92058563232422" lon="132.2985382080078">
 <time>2015-12-06T02:24:46ZZ</time>
 <name><![CDATA[日前]]></name>
</wpt>

<wpt lat="33.91874694824219" lon="132.30006408691406">
 <time>2015-12-06T02:24:46ZZ</time>
 <name><![CDATA[白鳥口]]></name>
</wpt>

<wpt lat="33.91622543334961" lon="132.3031463623047">
 <time>2015-12-06T02:24:46ZZ</time>
 <name><![CDATA[土居口]]></name>
</wpt>

<wpt lat="33.90207290649414" lon="132.2912139892578">
 <time>2015-12-06T02:24:46ZZ</time>
 <name><![CDATA[安高]]></name>
</wpt>

<wpt lat="33.90077590942383" lon="132.28102111816406">
 <time>2015-12-06T02:24:46ZZ</time>
 <name><![CDATA[和戸]]></name>
</wpt>

<wpt lat="33.89858627319336" lon="132.2795867919922">
 <time>2015-12-06T02:24:46ZZ</time>
 <name><![CDATA[周防大島町橘庁舎前]]></name>
</wpt>

<wpt lat="33.89750671386719" lon="132.2799530029297">
 <time>2015-12-06T02:24:46ZZ</time>
 <name><![CDATA[町立病院前]]></name>
</wpt>

<wpt lat="33.91336441040039" lon="132.30686950683594">
 <time>2015-12-06T02:24:46ZZ</time>
 <name><![CDATA[周防土居]]></name>
</wpt>

<wpt lat="33.90556716918945" lon="132.3152313232422">
 <time>2015-12-06T02:24:46ZZ</time>
 <name><![CDATA[油良西]]></name>
</wpt>

<wpt lat="33.903106689453125" lon="132.3175506591797">
 <time>2015-12-06T02:24:46ZZ</time>
 <name><![CDATA[周防油良]]></name>
</wpt>

<wpt lat="33.90215301513672" lon="132.32276916503906">
 <time>2015-12-06T02:24:46ZZ</time>
 <name><![CDATA[油良東]]></name>
</wpt>

<wpt lat="33.9014778137207" lon="132.33523559570312">
 <time>2015-12-06T02:24:46ZZ</time>
 <name><![CDATA[下田口]]></name>
</wpt>

<wpt lat="33.902557373046875" lon="132.338623046875">
 <time>2015-12-06T02:24:46ZZ</time>
 <name><![CDATA[周防下田]]></name>
</wpt>

<wpt lat="33.90298843383789" lon="132.34048461914062">
 <time>2015-12-06T02:24:46ZZ</time>
 <name><![CDATA[周防長崎]]></name>
</wpt>

<wpt lat="33.91021728515625" lon="132.35775756835938">
 <time>2015-12-06T02:24:46ZZ</time>
 <name><![CDATA[森野小学校前]]></name>
</wpt>

<wpt lat="33.911983489990234" lon="132.35816955566406">
 <time>2015-12-06T02:24:46ZZ</time>
 <name><![CDATA[森野]]></name>
</wpt>

<wpt lat="33.92454528808594" lon="132.37582397460938">
 <time>2015-12-06T02:24:46ZZ</time>
 <name><![CDATA[神浦]]></name>
</wpt>

<wpt lat="33.9161262512207" lon="132.37965393066406">
 <time>2015-12-06T02:24:46ZZ</time>
 <name><![CDATA[和佐]]></name>
</wpt>

<wpt lat="33.91584014892578" lon="132.3834686279297">
 <time>2015-12-06T02:24:46ZZ</time>
 <name><![CDATA[和佐東]]></name>
</wpt>

<wpt lat="33.915855407714844" lon="132.389892578125">
 <time>2015-12-06T02:24:46ZZ</time>
 <name><![CDATA[小泊港]]></name>
</wpt>

<wpt lat="33.91785430908203" lon="132.3935089111328">
 <time>2015-12-06T02:24:46ZZ</time>
 <name><![CDATA[小泊]]></name>
</wpt>

<wpt lat="33.925907135009766" lon="132.39549255371094">
 <time>2015-12-06T02:24:46ZZ</time>
 <name><![CDATA[内入]]></name>
</wpt>

<wpt lat="33.93000793457031" lon="132.4039306640625">
 <time>2015-12-06T02:24:46ZZ</time>
 <name><![CDATA[周防和田]]></name>
</wpt>

<wpt lat="33.940372467041016" lon="132.40390014648438">
 <time>2015-12-06T02:24:46ZZ</time>
 <name><![CDATA[逗子ヶ浜]]></name>
</wpt>

<wpt lat="33.950279235839844" lon="132.43026733398438">
 <time>2015-12-06T02:24:46ZZ</time>
 <name><![CDATA[小伊保田]]></name>
</wpt>

<wpt lat="33.950096130371094" lon="132.43739318847656">
 <time>2015-12-06T02:24:46ZZ</time>
 <name><![CDATA[陸奥記念館前]]></name>
</wpt>

<wpt lat="33.94369125366211" lon="132.43841552734375">
 <time>2015-12-06T02:24:46ZZ</time>
 <name><![CDATA[西伊保田]]></name>
</wpt>

<wpt lat="33.9437255859375" lon="132.4390411376953">
 <time>2015-12-06T02:24:46ZZ</time>
 <name><![CDATA[伊保田港]]></name>
</wpt>

<wpt lat="33.94297790527344" lon="132.43946838378906">
 <time>2015-12-06T02:24:46ZZ</time>
 <name><![CDATA[伊保田]]></name>
</wpt>

<wpt lat="33.941959381103516" lon="132.4381103515625">
 <time>2015-12-06T02:24:46ZZ</time>
 <name><![CDATA[油田郵便局前]]></name>
</wpt>

<wpt lat="33.933956146240234" lon="132.4381866455078">
 <time>2015-12-06T02:24:46ZZ</time>
 <name><![CDATA[周防油宇]]></name>
</wpt>

<wpt lat="33.96236038208008" lon="132.10484313964844">
 <time>2015-12-06T02:24:46ZZ</time>
 <name><![CDATA[ユメタウン柳井前]]></name>
</wpt>

<wpt lat="33.94620132446289" lon="132.1197967529297">
 <time>2015-12-06T02:24:46ZZ</time>
 <name><![CDATA[前小田]]></name>
</wpt>

<wpt lat="33.944698333740234" lon="132.12051391601562">
 <time>2015-12-06T02:24:46ZZ</time>
 <name><![CDATA[赤石]]></name>
</wpt>

<wpt lat="33.939090728759766" lon="132.1239776611328">
 <time>2015-12-06T02:24:46ZZ</time>
 <name><![CDATA[伊保庄マリンパーク前]]></name>
</wpt>

<wpt lat="33.936492919921875" lon="132.1243896484375">
 <time>2015-12-06T02:24:46ZZ</time>
 <name><![CDATA[上八]]></name>
</wpt>

<wpt lat="33.92620086669922" lon="132.1248321533203">
 <time>2015-12-06T02:24:46ZZ</time>
 <name><![CDATA[小野]]></name>
</wpt>

<wpt lat="33.92261505126953" lon="132.12533569335938">
 <time>2015-12-06T02:24:46ZZ</time>
 <name><![CDATA[柳井南小前]]></name>
</wpt>

<wpt lat="33.91647720336914" lon="132.12631225585938">
 <time>2015-12-06T02:24:46ZZ</time>
 <name><![CDATA[近長]]></name>
</wpt>

<wpt lat="33.91188049316406" lon="132.1268310546875">
 <time>2015-12-06T02:24:46ZZ</time>
 <name><![CDATA[国立病院前]]></name>
</wpt>

<wpt lat="33.90617752075195" lon="132.1259307861328">
 <time>2015-12-06T02:24:46ZZ</time>
 <name><![CDATA[青木]]></name>
</wpt>

<wpt lat="33.90349197387695" lon="132.12652587890625">
 <time>2015-12-06T02:24:46ZZ</time>
 <name><![CDATA[合中]]></name>
</wpt>

<wpt lat="33.90088653564453" lon="132.1267852783203">
 <time>2015-12-06T02:24:46ZZ</time>
 <name><![CDATA[阿月]]></name>
</wpt>

<wpt lat="33.89739990234375" lon="132.12692260742188">
 <time>2015-12-06T02:24:46ZZ</time>
 <name><![CDATA[松浦]]></name>
</wpt>

<wpt lat="33.89057159423828" lon="132.12600708007812">
 <time>2015-12-06T02:24:46ZZ</time>
 <name><![CDATA[宇積]]></name>
</wpt>

<wpt lat="33.88531494140625" lon="132.12969970703125">
 <time>2015-12-06T02:24:46ZZ</time>
 <name><![CDATA[湯原]]></name>
</wpt>

<wpt lat="33.86865997314453" lon="132.14581298828125">
 <time>2015-12-06T02:24:46ZZ</time>
 <name><![CDATA[相の浦小前]]></name>
</wpt>

<wpt lat="33.96162796020508" lon="132.1034393310547">
 <time>2015-12-06T02:24:46ZZ</time>
 <name><![CDATA[西沖割]]></name>
</wpt>

<wpt lat="33.95735168457031" lon="132.1101837158203">
 <time>2015-12-06T02:24:46ZZ</time>
 <name><![CDATA[西高須]]></name>
</wpt>

<wpt lat="33.954795837402344" lon="132.1151885986328">
 <time>2015-12-06T02:24:46ZZ</time>
 <name><![CDATA[高須]]></name>
</wpt>

<wpt lat="33.95146942138672" lon="132.11648559570312">
 <time>2015-12-06T02:24:46ZZ</time>
 <name><![CDATA[小田]]></name>
</wpt>

<wpt lat="33.86620330810547" lon="132.14688110351562">
 <time>2015-12-06T02:24:46ZZ</time>
 <name><![CDATA[相の浦]]></name>
</wpt>

<wpt lat="33.84812545776367" lon="132.15724182128906">
 <time>2015-12-06T02:24:46ZZ</time>
 <name><![CDATA[池の浦]]></name>
</wpt>

<wpt lat="33.95854568481445" lon="132.09706115722656">
 <time>2015-12-06T02:24:46ZZ</time>
 <name><![CDATA[周東病院前]]></name>
</wpt>

<wpt lat="33.95491027832031" lon="132.09439086914062">
 <time>2015-12-06T02:24:46ZZ</time>
 <name><![CDATA[田布呂木]]></name>
</wpt>

<wpt lat="33.95088577270508" lon="132.09031677246094">
 <time>2015-12-06T02:24:46ZZ</time>
 <name><![CDATA[宇佐木]]></name>
</wpt>

<wpt lat="33.946189880371094" lon="132.09017944335938">
 <time>2015-12-06T02:24:46ZZ</time>
 <name><![CDATA[松尾]]></name>
</wpt>

<wpt lat="33.94289016723633" lon="132.09048461914062">
 <time>2015-12-06T02:24:46ZZ</time>
 <name><![CDATA[北村]]></name>
</wpt>

<wpt lat="33.93869400024414" lon="132.0905303955078">
 <time>2015-12-06T02:24:46ZZ</time>
 <name><![CDATA[今井]]></name>
</wpt>

<wpt lat="33.935028076171875" lon="132.0889129638672">
 <time>2015-12-06T02:24:46ZZ</time>
 <name><![CDATA[弁上]]></name>
</wpt>

<wpt lat="33.93162155151367" lon="132.088134765625">
 <time>2015-12-06T02:24:46ZZ</time>
 <name><![CDATA[大野中村]]></name>
</wpt>

<wpt lat="33.93238067626953" lon="132.08056640625">
 <time>2015-12-06T02:24:46ZZ</time>
 <name><![CDATA[南]]></name>
</wpt>

<wpt lat="33.93454360961914" lon="132.07699584960938">
 <time>2015-12-06T02:24:46ZZ</time>
 <name><![CDATA[平生小前]]></name>
</wpt>

<wpt lat="33.93145751953125" lon="132.07447814941406">
 <time>2015-12-06T02:24:46ZZ</time>
 <name><![CDATA[新町]]></name>
</wpt>

<wpt lat="33.926734924316406" lon="132.07156372070312">
 <time>2015-12-06T02:24:46ZZ</time>
 <name><![CDATA[小山]]></name>
</wpt>

<wpt lat="33.92399597167969" lon="132.06939697265625">
 <time>2015-12-06T02:24:46ZZ</time>
 <name><![CDATA[曽根]]></name>
</wpt>

<wpt lat="33.92116928100586" lon="132.06390380859375">
 <time>2015-12-06T02:24:46ZZ</time>
 <name><![CDATA[新地]]></name>
</wpt>

<wpt lat="33.92007064819336" lon="132.05921936035156">
 <time>2015-12-06T02:24:46ZZ</time>
 <name><![CDATA[水場東]]></name>
</wpt>

<wpt lat="33.91807174682617" lon="132.0558624267578">
 <time>2015-12-06T02:24:46ZZ</time>
 <name><![CDATA[水場]]></name>
</wpt>

<wpt lat="33.91229248046875" lon="132.05892944335938">
 <time>2015-12-06T02:24:46ZZ</time>
 <name><![CDATA[田名]]></name>
</wpt>

<wpt lat="33.90557861328125" lon="132.06956481933594">
 <time>2015-12-06T02:24:46ZZ</time>
 <name><![CDATA[丸山]]></name>
</wpt>

<wpt lat="33.9042854309082" lon="132.07582092285156">
 <time>2015-12-06T02:24:46ZZ</time>
 <name><![CDATA[名切]]></name>
</wpt>

<wpt lat="33.900779724121094" lon="132.07925415039062">
 <time>2015-12-06T02:24:46ZZ</time>
 <name><![CDATA[伊保木]]></name>
</wpt>

<wpt lat="33.89731216430664" lon="132.08045959472656">
 <time>2015-12-06T02:24:46ZZ</time>
 <name><![CDATA[宮の下]]></name>
</wpt>

<wpt lat="33.89329147338867" lon="132.0818328857422">
 <time>2015-12-06T02:24:46ZZ</time>
 <name><![CDATA[佐賀]]></name>
</wpt>

<wpt lat="33.891754150390625" lon="132.08424377441406">
 <time>2015-12-06T02:24:46ZZ</time>
 <name><![CDATA[魚見]]></name>
</wpt>

<wpt lat="33.890316009521484" lon="132.08926391601562">
 <time>2015-12-06T02:24:46ZZ</time>
 <name><![CDATA[佐賀東]]></name>
</wpt>

<wpt lat="33.8889045715332" lon="132.09092712402344">
 <time>2015-12-06T02:24:46ZZ</time>
 <name><![CDATA[大田]]></name>
</wpt>

<wpt lat="33.884315490722656" lon="132.09751892089844">
 <time>2015-12-06T02:24:46ZZ</time>
 <name><![CDATA[黒羽根]]></name>
</wpt>

<wpt lat="33.88051986694336" lon="132.1102294921875">
 <time>2015-12-06T02:24:46ZZ</time>
 <name><![CDATA[秋森]]></name>
</wpt>

<wpt lat="33.87873458862305" lon="132.11590576171875">
 <time>2015-12-06T02:24:46ZZ</time>
 <name><![CDATA[小郡]]></name>
</wpt>

<wpt lat="33.87403869628906" lon="132.1204071044922">
 <time>2015-12-06T02:24:46ZZ</time>
 <name><![CDATA[尾国]]></name>
</wpt>

<wpt lat="33.87173843383789" lon="132.12078857421875">
 <time>2015-12-06T02:24:46ZZ</time>
 <name><![CDATA[脇の浜]]></name>
</wpt>

<wpt lat="33.947113037109375" lon="132.08444213867188">
 <time>2015-12-06T02:24:46ZZ</time>
 <name><![CDATA[築廻]]></name>
</wpt>

<wpt lat="33.942020416259766" lon="132.0789337158203">
 <time>2015-12-06T02:24:46ZZ</time>
 <name><![CDATA[十三割]]></name>
</wpt>

<wpt lat="33.93671798706055" lon="132.0769805908203">
 <time>2015-12-06T02:24:46ZZ</time>
 <name><![CDATA[横土手]]></name>
</wpt>

<wpt lat="33.93854904174805" lon="132.07489013671875">
 <time>2015-12-06T02:24:46ZZ</time>
 <name><![CDATA[平生]]></name>
</wpt>

<wpt lat="33.85094451904297" lon="132.11720275878906">
 <time>2015-12-06T02:24:46ZZ</time>
 <name><![CDATA[尾熊毛]]></name>
</wpt>

<wpt lat="33.83920669555664" lon="132.1180419921875">
 <time>2015-12-06T02:24:46ZZ</time>
 <name><![CDATA[皇座山登山口]]></name>
</wpt>

<wpt lat="33.838687896728516" lon="132.1182403564453">
 <time>2015-12-06T02:24:46ZZ</time>
 <name><![CDATA[室津]]></name>
</wpt>

<wpt lat="33.83221435546875" lon="132.11700439453125">
 <time>2015-12-06T02:24:46ZZ</time>
 <name><![CDATA[瀬戸]]></name>
</wpt>

<wpt lat="33.830142974853516" lon="132.11685180664062">
 <time>2015-12-06T02:24:46ZZ</time>
 <name><![CDATA[上関大橋]]></name>
</wpt>

<wpt lat="33.83435821533203" lon="132.11032104492188">
 <time>2015-12-06T02:24:46ZZ</time>
 <name><![CDATA[天神前]]></name>
</wpt>

<wpt lat="33.943904876708984" lon="132.0794677734375">
 <time>2015-12-06T02:24:46ZZ</time>
 <name><![CDATA[十八割]]></name>
</wpt>

<wpt lat="33.94173049926758" lon="132.06993103027344">
 <time>2015-12-06T02:24:46ZZ</time>
 <name><![CDATA[ロックショッピングタウン]]></name>
</wpt>

<wpt lat="33.93952941894531" lon="132.0693359375">
 <time>2015-12-06T02:24:46ZZ</time>
 <name><![CDATA[西浜]]></name>
</wpt>

<wpt lat="33.9671745300293" lon="132.1283416748047">
 <time>2015-12-06T02:24:46ZZ</time>
 <name><![CDATA[大屋東]]></name>
</wpt>

<wpt lat="33.96794128417969" lon="132.1276397705078">
 <time>2015-12-06T02:24:46ZZ</time>
 <name><![CDATA[大屋上]]></name>
</wpt>

<wpt lat="33.96792221069336" lon="132.12486267089844">
 <time>2015-12-06T02:24:46ZZ</time>
 <name><![CDATA[大屋中]]></name>
</wpt>

<wpt lat="33.966522216796875" lon="132.1218719482422">
 <time>2015-12-06T02:24:46ZZ</time>
 <name><![CDATA[大屋下]]></name>
</wpt>

<wpt lat="33.965946197509766" lon="132.1194610595703">
 <time>2015-12-06T02:24:46ZZ</time>
 <name><![CDATA[大屋橋]]></name>
</wpt>

<wpt lat="33.96611022949219" lon="132.11636352539062">
 <time>2015-12-06T02:24:46ZZ</time>
 <name><![CDATA[大水道]]></name>
</wpt>

<wpt lat="33.96518325805664" lon="132.11502075195312">
 <time>2015-12-06T02:24:46ZZ</time>
 <name><![CDATA[新栄通]]></name>
</wpt>

<wpt lat="33.96561050415039" lon="132.1133575439453">
 <time>2015-12-06T02:24:46ZZ</time>
 <name><![CDATA[三角橋]]></name>
</wpt>

<wpt lat="33.9670295715332" lon="132.11268615722656">
 <time>2015-12-06T02:24:46ZZ</time>
 <name><![CDATA[天神並木通り]]></name>
</wpt>

<wpt lat="33.96794891357422" lon="132.1092529296875">
 <time>2015-12-06T02:24:46ZZ</time>
 <name><![CDATA[むろやの園]]></name>
</wpt>

<wpt lat="33.937068939208984" lon="132.0754852294922">
 <time>2015-12-06T02:24:46ZZ</time>
 <name><![CDATA[桜町]]></name>
</wpt>

<wpt lat="33.93448257446289" lon="132.0703887939453">
 <time>2015-12-06T02:24:46ZZ</time>
 <name><![CDATA[三枚浜]]></name>
</wpt>

<wpt lat="33.93712615966797" lon="132.06842041015625">
 <time>2015-12-06T02:24:46ZZ</time>
 <name><![CDATA[新市]]></name>
</wpt>

<wpt lat="33.93620300292969" lon="132.06153869628906">
 <time>2015-12-06T02:24:46ZZ</time>
 <name><![CDATA[八海]]></name>
</wpt>

<wpt lat="33.93238830566406" lon="132.05555725097656">
 <time>2015-12-06T02:24:46ZZ</time>
 <name><![CDATA[鳥越]]></name>
</wpt>

<wpt lat="33.92652130126953" lon="132.05064392089844">
 <time>2015-12-06T02:24:46ZZ</time>
 <name><![CDATA[米出]]></name>
</wpt>

<wpt lat="33.92306900024414" lon="132.05078125">
 <time>2015-12-06T02:24:46ZZ</time>
 <name><![CDATA[浜城]]></name>
</wpt>

<wpt lat="33.92058563232422" lon="132.05111694335938">
 <time>2015-12-06T02:24:46ZZ</time>
 <name><![CDATA[戎ヶ下]]></name>
</wpt>

<wpt lat="33.915870666503906" lon="132.04664611816406">
 <time>2015-12-06T02:24:46ZZ</time>
 <name><![CDATA[馬島渡船場前]]></name>
</wpt>

<wpt lat="33.91175842285156" lon="132.0413055419922">
 <time>2015-12-06T02:24:46ZZ</time>
 <name><![CDATA[別府]]></name>
</wpt>

<wpt lat="33.90865707397461" lon="132.03515625">
 <time>2015-12-06T02:24:46ZZ</time>
 <name><![CDATA[別府立石]]></name>
</wpt>

<wpt lat="33.90681838989258" lon="132.0195770263672">
 <time>2015-12-06T02:24:46ZZ</time>
 <name><![CDATA[五軒屋]]></name>
</wpt>

<wpt lat="33.911659240722656" lon="132.00741577148438">
 <time>2015-12-06T02:24:46ZZ</time>
 <name><![CDATA[伊保木]]></name>
</wpt>

<wpt lat="33.91926193237305" lon="131.99551391601562">
 <time>2015-12-06T02:24:46ZZ</time>
 <name><![CDATA[岩屋]]></name>
</wpt>

<wpt lat="33.929969787597656" lon="131.98011779785156">
 <time>2015-12-06T02:24:46ZZ</time>
 <name><![CDATA[かんぽの宿光前]]></name>
</wpt>

<wpt lat="33.93067169189453" lon="131.97720336914062">
 <time>2015-12-06T02:24:46ZZ</time>
 <name><![CDATA[江の浦]]></name>
</wpt>

<wpt lat="33.93040084838867" lon="131.97190856933594">
 <time>2015-12-06T02:24:46ZZ</time>
 <name><![CDATA[室積]]></name>
</wpt>

<wpt lat="33.932334899902344" lon="131.97129821777344">
 <time>2015-12-06T02:24:46ZZ</time>
 <name><![CDATA[西の浜]]></name>
</wpt>

<wpt lat="33.93500518798828" lon="131.97047424316406">
 <time>2015-12-06T02:24:46ZZ</time>
 <name><![CDATA[中松原]]></name>
</wpt>

<wpt lat="33.94148254394531" lon="131.9669952392578">
 <time>2015-12-06T02:24:46ZZ</time>
 <name><![CDATA[室積新開]]></name>
</wpt>

<wpt lat="33.94588851928711" lon="131.96368408203125">
 <time>2015-12-06T02:24:46ZZ</time>
 <name><![CDATA[西新開]]></name>
</wpt>

<wpt lat="33.9516716003418" lon="131.9569091796875">
 <time>2015-12-06T02:24:46ZZ</time>
 <name><![CDATA[戸仲]]></name>
</wpt>

<wpt lat="33.95437240600586" lon="131.9526824951172">
 <time>2015-12-06T02:24:46ZZ</time>
 <name><![CDATA[北河畑]]></name>
</wpt>

<wpt lat="33.95671463012695" lon="131.94911193847656">
 <time>2015-12-06T02:24:46ZZ</time>
 <name><![CDATA[光警察前]]></name>
</wpt>

<wpt lat="33.95895004272461" lon="131.94558715820312">
 <time>2015-12-06T02:24:46ZZ</time>
 <name><![CDATA[光局前]]></name>
</wpt>

<wpt lat="33.96866226196289" lon="131.93515014648438">
 <time>2015-12-06T02:24:46ZZ</time>
 <name><![CDATA[光製鉄前]]></name>
</wpt>

<wpt lat="33.96914291381836" lon="131.933837890625">
 <time>2015-12-06T02:24:46ZZ</time>
 <name><![CDATA[島田市]]></name>
</wpt>

<wpt lat="33.97113800048828" lon="131.9264373779297">
 <time>2015-12-06T02:24:46ZZ</time>
 <name><![CDATA[浅江]]></name>
</wpt>

<wpt lat="33.97829055786133" lon="131.89773559570312">
 <time>2015-12-06T02:24:46ZZ</time>
 <name><![CDATA[魚ヶ辺]]></name>
</wpt>

<wpt lat="33.98999786376953" lon="131.88632202148438">
 <time>2015-12-06T02:24:46ZZ</time>
 <name><![CDATA[東海岸通り]]></name>
</wpt>

<wpt lat="33.994140625" lon="131.87908935546875">
 <time>2015-12-06T02:24:46ZZ</time>
 <name><![CDATA[恋ヶ浜]]></name>
</wpt>

<wpt lat="33.99795150756836" lon="131.8739776611328">
 <time>2015-12-06T02:24:46ZZ</time>
 <name><![CDATA[豊井東]]></name>
</wpt>

<wpt lat="34.00235366821289" lon="131.87130737304688">
 <time>2015-12-06T02:24:46ZZ</time>
 <name><![CDATA[豊井]]></name>
</wpt>

<wpt lat="34.00844955444336" lon="131.86422729492188">
 <time>2015-12-06T02:24:46ZZ</time>
 <name><![CDATA[高砂町]]></name>
</wpt>

<wpt lat="34.01176834106445" lon="131.8585662841797">
 <time>2015-12-06T02:24:46ZZ</time>
 <name><![CDATA[玉鶴橋]]></name>
</wpt>

<wpt lat="34.01377487182617" lon="131.85487365722656">
 <time>2015-12-06T02:24:46ZZ</time>
 <name><![CDATA[平田橋]]></name>
</wpt>

<wpt lat="34.01580047607422" lon="131.8468017578125">
 <time>2015-12-06T02:24:46ZZ</time>
 <name><![CDATA[西開作]]></name>
</wpt>

<wpt lat="34.01664352416992" lon="131.84336853027344">
 <time>2015-12-06T02:24:46ZZ</time>
 <name><![CDATA[下松健康パーク前]]></name>
</wpt>

<wpt lat="34.01771545410156" lon="131.84005737304688">
 <time>2015-12-06T02:24:46ZZ</time>
 <name><![CDATA[荒神]]></name>
</wpt>

<wpt lat="34.01871109008789" lon="131.8373565673828">
 <time>2015-12-06T02:24:46ZZ</time>
 <name><![CDATA[ボートレース場入口]]></name>
</wpt>

<wpt lat="34.02434539794922" lon="131.8314971923828">
 <time>2015-12-06T02:24:46ZZ</time>
 <name><![CDATA[堀川]]></name>
</wpt>

<wpt lat="34.027923583984375" lon="131.8302764892578">
 <time>2015-12-06T02:24:46ZZ</time>
 <name><![CDATA[中町]]></name>
</wpt>

<wpt lat="34.03059387207031" lon="131.82879638671875">
 <time>2015-12-06T02:24:46ZZ</time>
 <name><![CDATA[櫛ヶ浜駅前]]></name>
</wpt>

<wpt lat="34.03855895996094" lon="131.8228759765625">
 <time>2015-12-06T02:24:46ZZ</time>
 <name><![CDATA[遠石八幡前]]></name>
</wpt>

<wpt lat="34.04037857055664" lon="131.81948852539062">
 <time>2015-12-06T02:24:46ZZ</time>
 <name><![CDATA[遠石一丁目]]></name>
</wpt>

<wpt lat="34.04259490966797" lon="131.8168487548828">
 <time>2015-12-06T02:24:46ZZ</time>
 <name><![CDATA[青山町]]></name>
</wpt>

<wpt lat="34.04499053955078" lon="131.81399536132812">
 <time>2015-12-06T02:24:46ZZ</time>
 <name><![CDATA[防長交通本社前]]></name>
</wpt>

<wpt lat="34.048458099365234" lon="131.81239318847656">
 <time>2015-12-06T02:24:46ZZ</time>
 <name><![CDATA[慶万]]></name>
</wpt>

<wpt lat="34.05242919921875" lon="131.81089782714844">
 <time>2015-12-06T02:24:46ZZ</time>
 <name><![CDATA[桜馬場]]></name>
</wpt>

<wpt lat="33.92829513549805" lon="132.19644165039062">
 <time>2015-12-06T02:24:46ZZ</time>
 <name><![CDATA[周防大島町大島庁舎前]]></name>
</wpt>

<wpt lat="33.930484771728516" lon="132.19195556640625">
 <time>2015-12-06T02:24:46ZZ</time>
 <name><![CDATA[大島郵便局前]]></name>
</wpt>

<wpt lat="33.92779541015625" lon="132.189208984375">
 <time>2015-12-06T02:24:46ZZ</time>
 <name><![CDATA[明新橋]]></name>
</wpt>

<wpt lat="33.92543411254883" lon="132.1871795654297">
 <time>2015-12-06T02:24:46ZZ</time>
 <name><![CDATA[水車]]></name>
</wpt>

<wpt lat="33.92847442626953" lon="132.1819305419922">
 <time>2015-12-06T02:24:46ZZ</time>
 <name><![CDATA[開作港]]></name>
</wpt>

<wpt lat="33.93003845214844" lon="132.17735290527344">
 <time>2015-12-06T02:24:46ZZ</time>
 <name><![CDATA[代の田]]></name>
</wpt>

<wpt lat="33.920345306396484" lon="132.17654418945312">
 <time>2015-12-06T02:24:46ZZ</time>
 <name><![CDATA[浜西]]></name>
</wpt>

<wpt lat="33.91684341430664" lon="132.1774444580078">
 <time>2015-12-06T02:24:46ZZ</time>
 <name><![CDATA[周防志佐]]></name>
</wpt>

<wpt lat="33.90571594238281" lon="132.17657470703125">
 <time>2015-12-06T02:24:46ZZ</time>
 <name><![CDATA[西日見]]></name>
</wpt>

<wpt lat="33.898399353027344" lon="132.18112182617188">
 <time>2015-12-06T02:24:46ZZ</time>
 <name><![CDATA[日見]]></name>
</wpt>

<wpt lat="33.8949089050293" lon="132.18504333496094">
 <time>2015-12-06T02:24:46ZZ</time>
 <name><![CDATA[海洋センター前]]></name>
</wpt>

<wpt lat="33.891056060791016" lon="132.18894958496094">
 <time>2015-12-06T02:24:46ZZ</time>
 <name><![CDATA[横見]]></name>
</wpt>

<wpt lat="33.883792877197266" lon="132.1973114013672">
 <time>2015-12-06T02:24:46ZZ</time>
 <name><![CDATA[沖浦]]></name>
</wpt>

<wpt lat="33.88220977783203" lon="132.19996643066406">
 <time>2015-12-06T02:24:46ZZ</time>
 <name><![CDATA[沖浦支所前]]></name>
</wpt>

<wpt lat="33.876060485839844" lon="132.20547485351562">
 <time>2015-12-06T02:24:46ZZ</time>
 <name><![CDATA[津海木]]></name>
</wpt>

<wpt lat="33.95695114135742" lon="132.03335571289062">
 <time>2015-12-06T02:24:46ZZ</time>
 <name><![CDATA[瀬戸]]></name>
</wpt>

<wpt lat="33.95882034301758" lon="132.05442810058594">
 <time>2015-12-06T02:24:46ZZ</time>
 <name><![CDATA[塩坪]]></name>
</wpt>

<wpt lat="33.958168029785156" lon="132.05191040039062">
 <time>2015-12-06T02:24:46ZZ</time>
 <name><![CDATA[東浦]]></name>
</wpt>

<wpt lat="33.957740783691406" lon="132.048583984375">
 <time>2015-12-06T02:24:46ZZ</time>
 <name><![CDATA[祇園]]></name>
</wpt>

<wpt lat="33.95820999145508" lon="132.0442657470703">
 <time>2015-12-06T02:24:46ZZ</time>
 <name><![CDATA[田布施駅前]]></name>
</wpt>

<wpt lat="33.956302642822266" lon="132.042236328125">
 <time>2015-12-06T02:24:46ZZ</time>
 <name><![CDATA[砂田]]></name>
</wpt>

<wpt lat="33.95629119873047" lon="132.02894592285156">
 <time>2015-12-06T02:24:46ZZ</time>
 <name><![CDATA[納所]]></name>
</wpt>

<wpt lat="33.95872497558594" lon="132.02650451660156">
 <time>2015-12-06T02:24:46ZZ</time>
 <name><![CDATA[観音橋]]></name>
</wpt>

<wpt lat="33.968345642089844" lon="132.01983642578125">
 <time>2015-12-06T02:24:46ZZ</time>
 <name><![CDATA[瓜迫]]></name>
</wpt>

<wpt lat="33.970970153808594" lon="132.012451171875">
 <time>2015-12-06T02:24:46ZZ</time>
 <name><![CDATA[前原]]></name>
</wpt>

<wpt lat="33.968143463134766" lon="132.10333251953125">
 <time>2015-12-06T02:24:46ZZ</time>
 <name><![CDATA[箕越]]></name>
</wpt>

<wpt lat="33.970115661621094" lon="132.10340881347656">
 <time>2015-12-06T02:24:46ZZ</time>
 <name><![CDATA[樋の上]]></name>
</wpt>

<wpt lat="33.97465515136719" lon="132.1034393310547">
 <time>2015-12-06T02:24:46ZZ</time>
 <name><![CDATA[柳井中学校前]]></name>
</wpt>

<wpt lat="33.978153228759766" lon="132.1033172607422">
 <time>2015-12-06T02:24:46ZZ</time>
 <name><![CDATA[国清]]></name>
</wpt>

<wpt lat="33.981178283691406" lon="132.10159301757812">
 <time>2015-12-06T02:24:46ZZ</time>
 <name><![CDATA[本通橋]]></name>
</wpt>

<wpt lat="33.985633850097656" lon="132.0975799560547">
 <time>2015-12-06T02:24:46ZZ</time>
 <name><![CDATA[落合]]></name>
</wpt>

<wpt lat="33.990238189697266" lon="132.09796142578125">
 <time>2015-12-06T02:24:46ZZ</time>
 <name><![CDATA[下政井]]></name>
</wpt>

<wpt lat="33.994606018066406" lon="132.09469604492188">
 <time>2015-12-06T02:24:46ZZ</time>
 <name><![CDATA[政井]]></name>
</wpt>

<wpt lat="33.99626922607422" lon="132.0888671875">
 <time>2015-12-06T02:24:46ZZ</time>
 <name><![CDATA[横川]]></name>
</wpt>

<wpt lat="34.00075149536133" lon="132.083984375">
 <time>2015-12-06T02:24:46ZZ</time>
 <name><![CDATA[黒杭]]></name>
</wpt>

<wpt lat="34.008766174316406" lon="132.0797882080078">
 <time>2015-12-06T02:24:46ZZ</time>
 <name><![CDATA[上黒杭]]></name>
</wpt>

<wpt lat="34.012393951416016" lon="132.07740783691406">
 <time>2015-12-06T02:24:46ZZ</time>
 <name><![CDATA[菅原農場]]></name>
</wpt>

<wpt lat="34.01704788208008" lon="132.0736083984375">
 <time>2015-12-06T02:24:46ZZ</time>
 <name><![CDATA[松ヶ谷]]></name>
</wpt>

<wpt lat="34.01884841918945" lon="132.06947326660156">
 <time>2015-12-06T02:24:46ZZ</time>
 <name><![CDATA[小行司]]></name>
</wpt>

<wpt lat="34.02368927001953" lon="132.060791015625">
 <time>2015-12-06T02:24:46ZZ</time>
 <name><![CDATA[田尻]]></name>
</wpt>

<wpt lat="34.01335144042969" lon="132.1031036376953">
 <time>2015-12-06T02:24:46ZZ</time>
 <name><![CDATA[大の口]]></name>
</wpt>

<wpt lat="34.02481460571289" lon="132.10720825195312">
 <time>2015-12-06T02:24:46ZZ</time>
 <name><![CDATA[大迫]]></name>
</wpt>

<wpt lat="33.99232482910156" lon="132.1018829345703">
 <time>2015-12-06T02:24:46ZZ</time>
 <name><![CDATA[中馬皿]]></name>
</wpt>

<wpt lat="33.994632720947266" lon="132.10545349121094">
 <time>2015-12-06T02:24:46ZZ</time>
 <name><![CDATA[上馬皿]]></name>
</wpt>

<wpt lat="33.998268127441406" lon="132.11141967773438">
 <time>2015-12-06T02:24:46ZZ</time>
 <name><![CDATA[板屋]]></name>
</wpt>

<wpt lat="34.00301742553711" lon="132.12071228027344">
 <time>2015-12-06T02:24:46ZZ</time>
 <name><![CDATA[西光寺]]></name>
</wpt>

<wpt lat="34.00581741333008" lon="132.12725830078125">
 <time>2015-12-06T02:24:46ZZ</time>
 <name><![CDATA[石井]]></name>
</wpt>

<wpt lat="34.01111602783203" lon="132.1310272216797">
 <time>2015-12-06T02:24:46ZZ</time>
 <name><![CDATA[上長野]]></name>
</wpt>

<wpt lat="34.017189025878906" lon="132.13670349121094">
 <time>2015-12-06T02:24:46ZZ</time>
 <name><![CDATA[柳井カントリー入口]]></name>
</wpt>

<wpt lat="34.021324157714844" lon="132.13592529296875">
 <time>2015-12-06T02:24:46ZZ</time>
 <name><![CDATA[長野]]></name>
</wpt>

<wpt lat="34.0233039855957" lon="132.12879943847656">
 <time>2015-12-06T02:24:46ZZ</time>
 <name><![CDATA[木部]]></name>
</wpt>

<wpt lat="34.02886962890625" lon="132.1212615966797">
 <time>2015-12-06T02:24:46ZZ</time>
 <name><![CDATA[宗兼]]></name>
</wpt>

<wpt lat="34.02826690673828" lon="132.11126708984375">
 <time>2015-12-06T02:24:46ZZ</time>
 <name><![CDATA[宮の前]]></name>
</wpt>

<wpt lat="34.02899932861328" lon="132.1082305908203">
 <time>2015-12-06T02:24:46ZZ</time>
 <name><![CDATA[宮ヶ原]]></name>
</wpt>

<wpt lat="34.034725189208984" lon="132.099609375">
 <time>2015-12-06T02:24:46ZZ</time>
 <name><![CDATA[旭]]></name>
</wpt>

<wpt lat="34.03643035888672" lon="132.09776306152344">
 <time>2015-12-06T02:24:46ZZ</time>
 <name><![CDATA[恵下]]></name>
</wpt>

<wpt lat="34.03886413574219" lon="132.0950469970703">
 <time>2015-12-06T02:24:46ZZ</time>
 <name><![CDATA[久可地]]></name>
</wpt>

<wpt lat="33.96954345703125" lon="132.17210388183594">
 <time>2015-12-06T02:24:46ZZ</time>
 <name><![CDATA[大久保]]></name>
</wpt>

<wpt lat="33.98185348510742" lon="132.16531372070312">
 <time>2015-12-06T02:24:46ZZ</time>
 <name><![CDATA[坂川]]></name>
</wpt>

<wpt lat="33.986820220947266" lon="132.16343688964844">
 <time>2015-12-06T02:24:46ZZ</time>
 <name><![CDATA[松ヶ段]]></name>
</wpt>

<wpt lat="33.99159622192383" lon="132.1608428955078">
 <time>2015-12-06T02:24:46ZZ</time>
 <name><![CDATA[忍道]]></name>
</wpt>

<wpt lat="33.996543884277344" lon="132.157470703125">
 <time>2015-12-06T02:24:46ZZ</time>
 <name><![CDATA[東宮ヶ峠]]></name>
</wpt>

<wpt lat="33.99923324584961" lon="132.15353393554688">
 <time>2015-12-06T02:24:46ZZ</time>
 <name><![CDATA[宮ヶ峠]]></name>
</wpt>

<wpt lat="34.006134033203125" lon="132.15359497070312">
 <time>2015-12-06T02:24:46ZZ</time>
 <name><![CDATA[小国]]></name>
</wpt>

<wpt lat="34.0086784362793" lon="132.15464782714844">
 <time>2015-12-06T02:24:46ZZ</time>
 <name><![CDATA[智雲院]]></name>
</wpt>

<wpt lat="34.01240921020508" lon="132.16348266601562">
 <time>2015-12-06T02:24:46ZZ</time>
 <name><![CDATA[大里]]></name>
</wpt>

<wpt lat="34.021034240722656" lon="132.15516662597656">
 <time>2015-12-06T02:24:46ZZ</time>
 <name><![CDATA[大原]]></name>
</wpt>

<wpt lat="33.967647552490234" lon="132.19007873535156">
 <time>2015-12-06T02:24:46ZZ</time>
 <name><![CDATA[神西小前]]></name>
</wpt>

<wpt lat="33.97114562988281" lon="132.19053649902344">
 <time>2015-12-06T02:24:46ZZ</time>
 <name><![CDATA[神代浜]]></name>
</wpt>

<wpt lat="33.976173400878906" lon="132.18923950195312">
 <time>2015-12-06T02:24:46ZZ</time>
 <name><![CDATA[中筋橋]]></name>
</wpt>

<wpt lat="33.97908401489258" lon="132.18878173828125">
 <time>2015-12-06T02:24:46ZZ</time>
 <name><![CDATA[東本宮公会堂前]]></name>
</wpt>

<wpt lat="33.98606872558594" lon="132.1873779296875">
 <time>2015-12-06T02:24:46ZZ</time>
 <name><![CDATA[岩尾滝]]></name>
</wpt>

<wpt lat="33.99375534057617" lon="132.1824188232422">
 <time>2015-12-06T02:24:46ZZ</time>
 <name><![CDATA[殿畑公会堂前]]></name>
</wpt>

<wpt lat="33.996639251708984" lon="132.17921447753906">
 <time>2015-12-06T02:24:46ZZ</time>
 <name><![CDATA[水梨]]></name>
</wpt>

<wpt lat="34.000858306884766" lon="132.17469787597656">
 <time>2015-12-06T02:24:46ZZ</time>
 <name><![CDATA[倉庫前]]></name>
</wpt>

<wpt lat="34.00511932373047" lon="132.1715545654297">
 <time>2015-12-06T02:24:46ZZ</time>
 <name><![CDATA[中山]]></name>
</wpt>

<wpt lat="34.00840377807617" lon="132.16860961914062">
 <time>2015-12-06T02:24:46ZZ</time>
 <name><![CDATA[尾崎原]]></name>
</wpt>

<wpt lat="34.01737594604492" lon="132.1520233154297">
 <time>2015-12-06T02:24:46ZZ</time>
 <name><![CDATA[西大原]]></name>
</wpt>

<wpt lat="34.015167236328125" lon="132.15087890625">
 <time>2015-12-06T02:24:46ZZ</time>
 <name><![CDATA[折坂]]></name>
</wpt>

<wpt lat="34.00612258911133" lon="132.14193725585938">
 <time>2015-12-06T02:24:46ZZ</time>
 <name><![CDATA[若杉]]></name>
</wpt>

<wpt lat="34.004234313964844" lon="132.13861083984375">
 <time>2015-12-06T02:24:46ZZ</time>
 <name><![CDATA[上若杉]]></name>
</wpt>

<wpt lat="34.00149917602539" lon="132.13302612304688">
 <time>2015-12-06T02:24:46ZZ</time>
 <name><![CDATA[新宮]]></name>
</wpt>

<wpt lat="33.996376037597656" lon="132.1288299560547">
 <time>2015-12-06T02:24:46ZZ</time>
 <name><![CDATA[割石]]></name>
</wpt>

<wpt lat="33.996131896972656" lon="132.1201171875">
 <time>2015-12-06T02:24:46ZZ</time>
 <name><![CDATA[西谷]]></name>
</wpt>

<wpt lat="33.99457931518555" lon="132.11624145507812">
 <time>2015-12-06T02:24:46ZZ</time>
 <name><![CDATA[安養院前]]></name>
</wpt>

<wpt lat="34.03541564941406" lon="132.1475067138672">
 <time>2015-12-06T02:24:46ZZ</time>
 <name><![CDATA[笠塚カープ練習場前]]></name>
</wpt>

<wpt lat="34.033748626708984" lon="132.1566619873047">
 <time>2015-12-06T02:24:46ZZ</time>
 <name><![CDATA[横吹]]></name>
</wpt>

<wpt lat="34.03289794921875" lon="132.16119384765625">
 <time>2015-12-06T02:24:46ZZ</time>
 <name><![CDATA[寺山]]></name>
</wpt>

<wpt lat="34.0291633605957" lon="132.15953063964844">
 <time>2015-12-06T02:24:46ZZ</time>
 <name><![CDATA[長田公会堂前]]></name>
</wpt>

<wpt lat="34.02718734741211" lon="132.15635681152344">
 <time>2015-12-06T02:24:46ZZ</time>
 <name><![CDATA[みどり病院前]]></name>
</wpt>

<wpt lat="34.02460479736328" lon="132.1621551513672">
 <time>2015-12-06T02:24:46ZZ</time>
 <name><![CDATA[岩倉]]></name>
</wpt>

<wpt lat="34.027984619140625" lon="132.16217041015625">
 <time>2015-12-06T02:24:46ZZ</time>
 <name><![CDATA[長田]]></name>
</wpt>

<wpt lat="34.02949142456055" lon="132.16647338867188">
 <time>2015-12-06T02:24:46ZZ</time>
 <name><![CDATA[老人福祉センター]]></name>
</wpt>

<wpt lat="34.029930114746094" lon="132.1675262451172">
 <time>2015-12-06T02:24:46ZZ</time>
 <name><![CDATA[由宇温泉]]></name>
</wpt>

<wpt lat="34.031951904296875" lon="132.17080688476562">
 <time>2015-12-06T02:24:46ZZ</time>
 <name><![CDATA[貞清]]></name>
</wpt>

<wpt lat="34.03602600097656" lon="132.1763458251953">
 <time>2015-12-06T02:24:46ZZ</time>
 <name><![CDATA[湯西小前]]></name>
</wpt>

<wpt lat="34.038360595703125" lon="132.1777801513672">
 <time>2015-12-06T02:24:46ZZ</time>
 <name><![CDATA[横道]]></name>
</wpt>

<wpt lat="34.043087005615234" lon="132.18399047851562">
 <time>2015-12-06T02:24:46ZZ</time>
 <name><![CDATA[寺迫]]></name>
</wpt>

<wpt lat="34.04460525512695" lon="132.18751525878906">
 <time>2015-12-06T02:24:46ZZ</time>
 <name><![CDATA[生屋]]></name>
</wpt>

<wpt lat="34.043827056884766" lon="132.19186401367188">
 <time>2015-12-06T02:24:46ZZ</time>
 <name><![CDATA[三軒屋]]></name>
</wpt>

<wpt lat="34.04527282714844" lon="132.19802856445312">
 <time>2015-12-06T02:24:46ZZ</time>
 <name><![CDATA[慈雲院]]></name>
</wpt>

<wpt lat="34.04525375366211" lon="132.20169067382812">
 <time>2015-12-06T02:24:46ZZ</time>
 <name><![CDATA[由宇中学校前]]></name>
</wpt>

<wpt lat="34.04623031616211" lon="132.20716857910156">
 <time>2015-12-06T02:24:46ZZ</time>
 <name><![CDATA[千歳橋]]></name>
</wpt>

<wpt lat="34.04703903198242" lon="132.21253967285156">
 <time>2015-12-06T02:24:46ZZ</time>
 <name><![CDATA[千鳥橋]]></name>
</wpt>

<wpt lat="34.03227615356445" lon="132.213623046875">
 <time>2015-12-06T02:24:46ZZ</time>
 <name><![CDATA[千鳥ヶ丘中]]></name>
</wpt>

<wpt lat="34.035057067871094" lon="132.213623046875">
 <time>2015-12-06T02:24:46ZZ</time>
 <name><![CDATA[千鳥ヶ丘東]]></name>
</wpt>

<wpt lat="34.036285400390625" lon="132.21331787109375">
 <time>2015-12-06T02:24:46ZZ</time>
 <name><![CDATA[千鳥ヶ丘病院前]]></name>
</wpt>

<wpt lat="34.03327941894531" lon="132.21205139160156">
 <time>2015-12-06T02:24:46ZZ</time>
 <name><![CDATA[清華保育園前]]></name>
</wpt>

<wpt lat="34.04084777832031" lon="132.21499633789062">
 <time>2015-12-06T02:24:46ZZ</time>
 <name><![CDATA[ゆうたん前]]></name>
</wpt>

<wpt lat="34.04353713989258" lon="132.21478271484375">
 <time>2015-12-06T02:24:46ZZ</time>
 <name><![CDATA[にこにこちどり園前]]></name>
</wpt>

<wpt lat="34.0368766784668" lon="132.2173309326172">
 <time>2015-12-06T02:24:46ZZ</time>
 <name><![CDATA[由宇崎]]></name>
</wpt>

<wpt lat="34.018898010253906" lon="132.21749877929688">
 <time>2015-12-06T02:24:46ZZ</time>
 <name><![CDATA[水尻]]></name>
</wpt>

<wpt lat="34.014705657958984" lon="132.21649169921875">
 <time>2015-12-06T02:24:46ZZ</time>
 <name><![CDATA[田高多]]></name>
</wpt>

<wpt lat="34.008628845214844" lon="132.21470642089844">
 <time>2015-12-06T02:24:46ZZ</time>
 <name><![CDATA[城ヶ崎]]></name>
</wpt>

<wpt lat="33.9979362487793" lon="132.20921325683594">
 <time>2015-12-06T02:24:46ZZ</time>
 <name><![CDATA[神代駅前]]></name>
</wpt>

<wpt lat="33.99059295654297" lon="132.20228576660156">
 <time>2015-12-06T02:24:46ZZ</time>
 <name><![CDATA[公門所]]></name>
</wpt>

<wpt lat="33.984527587890625" lon="132.20005798339844">
 <time>2015-12-06T02:24:46ZZ</time>
 <name><![CDATA[相地]]></name>
</wpt>

<wpt lat="34.025611877441406" lon="132.20973205566406">
 <time>2015-12-06T02:24:46ZZ</time>
 <name><![CDATA[西有家]]></name>
</wpt>

<wpt lat="34.01918411254883" lon="132.20733642578125">
 <time>2015-12-06T02:24:46ZZ</time>
 <name><![CDATA[大畑]]></name>
</wpt>

<wpt lat="34.01605987548828" lon="132.20925903320312">
 <time>2015-12-06T02:24:46ZZ</time>
 <name><![CDATA[銭壷山登山口]]></name>
</wpt>

<wpt lat="34.00660705566406" lon="132.20689392089844">
 <time>2015-12-06T02:24:46ZZ</time>
 <name><![CDATA[岡田]]></name>
</wpt>

<wpt lat="34.00295639038086" lon="132.20387268066406">
 <time>2015-12-06T02:24:46ZZ</time>
 <name><![CDATA[平床]]></name>
</wpt>

<wpt lat="34.00104522705078" lon="132.2005157470703">
 <time>2015-12-06T02:24:46ZZ</time>
 <name><![CDATA[平原]]></name>
</wpt>

<wpt lat="33.99754333496094" lon="132.19869995117188">
 <time>2015-12-06T02:24:46ZZ</time>
 <name><![CDATA[舟木公会堂前]]></name>
</wpt>

<wpt lat="33.99283981323242" lon="132.19715881347656">
 <time>2015-12-06T02:24:46ZZ</time>
 <name><![CDATA[舟木]]></name>
</wpt>

<wpt lat="33.943790435791016" lon="132.1876678466797">
 <time>2015-12-06T02:24:46ZZ</time>
 <name><![CDATA[小松港]]></name>
</wpt>

<wpt lat="33.94023132324219" lon="132.19081115722656">
 <time>2015-12-06T02:24:46ZZ</time>
 <name><![CDATA[高専前]]></name>
</wpt>

<wpt lat="33.93708038330078" lon="132.19229125976562">
 <time>2015-12-06T02:24:46ZZ</time>
 <name><![CDATA[大島宮の下]]></name>
</wpt>

<wpt lat="33.93407440185547" lon="132.19308471679688">
 <time>2015-12-06T02:24:46ZZ</time>
 <name><![CDATA[石丸]]></name>
</wpt>

<wpt lat="33.87694549560547" lon="132.21771240234375">
 <time>2015-12-06T02:24:46ZZ</time>
 <name><![CDATA[出井]]></name>
</wpt>

<wpt lat="33.87724304199219" lon="132.23388671875">
 <time>2015-12-06T02:24:46ZZ</time>
 <name><![CDATA[家房]]></name>
</wpt>

<wpt lat="33.87757110595703" lon="132.23768615722656">
 <time>2015-12-06T02:24:46ZZ</time>
 <name><![CDATA[東家房]]></name>
</wpt>

<wpt lat="33.87773895263672" lon="132.2529754638672">
 <time>2015-12-06T02:24:46ZZ</time>
 <name><![CDATA[秋]]></name>
</wpt>

<wpt lat="33.87784194946289" lon="132.2592010498047">
 <time>2015-12-06T02:24:46ZZ</time>
 <name><![CDATA[周防吉浦]]></name>
</wpt>

<wpt lat="33.87928009033203" lon="132.26773071289062">
 <time>2015-12-06T02:24:46ZZ</time>
 <name><![CDATA[周防大泊]]></name>
</wpt>

<wpt lat="33.892372131347656" lon="132.26893615722656">
 <time>2015-12-06T02:24:46ZZ</time>
 <name><![CDATA[西安下庄]]></name>
</wpt>

<wpt lat="33.894744873046875" lon="132.27178955078125">
 <time>2015-12-06T02:24:46ZZ</time>
 <name><![CDATA[安西]]></name>
</wpt>

<wpt lat="33.897071838378906" lon="132.27503967285156">
 <time>2015-12-06T02:24:46ZZ</time>
 <name><![CDATA[安下庄中学校前]]></name>
</wpt>

<wpt lat="34.0570068359375" lon="131.8080291748047">
 <time>2015-12-06T02:24:46ZZ</time>
 <name><![CDATA[図書館前]]></name>
</wpt>

<wpt lat="34.05978775024414" lon="131.80966186523438">
 <time>2015-12-06T02:24:46ZZ</time>
 <name><![CDATA[徳山高校前]]></name>
</wpt>

<wpt lat="34.06039047241211" lon="131.81280517578125">
 <time>2015-12-06T02:24:46ZZ</time>
 <name><![CDATA[動物園文化会館入口]]></name>
</wpt>

<wpt lat="34.063232421875" lon="131.8157501220703">
 <time>2015-12-06T02:24:46ZZ</time>
 <name><![CDATA[動物園北口]]></name>
</wpt>

<wpt lat="34.064476013183594" lon="131.81336975097656">
 <time>2015-12-06T02:24:46ZZ</time>
 <name><![CDATA[金剛山]]></name>
</wpt>

<wpt lat="34.0643196105957" lon="131.81057739257812">
 <time>2015-12-06T02:24:46ZZ</time>
 <name><![CDATA[老人ホーム前]]></name>
</wpt>

<wpt lat="34.064327239990234" lon="131.80697631835938">
 <time>2015-12-06T02:24:46ZZ</time>
 <name><![CDATA[卯の手]]></name>
</wpt>

<wpt lat="34.065364837646484" lon="131.80479431152344">
 <time>2015-12-06T02:24:46ZZ</time>
 <name><![CDATA[浄水場]]></name>
</wpt>

<wpt lat="34.0659294128418" lon="131.80294799804688">
 <time>2015-12-06T02:24:46ZZ</time>
 <name><![CDATA[北山]]></name>
</wpt>

<wpt lat="34.06402587890625" lon="131.80348205566406">
 <time>2015-12-06T02:24:46ZZ</time>
 <name><![CDATA[住吉中前]]></name>
</wpt>

<wpt lat="34.0555419921875" lon="131.82049560546875">
 <time>2015-12-06T02:24:46ZZ</time>
 <name><![CDATA[風呂ヶ迫]]></name>
</wpt>

<wpt lat="34.05596923828125" lon="131.82408142089844">
 <time>2015-12-06T02:24:46ZZ</time>
 <name><![CDATA[扇町県住前]]></name>
</wpt>

<wpt lat="34.05478286743164" lon="131.8260498046875">
 <time>2015-12-06T02:24:46ZZ</time>
 <name><![CDATA[秋月小前]]></name>
</wpt>

<wpt lat="34.05302429199219" lon="131.82888793945312">
 <time>2015-12-06T02:24:46ZZ</time>
 <name><![CDATA[秋月一丁目]]></name>
</wpt>

<wpt lat="34.05274200439453" lon="131.8319091796875">
 <time>2015-12-06T02:24:46ZZ</time>
 <name><![CDATA[江の宮町]]></name>
</wpt>

<wpt lat="34.05042266845703" lon="131.8326873779297">
 <time>2015-12-06T02:24:46ZZ</time>
 <name><![CDATA[瀬戸見町]]></name>
</wpt>

<wpt lat="34.048805236816406" lon="131.834228515625">
 <time>2015-12-06T02:24:46ZZ</time>
 <name><![CDATA[中央病院前]]></name>
</wpt>

<wpt lat="34.04780197143555" lon="131.83619689941406">
 <time>2015-12-06T02:24:46ZZ</time>
 <name><![CDATA[鼓海園前]]></name>
</wpt>

<wpt lat="34.04726028442383" lon="131.8394317626953">
 <time>2015-12-06T02:24:46ZZ</time>
 <name><![CDATA[城ヶ丘一丁目]]></name>
</wpt>

<wpt lat="34.04728317260742" lon="131.8427276611328">
 <time>2015-12-06T02:24:46ZZ</time>
 <name><![CDATA[大学高専下]]></name>
</wpt>

<wpt lat="34.044254302978516" lon="131.84303283691406">
 <time>2015-12-06T02:24:46ZZ</time>
 <name><![CDATA[城ヶ丘四丁目]]></name>
</wpt>

<wpt lat="34.04181671142578" lon="131.84671020507812">
 <time>2015-12-06T02:24:46ZZ</time>
 <name><![CDATA[久米温泉口]]></name>
</wpt>

<wpt lat="34.04075622558594" lon="131.84840393066406">
 <time>2015-12-06T02:24:46ZZ</time>
 <name><![CDATA[坂本橋]]></name>
</wpt>

<wpt lat="34.04154586791992" lon="131.8497772216797">
 <time>2015-12-06T02:24:46ZZ</time>
 <name><![CDATA[ひばりヶ丘下]]></name>
</wpt>

<wpt lat="34.042449951171875" lon="131.85073852539062">
 <time>2015-12-06T02:24:46ZZ</time>
 <name><![CDATA[ひばりヶ丘]]></name>
</wpt>

<wpt lat="34.04216384887695" lon="131.85194396972656">
 <time>2015-12-06T02:24:46ZZ</time>
 <name><![CDATA[ひばりヶ丘中]]></name>
</wpt>

<wpt lat="34.036155700683594" lon="131.82859802246094">
 <time>2015-12-06T02:24:46ZZ</time>
 <name><![CDATA[横浜]]></name>
</wpt>

<wpt lat="34.03488540649414" lon="131.83396911621094">
 <time>2015-12-06T02:24:46ZZ</time>
 <name><![CDATA[太華中前]]></name>
</wpt>

<wpt lat="34.033321380615234" lon="131.83596801757812">
 <time>2015-12-06T02:24:46ZZ</time>
 <name><![CDATA[久米]]></name>
</wpt>

<wpt lat="34.033573150634766" lon="131.83819580078125">
 <time>2015-12-06T02:24:46ZZ</time>
 <name><![CDATA[市道久米]]></name>
</wpt>

<wpt lat="34.033851623535156" lon="131.84112548828125">
 <time>2015-12-06T02:24:46ZZ</time>
 <name><![CDATA[中道]]></name>
</wpt>

<wpt lat="34.032291412353516" lon="131.8411865234375">
 <time>2015-12-06T02:24:46ZZ</time>
 <name><![CDATA[西光寺]]></name>
</wpt>

<wpt lat="34.031944274902344" lon="131.84222412109375">
 <time>2015-12-06T02:24:46ZZ</time>
 <name><![CDATA[寺下]]></name>
</wpt>

<wpt lat="34.03257751464844" lon="131.84461975097656">
 <time>2015-12-06T02:24:46ZZ</time>
 <name><![CDATA[旭ヶ丘団地入口]]></name>
</wpt>

<wpt lat="34.03188705444336" lon="131.8455810546875">
 <time>2015-12-06T02:24:46ZZ</time>
 <name><![CDATA[旭ヶ丘団地]]></name>
</wpt>

<wpt lat="34.03066635131836" lon="131.84364318847656">
 <time>2015-12-06T02:24:46ZZ</time>
 <name><![CDATA[旭ヶ丘団地中]]></name>
</wpt>

<wpt lat="34.03190231323242" lon="131.84390258789062">
 <time>2015-12-06T02:24:46ZZ</time>
 <name><![CDATA[旭ヶ丘団地下]]></name>
</wpt>

<wpt lat="34.047828674316406" lon="131.80796813964844">
 <time>2015-12-06T02:24:46ZZ</time>
 <name><![CDATA[糀町]]></name>
</wpt>

<wpt lat="34.046775817871094" lon="131.80960083007812">
 <time>2015-12-06T02:24:46ZZ</time>
 <name><![CDATA[揚柳橋]]></name>
</wpt>

<wpt lat="34.04582214355469" lon="131.81130981445312">
 <time>2015-12-06T02:24:46ZZ</time>
 <name><![CDATA[速玉町]]></name>
</wpt>

<wpt lat="34.04478073120117" lon="131.81309509277344">
 <time>2015-12-06T02:24:46ZZ</time>
 <name><![CDATA[松保町]]></name>
</wpt>

<wpt lat="34.04401779174805" lon="131.81459045410156">
 <time>2015-12-06T02:24:46ZZ</time>
 <name><![CDATA[松保町東]]></name>
</wpt>

<wpt lat="34.03835678100586" lon="131.8278350830078">
 <time>2015-12-06T02:24:46ZZ</time>
 <name><![CDATA[五月町]]></name>
</wpt>

<wpt lat="34.03976821899414" lon="131.82913208007812">
 <time>2015-12-06T02:24:46ZZ</time>
 <name><![CDATA[緑ヶ丘運動公園前]]></name>
</wpt>

<wpt lat="34.04407501220703" lon="131.82835388183594">
 <time>2015-12-06T02:24:46ZZ</time>
 <name><![CDATA[球場前]]></name>
</wpt>

<wpt lat="34.04358673095703" lon="131.83160400390625">
 <time>2015-12-06T02:24:46ZZ</time>
 <name><![CDATA[自動車学校前]]></name>
</wpt>

<wpt lat="34.04574966430664" lon="131.83502197265625">
 <time>2015-12-06T02:24:46ZZ</time>
 <name><![CDATA[周陽二丁目]]></name>
</wpt>

<wpt lat="34.04713821411133" lon="131.83302307128906">
 <time>2015-12-06T02:24:46ZZ</time>
 <name><![CDATA[周陽町中央病院入口]]></name>
</wpt>

<wpt lat="34.05106735229492" lon="131.82733154296875">
 <time>2015-12-06T02:24:46ZZ</time>
 <name><![CDATA[大河内]]></name>
</wpt>

<wpt lat="34.04949951171875" lon="131.8264923095703">
 <time>2015-12-06T02:24:46ZZ</time>
 <name><![CDATA[大内町]]></name>
</wpt>

<wpt lat="34.04232406616211" lon="131.8221893310547">
 <time>2015-12-06T02:24:46ZZ</time>
 <name><![CDATA[遠石]]></name>
</wpt>

<wpt lat="34.05729293823242" lon="131.8018798828125">
 <time>2015-12-06T02:24:46ZZ</time>
 <name><![CDATA[新宿一丁目]]></name>
</wpt>

<wpt lat="34.06159210205078" lon="131.79986572265625">
 <time>2015-12-06T02:24:46ZZ</time>
 <name><![CDATA[新宿三丁目]]></name>
</wpt>

<wpt lat="34.064937591552734" lon="131.79800415039062">
 <time>2015-12-06T02:24:46ZZ</time>
 <name><![CDATA[江口]]></name>
</wpt>

<wpt lat="34.06841278076172" lon="131.7913360595703">
 <time>2015-12-06T02:24:46ZZ</time>
 <name><![CDATA[浦山]]></name>
</wpt>

<wpt lat="34.06956100463867" lon="131.78353881835938">
 <time>2015-12-06T02:24:46ZZ</time>
 <name><![CDATA[川崎]]></name>
</wpt>

<wpt lat="34.07000732421875" lon="131.77716064453125">
 <time>2015-12-06T02:24:46ZZ</time>
 <name><![CDATA[古川]]></name>
</wpt>

<wpt lat="34.070953369140625" lon="131.77354431152344">
 <time>2015-12-06T02:24:46ZZ</time>
 <name><![CDATA[東高前]]></name>
</wpt>

<wpt lat="34.07170104980469" lon="131.7707061767578">
 <time>2015-12-06T02:24:46ZZ</time>
 <name><![CDATA[新南陽駅通]]></name>
</wpt>

<wpt lat="34.0702018737793" lon="131.76913452148438">
 <time>2015-12-06T02:24:46ZZ</time>
 <name><![CDATA[新南陽駅前]]></name>
</wpt>

<wpt lat="34.07307434082031" lon="131.7703399658203">
 <time>2015-12-06T02:24:46ZZ</time>
 <name><![CDATA[政所]]></name>
</wpt>

<wpt lat="34.07573318481445" lon="131.7717742919922">
 <time>2015-12-06T02:24:46ZZ</time>
 <name><![CDATA[風車通り]]></name>
</wpt>

<wpt lat="34.079158782958984" lon="131.77296447753906">
 <time>2015-12-06T02:24:46ZZ</time>
 <name><![CDATA[土井橋]]></name>
</wpt>

<wpt lat="34.080631256103516" lon="131.77426147460938">
 <time>2015-12-06T02:24:46ZZ</time>
 <name><![CDATA[土井]]></name>
</wpt>

<wpt lat="34.084468841552734" lon="131.77679443359375">
 <time>2015-12-06T02:24:46ZZ</time>
 <name><![CDATA[横矢]]></name>
</wpt>

<wpt lat="34.088680267333984" lon="131.78167724609375">
 <time>2015-12-06T02:24:46ZZ</time>
 <name><![CDATA[上野]]></name>
</wpt>

<wpt lat="34.09254455566406" lon="131.78390502929688">
 <time>2015-12-06T02:24:46ZZ</time>
 <name><![CDATA[徳善]]></name>
</wpt>

<wpt lat="34.096065521240234" lon="131.78794860839844">
 <time>2015-12-06T02:24:46ZZ</time>
 <name><![CDATA[南野]]></name>
</wpt>

<wpt lat="34.10374069213867" lon="131.81423950195312">
 <time>2015-12-06T02:24:46ZZ</time>
 <name><![CDATA[川曲（矢櫃）]]></name>
</wpt>

<wpt lat="34.12698745727539" lon="131.7702178955078">
 <time>2015-12-06T02:24:46ZZ</time>
 <name><![CDATA[四熊中野]]></name>
</wpt>

<wpt lat="34.100242614746094" lon="131.7918243408203">
 <time>2015-12-06T02:24:46ZZ</time>
 <name><![CDATA[保安寺前]]></name>
</wpt>

<wpt lat="34.10383224487305" lon="131.79331970214844">
 <time>2015-12-06T02:24:46ZZ</time>
 <name><![CDATA[間上]]></name>
</wpt>

<wpt lat="34.14735412597656" lon="131.7978057861328">
 <time>2015-12-06T02:24:46ZZ</time>
 <name><![CDATA[横川]]></name>
</wpt>

<wpt lat="34.13929748535156" lon="131.80987548828125">
 <time>2015-12-06T02:24:46ZZ</time>
 <name><![CDATA[鹿野]]></name>
</wpt>

<wpt lat="34.08009338378906" lon="131.7684783935547">
 <time>2015-12-06T02:24:46ZZ</time>
 <name><![CDATA[新南陽高校前]]></name>
</wpt>

<wpt lat="34.08308029174805" lon="131.7661895751953">
 <time>2015-12-06T02:24:46ZZ</time>
 <name><![CDATA[東大神]]></name>
</wpt>

<wpt lat="34.08518981933594" lon="131.76585388183594">
 <time>2015-12-06T02:24:46ZZ</time>
 <name><![CDATA[大神]]></name>
</wpt>

<wpt lat="34.08781051635742" lon="131.7619171142578">
 <time>2015-12-06T02:24:46ZZ</time>
 <name><![CDATA[小庄下]]></name>
</wpt>

<wpt lat="34.08946990966797" lon="131.7562713623047">
 <time>2015-12-06T02:24:46ZZ</time>
 <name><![CDATA[小畑小前]]></name>
</wpt>

<wpt lat="34.09016036987305" lon="131.7549285888672">
 <time>2015-12-06T02:24:46ZZ</time>
 <name><![CDATA[広谷口]]></name>
</wpt>

<wpt lat="34.093223571777344" lon="131.75132751464844">
 <time>2015-12-06T02:24:46ZZ</time>
 <name><![CDATA[小畑]]></name>
</wpt>

<wpt lat="34.09552001953125" lon="131.7460174560547">
 <time>2015-12-06T02:24:46ZZ</time>
 <name><![CDATA[奥小畑]]></name>
</wpt>

<wpt lat="34.123199462890625" lon="131.7350311279297">
 <time>2015-12-06T02:24:46ZZ</time>
 <name><![CDATA[大谷公民館]]></name>
</wpt>

<wpt lat="34.138671875" lon="131.72923278808594">
 <time>2015-12-06T02:24:46ZZ</time>
 <name><![CDATA[米光]]></name>
</wpt>

<wpt lat="34.13785171508789" lon="131.72293090820312">
 <time>2015-12-06T02:24:46ZZ</time>
 <name><![CDATA[福寿荘前]]></name>
</wpt>

<wpt lat="34.13691329956055" lon="131.71978759765625">
 <time>2015-12-06T02:24:46ZZ</time>
 <name><![CDATA[上村]]></name>
</wpt>

<wpt lat="34.1917724609375" lon="131.6607666015625">
 <time>2015-12-06T02:24:46ZZ</time>
 <name><![CDATA[堀]]></name>
</wpt>

<wpt lat="34.07186508178711" lon="131.76687622070312">
 <time>2015-12-06T02:24:46ZZ</time>
 <name><![CDATA[新南陽市民病院前]]></name>
</wpt>

<wpt lat="34.071815490722656" lon="131.76339721679688">
 <time>2015-12-06T02:24:46ZZ</time>
 <name><![CDATA[富田中前]]></name>
</wpt>

<wpt lat="34.07185363769531" lon="131.75926208496094">
 <time>2015-12-06T02:24:46ZZ</time>
 <name><![CDATA[新町口]]></name>
</wpt>

<wpt lat="34.072540283203125" lon="131.755615234375">
 <time>2015-12-06T02:24:46ZZ</time>
 <name><![CDATA[横町]]></name>
</wpt>

<wpt lat="34.072818756103516" lon="131.753173828125">
 <time>2015-12-06T02:24:46ZZ</time>
 <name><![CDATA[平野]]></name>
</wpt>

<wpt lat="34.07229995727539" lon="131.74972534179688">
 <time>2015-12-06T02:24:46ZZ</time>
 <name><![CDATA[新南陽総合支所前]]></name>
</wpt>

<wpt lat="34.07251739501953" lon="131.7423095703125">
 <time>2015-12-06T02:24:46ZZ</time>
 <name><![CDATA[温田]]></name>
</wpt>

<wpt lat="34.07247543334961" lon="131.73858642578125">
 <time>2015-12-06T02:24:46ZZ</time>
 <name><![CDATA[福川駅前]]></name>
</wpt>

<wpt lat="34.07258605957031" lon="131.73333740234375">
 <time>2015-12-06T02:24:46ZZ</time>
 <name><![CDATA[新地口]]></name>
</wpt>

<wpt lat="34.07341003417969" lon="131.7310791015625">
 <time>2015-12-06T02:24:46ZZ</time>
 <name><![CDATA[西町]]></name>
</wpt>

<wpt lat="34.07584762573242" lon="131.72711181640625">
 <time>2015-12-06T02:24:46ZZ</time>
 <name><![CDATA[福川中前]]></name>
</wpt>

<wpt lat="34.07999038696289" lon="131.7178192138672">
 <time>2015-12-06T02:24:46ZZ</time>
 <name><![CDATA[夜市口]]></name>
</wpt>

<wpt lat="34.07990264892578" lon="131.71046447753906">
 <time>2015-12-06T02:24:46ZZ</time>
 <name><![CDATA[夜市いちや前]]></name>
</wpt>

<wpt lat="34.076576232910156" lon="131.70632934570312">
 <time>2015-12-06T02:24:46ZZ</time>
 <name><![CDATA[夜市下市]]></name>
</wpt>

<wpt lat="34.06942367553711" lon="131.70091247558594">
 <time>2015-12-06T02:24:46ZZ</time>
 <name><![CDATA[友広]]></name>
</wpt>

<wpt lat="34.07057189941406" lon="131.69517517089844">
 <time>2015-12-06T02:24:46ZZ</time>
 <name><![CDATA[下戸田]]></name>
</wpt>

<wpt lat="34.0726432800293" lon="131.69259643554688">
 <time>2015-12-06T02:24:46ZZ</time>
 <name><![CDATA[中河原]]></name>
</wpt>

<wpt lat="34.07638168334961" lon="131.68482971191406">
 <time>2015-12-06T02:24:46ZZ</time>
 <name><![CDATA[湯野温泉口]]></name>
</wpt>

<wpt lat="34.07193374633789" lon="131.6752471923828">
 <time>2015-12-06T02:24:46ZZ</time>
 <name><![CDATA[荅谷入口]]></name>
</wpt>

<wpt lat="34.067344665527344" lon="131.664794921875">
 <time>2015-12-06T02:24:46ZZ</time>
 <name><![CDATA[椿峠]]></name>
</wpt>

<wpt lat="34.058624267578125" lon="131.6572265625">
 <time>2015-12-06T02:24:46ZZ</time>
 <name><![CDATA[戸田山入口]]></name>
</wpt>

<wpt lat="34.0534553527832" lon="131.64915466308594">
 <time>2015-12-06T02:24:46ZZ</time>
 <name><![CDATA[円通寺]]></name>
</wpt>

<wpt lat="34.05126953125" lon="131.6429443359375">
 <time>2015-12-06T02:24:46ZZ</time>
 <name><![CDATA[富海公民館前]]></name>
</wpt>

<wpt lat="34.050193786621094" lon="131.64047241210938">
 <time>2015-12-06T02:24:46ZZ</time>
 <name><![CDATA[富海]]></name>
</wpt>

<wpt lat="34.04125213623047" lon="131.62330627441406">
 <time>2015-12-06T02:24:46ZZ</time>
 <name><![CDATA[末田]]></name>
</wpt>

<wpt lat="34.0396614074707" lon="131.61705017089844">
 <time>2015-12-06T02:24:46ZZ</time>
 <name><![CDATA[堀越入口]]></name>
</wpt>

<wpt lat="34.0419807434082" lon="131.61317443847656">
 <time>2015-12-06T02:24:46ZZ</time>
 <name><![CDATA[大内]]></name>
</wpt>

<wpt lat="34.046878814697266" lon="131.6073455810547">
 <time>2015-12-06T02:24:46ZZ</time>
 <name><![CDATA[沖の原]]></name>
</wpt>

<wpt lat="34.04907989501953" lon="131.60430908203125">
 <time>2015-12-06T02:24:46ZZ</time>
 <name><![CDATA[牟礼]]></name>
</wpt>

<wpt lat="34.053375244140625" lon="131.59681701660156">
 <time>2015-12-06T02:24:46ZZ</time>
 <name><![CDATA[岸津]]></name>
</wpt>

<wpt lat="34.0551643371582" lon="131.59213256835938">
 <time>2015-12-06T02:24:46ZZ</time>
 <name><![CDATA[国府中前]]></name>
</wpt>

<wpt lat="34.0555534362793" lon="131.5866241455078">
 <time>2015-12-06T02:24:46ZZ</time>
 <name><![CDATA[国衙]]></name>
</wpt>

<wpt lat="34.05616760253906" lon="131.5768585205078">
 <time>2015-12-06T02:24:46ZZ</time>
 <name><![CDATA[国庁通]]></name>
</wpt>

<wpt lat="34.05413818359375" lon="131.57412719726562">
 <time>2015-12-06T02:24:46ZZ</time>
 <name><![CDATA[新天地]]></name>
</wpt>

<wpt lat="34.08274459838867" lon="131.7146453857422">
 <time>2015-12-06T02:24:46ZZ</time>
 <name><![CDATA[宮ノ下]]></name>
</wpt>

<wpt lat="34.08609390258789" lon="131.71400451660156">
 <time>2015-12-06T02:24:46ZZ</time>
 <name><![CDATA[桑畑]]></name>
</wpt>

<wpt lat="34.09340286254883" lon="131.71360778808594">
 <time>2015-12-06T02:24:46ZZ</time>
 <name><![CDATA[下才原]]></name>
</wpt>

<wpt lat="34.096221923828125" lon="131.7151641845703">
 <time>2015-12-06T02:24:46ZZ</time>
 <name><![CDATA[才原]]></name>
</wpt>

<wpt lat="34.10480880737305" lon="131.71653747558594">
 <time>2015-12-06T02:24:46ZZ</time>
 <name><![CDATA[夜市下畑]]></name>
</wpt>

<wpt lat="34.106319427490234" lon="131.71458435058594">
 <time>2015-12-06T02:24:46ZZ</time>
 <name><![CDATA[上畑]]></name>
</wpt>

<wpt lat="34.11741638183594" lon="131.71234130859375">
 <time>2015-12-06T02:24:46ZZ</time>
 <name><![CDATA[下広沢]]></name>
</wpt>

<wpt lat="34.1198616027832" lon="131.7140655517578">
 <time>2015-12-06T02:24:46ZZ</time>
 <name><![CDATA[広沢]]></name>
</wpt>

<wpt lat="34.124603271484375" lon="131.7152862548828">
 <time>2015-12-06T02:24:46ZZ</time>
 <name><![CDATA[馬神出合]]></name>
</wpt>

<wpt lat="34.12702560424805" lon="131.72068786621094">
 <time>2015-12-06T02:24:46ZZ</time>
 <name><![CDATA[十郎]]></name>
</wpt>

<wpt lat="34.13177490234375" lon="131.7211151123047">
 <time>2015-12-06T02:24:46ZZ</time>
 <name><![CDATA[平木]]></name>
</wpt>

<wpt lat="34.149070739746094" lon="131.7354278564453">
 <time>2015-12-06T02:24:46ZZ</time>
 <name><![CDATA[和田]]></name>
</wpt>

<wpt lat="34.17021179199219" lon="131.7538604736328">
 <time>2015-12-06T02:24:46ZZ</time>
 <name><![CDATA[高瀬]]></name>
</wpt>

<wpt lat="34.09270477294922" lon="131.67605590820312">
 <time>2015-12-06T02:24:46ZZ</time>
 <name><![CDATA[湯野温泉]]></name>
</wpt>

<wpt lat="34.06391906738281" lon="131.76316833496094">
 <time>2015-12-06T02:24:46ZZ</time>
 <name><![CDATA[東ソー前]]></name>
</wpt>

<wpt lat="34.053001403808594" lon="131.7994384765625">
 <time>2015-12-06T02:24:46ZZ</time>
 <name><![CDATA[港通り]]></name>
</wpt>

<wpt lat="34.0547981262207" lon="131.798583984375">
 <time>2015-12-06T02:24:46ZZ</time>
 <name><![CDATA[熊野神社前]]></name>
</wpt>

<wpt lat="34.05775451660156" lon="131.7978057861328">
 <time>2015-12-06T02:24:46ZZ</time>
 <name><![CDATA[自得寺前]]></name>
</wpt>

<wpt lat="34.061527252197266" lon="131.79649353027344">
 <time>2015-12-06T02:24:46ZZ</time>
 <name><![CDATA[トクヤマ通用門]]></name>
</wpt>

<wpt lat="34.062347412109375" lon="131.7936553955078">
 <time>2015-12-06T02:24:46ZZ</time>
 <name><![CDATA[トクヤマ正門]]></name>
</wpt>

<wpt lat="34.062931060791016" lon="131.78994750976562">
 <time>2015-12-06T02:24:46ZZ</time>
 <name><![CDATA[トクヤマ西門]]></name>
</wpt>

<wpt lat="34.06329345703125" lon="131.7869415283203">
 <time>2015-12-06T02:24:46ZZ</time>
 <name><![CDATA[新開橋]]></name>
</wpt>

<wpt lat="34.06355285644531" lon="131.7836151123047">
 <time>2015-12-06T02:24:46ZZ</time>
 <name><![CDATA[道源開作]]></name>
</wpt>

<wpt lat="34.06512451171875" lon="131.77947998046875">
 <time>2015-12-06T02:24:46ZZ</time>
 <name><![CDATA[南陽青果市場入口]]></name>
</wpt>

<wpt lat="34.066036224365234" lon="131.7764434814453">
 <time>2015-12-06T02:24:46ZZ</time>
 <name><![CDATA[東野村開作]]></name>
</wpt>

<wpt lat="34.06269454956055" lon="131.77645874023438">
 <time>2015-12-06T02:24:46ZZ</time>
 <name><![CDATA[周南工場]]></name>
</wpt>

<wpt lat="34.06678771972656" lon="131.77503967285156">
 <time>2015-12-06T02:24:46ZZ</time>
 <name><![CDATA[花園町]]></name>
</wpt>

<wpt lat="34.06710433959961" lon="131.7706756591797">
 <time>2015-12-06T02:24:46ZZ</time>
 <name><![CDATA[古泉二丁目]]></name>
</wpt>

<wpt lat="34.06731414794922" lon="131.76596069335938">
 <time>2015-12-06T02:24:46ZZ</time>
 <name><![CDATA[古泉一丁目]]></name>
</wpt>

<wpt lat="34.06863021850586" lon="131.76254272460938">
 <time>2015-12-06T02:24:46ZZ</time>
 <name><![CDATA[東ソー入口]]></name>
</wpt>

<wpt lat="34.0704231262207" lon="131.75611877441406">
 <time>2015-12-06T02:24:46ZZ</time>
 <name><![CDATA[浜田]]></name>
</wpt>

<wpt lat="34.0710334777832" lon="131.75221252441406">
 <time>2015-12-06T02:24:46ZZ</time>
 <name><![CDATA[平野港前]]></name>
</wpt>

<wpt lat="34.07124710083008" lon="131.7469940185547">
 <time>2015-12-06T02:24:46ZZ</time>
 <name><![CDATA[鉄工団地入口]]></name>
</wpt>

<wpt lat="34.071624755859375" lon="131.73861694335938">
 <time>2015-12-06T02:24:46ZZ</time>
 <name><![CDATA[ふれあいセンター前]]></name>
</wpt>

<wpt lat="34.071258544921875" lon="131.73439025878906">
 <time>2015-12-06T02:24:46ZZ</time>
 <name><![CDATA[新地町]]></name>
</wpt>

<wpt lat="34.06375503540039" lon="131.7308349609375">
 <time>2015-12-06T02:24:46ZZ</time>
 <name><![CDATA[室尾二丁目]]></name>
</wpt>

<wpt lat="34.06282424926758" lon="131.7259979248047">
 <time>2015-12-06T02:24:46ZZ</time>
 <name><![CDATA[長田町]]></name>
</wpt>

<wpt lat="34.06165313720703" lon="131.72299194335938">
 <time>2015-12-06T02:24:46ZZ</time>
 <name><![CDATA[長田海浜公園]]></name>
</wpt>

<wpt lat="34.0706672668457" lon="131.72994995117188">
 <time>2015-12-06T02:24:46ZZ</time>
 <name><![CDATA[常盤橋]]></name>
</wpt>

<wpt lat="34.073116302490234" lon="131.72857666015625">
 <time>2015-12-06T02:24:46ZZ</time>
 <name><![CDATA[御姫橋]]></name>
</wpt>

<wpt lat="34.07514953613281" lon="131.72161865234375">
 <time>2015-12-06T02:24:46ZZ</time>
 <name><![CDATA[羽鳥口]]></name>
</wpt>

<wpt lat="34.07627487182617" lon="131.72238159179688">
 <time>2015-12-06T02:24:46ZZ</time>
 <name><![CDATA[瀬ノ上]]></name>
</wpt>

<wpt lat="34.077049255371094" lon="131.73390197753906">
 <time>2015-12-06T02:24:46ZZ</time>
 <name><![CDATA[上迫]]></name>
</wpt>

<wpt lat="34.07650375366211" lon="131.73692321777344">
 <time>2015-12-06T02:24:46ZZ</time>
 <name><![CDATA[福川駅入口]]></name>
</wpt>

<wpt lat="34.0742073059082" lon="131.7455291748047">
 <time>2015-12-06T02:24:46ZZ</time>
 <name><![CDATA[商工前]]></name>
</wpt>

<wpt lat="34.076995849609375" lon="131.7598876953125">
 <time>2015-12-06T02:24:46ZZ</time>
 <name><![CDATA[中溝]]></name>
</wpt>

<wpt lat="34.0773811340332" lon="131.7630615234375">
 <time>2015-12-06T02:24:46ZZ</time>
 <name><![CDATA[大神南]]></name>
</wpt>

<wpt lat="34.074676513671875" lon="131.7782440185547">
 <time>2015-12-06T02:24:46ZZ</time>
 <name><![CDATA[川崎観音前]]></name>
</wpt>

<wpt lat="34.070091247558594" lon="131.79244995117188">
 <time>2015-12-06T02:24:46ZZ</time>
 <name><![CDATA[浦山北]]></name>
</wpt>

<wpt lat="34.06624984741211" lon="131.79898071289062">
 <time>2015-12-06T02:24:46ZZ</time>
 <name><![CDATA[新宿六丁目]]></name>
</wpt>

<wpt lat="34.0627555847168" lon="131.8070068359375">
 <time>2015-12-06T02:24:46ZZ</time>
 <name><![CDATA[職安前]]></name>
</wpt>

<wpt lat="34.04364776611328" lon="131.83782958984375">
 <time>2015-12-06T02:24:46ZZ</time>
 <name><![CDATA[馬屋]]></name>
</wpt>

<wpt lat="34.03997802734375" lon="131.84326171875">
 <time>2015-12-06T02:24:46ZZ</time>
 <name><![CDATA[秋本]]></name>
</wpt>

<wpt lat="34.03852844238281" lon="131.8457489013672">
 <time>2015-12-06T02:24:46ZZ</time>
 <name><![CDATA[鼓ヶ浦学園前]]></name>
</wpt>

<wpt lat="34.03596496582031" lon="131.85049438476562">
 <time>2015-12-06T02:24:46ZZ</time>
 <name><![CDATA[坂本入口]]></name>
</wpt>

<wpt lat="34.030975341796875" lon="131.86334228515625">
 <time>2015-12-06T02:24:46ZZ</time>
 <name><![CDATA[東中村]]></name>
</wpt>

<wpt lat="34.0259895324707" lon="131.8609161376953">
 <time>2015-12-06T02:24:46ZZ</time>
 <name><![CDATA[末武大通上]]></name>
</wpt>

<wpt lat="34.02333068847656" lon="131.85850524902344">
 <time>2015-12-06T02:24:46ZZ</time>
 <name><![CDATA[末武大通中]]></name>
</wpt>

<wpt lat="34.02107238769531" lon="131.8607635498047">
 <time>2015-12-06T02:24:46ZZ</time>
 <name><![CDATA[平田]]></name>
</wpt>

<wpt lat="34.01921463012695" lon="131.86373901367188">
 <time>2015-12-06T02:24:46ZZ</time>
 <name><![CDATA[下松タウンセンター前]]></name>
</wpt>

<wpt lat="34.017913818359375" lon="131.86578369140625">
 <time>2015-12-06T02:24:46ZZ</time>
 <name><![CDATA[東光寺]]></name>
</wpt>

<wpt lat="34.01488494873047" lon="131.86859130859375">
 <time>2015-12-06T02:24:46ZZ</time>
 <name><![CDATA[下松市役所前]]></name>
</wpt>

<wpt lat="34.011573791503906" lon="131.87042236328125">
 <time>2015-12-06T02:24:46ZZ</time>
 <name><![CDATA[下松小前]]></name>
</wpt>

<wpt lat="34.00936508178711" lon="131.8682098388672">
 <time>2015-12-06T02:24:46ZZ</time>
 <name><![CDATA[下松駅北口]]></name>
</wpt>

<wpt lat="34.032649993896484" lon="131.86886596679688">
 <time>2015-12-06T02:24:46ZZ</time>
 <name><![CDATA[花岡]]></name>
</wpt>

<wpt lat="34.0322265625" lon="131.8766326904297">
 <time>2015-12-06T02:24:46ZZ</time>
 <name><![CDATA[周南記念病院]]></name>
</wpt>

<wpt lat="34.03464126586914" lon="131.87806701660156">
 <time>2015-12-06T02:24:46ZZ</time>
 <name><![CDATA[ふくしの里入口]]></name>
</wpt>

<wpt lat="34.03477478027344" lon="131.8860321044922">
 <time>2015-12-06T02:24:46ZZ</time>
 <name><![CDATA[生野屋]]></name>
</wpt>

<wpt lat="34.032291412353516" lon="131.89833068847656">
 <time>2015-12-06T02:24:46ZZ</time>
 <name><![CDATA[久保中前]]></name>
</wpt>

<wpt lat="34.03056335449219" lon="131.90335083007812">
 <time>2015-12-06T02:24:46ZZ</time>
 <name><![CDATA[上久保市]]></name>
</wpt>

<wpt lat="34.03118133544922" lon="131.9091339111328">
 <time>2015-12-06T02:24:46ZZ</time>
 <name><![CDATA[久保市]]></name>
</wpt>

<wpt lat="34.02887725830078" lon="131.91346740722656">
 <time>2015-12-06T02:24:46ZZ</time>
 <name><![CDATA[二の瀬]]></name>
</wpt>

<wpt lat="34.029544830322266" lon="131.9188995361328">
 <time>2015-12-06T02:24:46ZZ</time>
 <name><![CDATA[久保駅前]]></name>
</wpt>

<wpt lat="34.03199768066406" lon="131.9262237548828">
 <time>2015-12-06T02:24:46ZZ</time>
 <name><![CDATA[峠市]]></name>
</wpt>

<wpt lat="34.03092575073242" lon="131.9319305419922">
 <time>2015-12-06T02:24:46ZZ</time>
 <name><![CDATA[峠]]></name>
</wpt>

<wpt lat="34.03042984008789" lon="131.93408203125">
 <time>2015-12-06T02:24:46ZZ</time>
 <name><![CDATA[大河内駅前]]></name>
</wpt>

<wpt lat="34.02853775024414" lon="131.94131469726562">
 <time>2015-12-06T02:24:46ZZ</time>
 <name><![CDATA[大河内小入口]]></name>
</wpt>

<wpt lat="34.029781341552734" lon="131.95057678222656">
 <time>2015-12-06T02:24:46ZZ</time>
 <name><![CDATA[上笠野]]></name>
</wpt>

<wpt lat="34.025047302246094" lon="131.9592742919922">
 <time>2015-12-06T02:24:46ZZ</time>
 <name><![CDATA[中笠野]]></name>
</wpt>

<wpt lat="34.02052688598633" lon="131.9786834716797">
 <time>2015-12-06T02:24:46ZZ</time>
 <name><![CDATA[小周防]]></name>
</wpt>

<wpt lat="34.026729583740234" lon="131.9850311279297">
 <time>2015-12-06T02:24:46ZZ</time>
 <name><![CDATA[下和田]]></name>
</wpt>

<wpt lat="34.029510498046875" lon="131.98712158203125">
 <time>2015-12-06T02:24:46ZZ</time>
 <name><![CDATA[和田]]></name>
</wpt>

<wpt lat="34.03388977050781" lon="131.99159240722656">
 <time>2015-12-06T02:24:46ZZ</time>
 <name><![CDATA[三丘温泉]]></name>
</wpt>

<wpt lat="34.03740310668945" lon="131.99435424804688">
 <time>2015-12-06T02:24:46ZZ</time>
 <name><![CDATA[十楽]]></name>
</wpt>

<wpt lat="34.04045867919922" lon="131.99610900878906">
 <time>2015-12-06T02:24:46ZZ</time>
 <name><![CDATA[小深]]></name>
</wpt>

<wpt lat="34.044246673583984" lon="131.99777221679688">
 <time>2015-12-06T02:24:46ZZ</time>
 <name><![CDATA[兼清]]></name>
</wpt>

<wpt lat="34.04267501831055" lon="131.8709259033203">
 <time>2015-12-06T02:24:46ZZ</time>
 <name><![CDATA[上地上]]></name>
</wpt>

<wpt lat="34.04241943359375" lon="131.87535095214844">
 <time>2015-12-06T02:24:46ZZ</time>
 <name><![CDATA[華陵高校]]></name>
</wpt>

<wpt lat="34.04182815551758" lon="131.8702392578125">
 <time>2015-12-06T02:24:46ZZ</time>
 <name><![CDATA[上地]]></name>
</wpt>

<wpt lat="34.03693771362305" lon="131.87123107910156">
 <time>2015-12-06T02:24:46ZZ</time>
 <name><![CDATA[宮の前]]></name>
</wpt>

<wpt lat="34.03664779663086" lon="131.8743896484375">
 <time>2015-12-06T02:24:46ZZ</time>
 <name><![CDATA[支所前]]></name>
</wpt>

<wpt lat="34.03624725341797" lon="131.8777313232422">
 <time>2015-12-06T02:24:46ZZ</time>
 <name><![CDATA[時宗]]></name>
</wpt>

<wpt lat="34.03583526611328" lon="131.8837127685547">
 <time>2015-12-06T02:24:46ZZ</time>
 <name><![CDATA[生野屋西]]></name>
</wpt>

<wpt lat="34.03605651855469" lon="131.88787841796875">
 <time>2015-12-06T02:24:46ZZ</time>
 <name><![CDATA[生野屋]]></name>
</wpt>

<wpt lat="34.03522491455078" lon="131.89569091796875">
 <time>2015-12-06T02:24:46ZZ</time>
 <name><![CDATA[西条]]></name>
</wpt>

<wpt lat="34.03290557861328" lon="131.90228271484375">
 <time>2015-12-06T02:24:46ZZ</time>
 <name><![CDATA[北河内]]></name>
</wpt>

<wpt lat="34.03452682495117" lon="131.90452575683594">
 <time>2015-12-06T02:24:46ZZ</time>
 <name><![CDATA[山田口]]></name>
</wpt>

<wpt lat="34.03453826904297" lon="131.9085235595703">
 <time>2015-12-06T02:24:46ZZ</time>
 <name><![CDATA[久保団地二丁目]]></name>
</wpt>

<wpt lat="34.03285217285156" lon="131.913330078125">
 <time>2015-12-06T02:24:46ZZ</time>
 <name><![CDATA[久保団地四丁目]]></name>
</wpt>

<wpt lat="34.03729248046875" lon="131.93675231933594">
 <time>2015-12-06T02:24:46ZZ</time>
 <name><![CDATA[夢ヶ丘団地]]></name>
</wpt>

<wpt lat="34.036739349365234" lon="131.94656372070312">
 <time>2015-12-06T02:24:46ZZ</time>
 <name><![CDATA[遠見]]></name>
</wpt>

<wpt lat="34.038124084472656" lon="131.9488525390625">
 <time>2015-12-06T02:24:46ZZ</time>
 <name><![CDATA[清光台入口]]></name>
</wpt>

<wpt lat="34.04259490966797" lon="131.9532470703125">
 <time>2015-12-06T02:24:46ZZ</time>
 <name><![CDATA[勝間]]></name>
</wpt>

<wpt lat="34.04619216918945" lon="131.95794677734375">
 <time>2015-12-06T02:24:46ZZ</time>
 <name><![CDATA[呼坂大江]]></name>
</wpt>

<wpt lat="34.051658630371094" lon="131.96383666992188">
 <time>2015-12-06T02:24:46ZZ</time>
 <name><![CDATA[呼坂口]]></name>
</wpt>

<wpt lat="34.05473327636719" lon="131.96975708007812">
 <time>2015-12-06T02:24:46ZZ</time>
 <name><![CDATA[西原]]></name>
</wpt>

<wpt lat="34.05234146118164" lon="131.9705810546875">
 <time>2015-12-06T02:24:46ZZ</time>
 <name><![CDATA[原]]></name>
</wpt>

<wpt lat="34.05451583862305" lon="131.9730224609375">
 <time>2015-12-06T02:24:46ZZ</time>
 <name><![CDATA[高水駅前]]></name>
</wpt>

<wpt lat="34.050537109375" lon="131.9761199951172">
 <time>2015-12-06T02:24:46ZZ</time>
 <name><![CDATA[鶴見台団地下]]></name>
</wpt>