<?xml version="1.0" encoding="UTF-8" ?>
<gpx xmlns="http://www.topografix.com/GPX/1/1" version="1.1" creator="osmtracker-android" xmlns:xsi="http://www.w3.org/2001/XMLSchema-instance" xsi:schemaLocation="http://www.topografix.com/GPX/1/1 http://www.topografix.com/GPX/1/1/gpx.xsd ">
<metadata>
<name><![CDATA[バス停 : 長野]]></name>
<desc><![CDATA[国土数値情報に基づく]]></desc>
</metadata>
<wpt lat="36.64500427246094" lon="138.18658447265625">
 <time>2015-12-06T02:24:46ZZ</time>
 <name><![CDATA[千石入口]]></name>
</wpt>

<wpt lat="36.64691162109375" lon="138.18695068359375">
 <time>2015-12-06T02:24:46ZZ</time>
 <name><![CDATA[かるかや山前]]></name>
</wpt>

<wpt lat="36.649478912353516" lon="138.18714904785156">
 <time>2015-12-06T02:24:46ZZ</time>
 <name><![CDATA[昭和通り]]></name>
</wpt>

<wpt lat="36.65172576904297" lon="138.18724060058594">
 <time>2015-12-06T02:24:46ZZ</time>
 <name><![CDATA[セントラルスクゥエア]]></name>
</wpt>

<wpt lat="36.65345001220703" lon="138.1873321533203">
 <time>2015-12-06T02:24:46ZZ</time>
 <name><![CDATA[権堂入口]]></name>
</wpt>

<wpt lat="36.65546417236328" lon="138.18743896484375">
 <time>2015-12-06T02:24:46ZZ</time>
 <name><![CDATA[善光寺入口]]></name>
</wpt>

<wpt lat="36.65621566772461" lon="138.18545532226562">
 <time>2015-12-06T02:24:46ZZ</time>
 <name><![CDATA[大門西]]></name>
</wpt>

<wpt lat="36.656429290771484" lon="138.18316650390625">
 <time>2015-12-06T02:24:46ZZ</time>
 <name><![CDATA[信大教育学部前]]></name>
</wpt>

<wpt lat="36.65578079223633" lon="138.1815185546875">
 <time>2015-12-06T02:24:46ZZ</time>
 <name><![CDATA[合同庁舎前]]></name>
</wpt>

<wpt lat="36.65299987792969" lon="138.18179321289062">
 <time>2015-12-06T02:24:46ZZ</time>
 <name><![CDATA[議員会館前]]></name>
</wpt>

<wpt lat="36.650115966796875" lon="138.18206787109375">
 <time>2015-12-06T02:24:46ZZ</time>
 <name><![CDATA[県庁前]]></name>
</wpt>

<wpt lat="36.647499084472656" lon="138.18202209472656">
 <time>2015-12-06T02:24:46ZZ</time>
 <name><![CDATA[山王小学校前]]></name>
</wpt>

<wpt lat="36.642738342285156" lon="138.1831512451172">
 <time>2015-12-06T02:24:46ZZ</time>
 <name><![CDATA[ギャラリー82前]]></name>
</wpt>

<wpt lat="36.6451416015625" lon="138.18943786621094">
 <time>2015-12-06T02:24:46ZZ</time>
 <name><![CDATA[東急シェルシェ前]]></name>
</wpt>

<wpt lat="36.647823333740234" lon="138.19100952148438">
 <time>2015-12-06T02:24:46ZZ</time>
 <name><![CDATA[南千歳町]]></name>
</wpt>

<wpt lat="36.65011978149414" lon="138.19175720214844">
 <time>2015-12-06T02:24:46ZZ</time>
 <name><![CDATA[市役所入口]]></name>
</wpt>

<wpt lat="36.6531867980957" lon="138.19195556640625">
 <time>2015-12-06T02:24:46ZZ</time>
 <name><![CDATA[権堂]]></name>
</wpt>

<wpt lat="36.6555061340332" lon="138.19046020507812">
 <time>2015-12-06T02:24:46ZZ</time>
 <name><![CDATA[三輪田町西]]></name>
</wpt>

<wpt lat="36.65609359741211" lon="138.1874542236328">
 <time>2015-12-06T02:24:46ZZ</time>
 <name><![CDATA[善光寺大門]]></name>
</wpt>

<wpt lat="36.62733840942383" lon="138.19290161132812">
 <time>2015-12-06T02:24:46ZZ</time>
 <name><![CDATA[水野美術館南]]></name>
</wpt>

<wpt lat="36.62791442871094" lon="138.19381713867188">
 <time>2015-12-06T02:24:46ZZ</time>
 <name><![CDATA[水野美術館前]]></name>
</wpt>

<wpt lat="36.62895965576172" lon="138.1957550048828">
 <time>2015-12-06T02:24:46ZZ</time>
 <name><![CDATA[ビッグハット]]></name>
</wpt>

<wpt lat="36.63072204589844" lon="138.19723510742188">
 <time>2015-12-06T02:24:46ZZ</time>
 <name><![CDATA[ビッグハット東]]></name>
</wpt>

<wpt lat="36.63194274902344" lon="138.19247436523438">
 <time>2015-12-06T02:24:46ZZ</time>
 <name><![CDATA[芹田公民館前]]></name>
</wpt>

<wpt lat="36.63194274902344" lon="138.1888427734375">
 <time>2015-12-06T02:24:46ZZ</time>
 <name><![CDATA[県民文化会館南口]]></name>
</wpt>

<wpt lat="36.62961959838867" lon="138.18312072753906">
 <time>2015-12-06T02:24:46ZZ</time>
 <name><![CDATA[荒木]]></name>
</wpt>

<wpt lat="36.61763000488281" lon="138.18121337890625">
 <time>2015-12-06T02:24:46ZZ</time>
 <name><![CDATA[丹波島橋南]]></name>
</wpt>

<wpt lat="36.61042785644531" lon="138.17958068847656">
 <time>2015-12-06T02:24:46ZZ</time>
 <name><![CDATA[下氷鉋]]></name>
</wpt>

<wpt lat="36.609771728515625" lon="138.1866455078125">
 <time>2015-12-06T02:24:46ZZ</time>
 <name><![CDATA[北島]]></name>
</wpt>

<wpt lat="36.60765075683594" lon="138.18861389160156">
 <time>2015-12-06T02:24:46ZZ</time>
 <name><![CDATA[大塚新町]]></name>
</wpt>

<wpt lat="36.60631561279297" lon="138.18930053710938">
 <time>2015-12-06T02:24:46ZZ</time>
 <name><![CDATA[新町南]]></name>
</wpt>

<wpt lat="36.60418701171875" lon="138.19056701660156">
 <time>2015-12-06T02:24:46ZZ</time>
 <name><![CDATA[更北中学校西]]></name>
</wpt>

<wpt lat="36.603973388671875" lon="138.19338989257812">
 <time>2015-12-06T02:24:46ZZ</time>
 <name><![CDATA[更北中学校東]]></name>
</wpt>

<wpt lat="36.606475830078125" lon="138.1944580078125">
 <time>2015-12-06T02:24:46ZZ</time>
 <name><![CDATA[長徳寺前]]></name>
</wpt>

<wpt lat="36.609806060791016" lon="138.19287109375">
 <time>2015-12-06T02:24:46ZZ</time>
 <name><![CDATA[久新]]></name>
</wpt>

<wpt lat="36.610530853271484" lon="138.1861572265625">
 <time>2015-12-06T02:24:46ZZ</time>
 <name><![CDATA[更北支所前]]></name>
</wpt>

<wpt lat="36.6129264831543" lon="138.18492126464844">
 <time>2015-12-06T02:24:46ZZ</time>
 <name><![CDATA[青木島小学校前]]></name>
</wpt>

<wpt lat="36.614871978759766" lon="138.18447875976562">
 <time>2015-12-06T02:24:46ZZ</time>
 <name><![CDATA[JA青木島支所前]]></name>
</wpt>

<wpt lat="36.616783142089844" lon="138.18356323242188">
 <time>2015-12-06T02:24:46ZZ</time>
 <name><![CDATA[青木島東]]></name>
</wpt>

<wpt lat="36.669471740722656" lon="138.25514221191406">
 <time>2015-12-06T02:24:46ZZ</time>
 <name><![CDATA[市民病院]]></name>
</wpt>

<wpt lat="36.673492431640625" lon="138.25816345214844">
 <time>2015-12-06T02:24:46ZZ</time>
 <name><![CDATA[富竹の里入口]]></name>
</wpt>

<wpt lat="36.67530059814453" lon="138.25833129882812">
 <time>2015-12-06T02:24:46ZZ</time>
 <name><![CDATA[東北中学校]]></name>
</wpt>

<wpt lat="36.676204681396484" lon="138.2573699951172">
 <time>2015-12-06T02:24:46ZZ</time>
 <name><![CDATA[東北老人福祉センター]]></name>
</wpt>

<wpt lat="36.6761360168457" lon="138.25234985351562">
 <time>2015-12-06T02:24:46ZZ</time>
 <name><![CDATA[信叟寺]]></name>
</wpt>

<wpt lat="36.67601776123047" lon="138.24903869628906">
 <time>2015-12-06T02:24:46ZZ</time>
 <name><![CDATA[古里郵便局]]></name>
</wpt>

<wpt lat="36.67649459838867" lon="138.2467803955078">
 <time>2015-12-06T02:24:46ZZ</time>
 <name><![CDATA[古里小学校北]]></name>
</wpt>

<wpt lat="36.676883697509766" lon="138.24490356445312">
 <time>2015-12-06T02:24:46ZZ</time>
 <name><![CDATA[古里支所]]></name>
</wpt>

<wpt lat="36.680023193359375" lon="138.2452850341797">
 <time>2015-12-06T02:24:46ZZ</time>
 <name><![CDATA[西友古里店]]></name>
</wpt>

<wpt lat="36.67976760864258" lon="138.24267578125">
 <time>2015-12-06T02:24:46ZZ</time>
 <name><![CDATA[上駒沢会館]]></name>
</wpt>

<wpt lat="36.68031311035156" lon="138.23977661132812">
 <time>2015-12-06T02:24:46ZZ</time>
 <name><![CDATA[駒沢踏切前]]></name>
</wpt>

<wpt lat="36.68000030517578" lon="138.23843383789062">
 <time>2015-12-06T02:24:46ZZ</time>
 <name><![CDATA[新町団地]]></name>
</wpt>

<wpt lat="36.679569244384766" lon="138.23580932617188">
 <time>2015-12-06T02:24:46ZZ</time>
 <name><![CDATA[上駒沢西]]></name>
</wpt>

<wpt lat="36.67903518676758" lon="138.2344512939453">
 <time>2015-12-06T02:24:46ZZ</time>
 <name><![CDATA[高専学生寮前]]></name>
</wpt>

<wpt lat="36.678985595703125" lon="138.23251342773438">
 <time>2015-12-06T02:24:46ZZ</time>
 <name><![CDATA[長野高専正門]]></name>
</wpt>

<wpt lat="36.675323486328125" lon="138.232177734375">
 <time>2015-12-06T02:24:46ZZ</time>
 <name><![CDATA[徳間東]]></name>
</wpt>

<wpt lat="36.67350387573242" lon="138.23072814941406">
 <time>2015-12-06T02:24:46ZZ</time>
 <name><![CDATA[一里塚公園西]]></name>
</wpt>

<wpt lat="36.67103576660156" lon="138.22909545898438">
 <time>2015-12-06T02:24:46ZZ</time>
 <name><![CDATA[稲田エノキ公園]]></name>
</wpt>

<wpt lat="36.67012405395508" lon="138.22560119628906">
 <time>2015-12-06T02:24:46ZZ</time>
 <name><![CDATA[稲田南]]></name>
</wpt>

<wpt lat="36.67034912109375" lon="138.22296142578125">
 <time>2015-12-06T02:24:46ZZ</time>
 <name><![CDATA[砂田橋東]]></name>
</wpt>

<wpt lat="36.669715881347656" lon="138.22030639648438">
 <time>2015-12-06T02:24:46ZZ</time>
 <name><![CDATA[若草幼稚園]]></name>
</wpt>

<wpt lat="36.66860580444336" lon="138.21832275390625">
 <time>2015-12-06T02:24:46ZZ</time>
 <name><![CDATA[吉田本町]]></name>
</wpt>

<wpt lat="36.667259216308594" lon="138.22120666503906">
 <time>2015-12-06T02:24:46ZZ</time>
 <name><![CDATA[信濃吉田駅]]></name>
</wpt>

<wpt lat="36.666473388671875" lon="138.2205047607422">
 <time>2015-12-06T02:24:46ZZ</time>
 <name><![CDATA[信濃吉田駅入口]]></name>
</wpt>

<wpt lat="36.66563415527344" lon="138.22222900390625">
 <time>2015-12-06T02:24:46ZZ</time>
 <name><![CDATA[北長野駅]]></name>
</wpt>

<wpt lat="36.669036865234375" lon="138.22244262695312">
 <time>2015-12-06T02:24:46ZZ</time>
 <name><![CDATA[吉田小学校]]></name>
</wpt>

<wpt lat="36.66905212402344" lon="138.22662353515625">
 <time>2015-12-06T02:24:46ZZ</time>
 <name><![CDATA[辰巳公園]]></name>
</wpt>

<wpt lat="36.66905975341797" lon="138.22897338867188">
 <time>2015-12-06T02:24:46ZZ</time>
 <name><![CDATA[原町]]></name>
</wpt>

<wpt lat="36.66781234741211" lon="138.23141479492188">
 <time>2015-12-06T02:24:46ZZ</time>
 <name><![CDATA[西堀]]></name>
</wpt>

<wpt lat="36.66655349731445" lon="138.23411560058594">
 <time>2015-12-06T02:24:46ZZ</time>
 <name><![CDATA[南堀西]]></name>
</wpt>

<wpt lat="36.66475296020508" lon="138.2374267578125">
 <time>2015-12-06T02:24:46ZZ</time>
 <name><![CDATA[長命寺]]></name>
</wpt>

<wpt lat="36.663021087646484" lon="138.24038696289062">
 <time>2015-12-06T02:24:46ZZ</time>
 <name><![CDATA[石渡南堀]]></name>
</wpt>

<wpt lat="36.663394927978516" lon="138.2410888671875">
 <time>2015-12-06T02:24:46ZZ</time>
 <name><![CDATA[朝日病院前]]></name>
</wpt>

<wpt lat="36.66617202758789" lon="138.2422637939453">
 <time>2015-12-06T02:24:46ZZ</time>
 <name><![CDATA[朝陽駅]]></name>
</wpt>

<wpt lat="36.668212890625" lon="138.24317932128906">
 <time>2015-12-06T02:24:46ZZ</time>
 <name><![CDATA[北堀]]></name>
</wpt>

<wpt lat="36.66999435424805" lon="138.24354553222656">
 <time>2015-12-06T02:24:46ZZ</time>
 <name><![CDATA[富竹]]></name>
</wpt>

<wpt lat="36.671119689941406" lon="138.2459716796875">
 <time>2015-12-06T02:24:46ZZ</time>
 <name><![CDATA[富竹中]]></name>
</wpt>

<wpt lat="36.670894622802734" lon="138.24868774414062">
 <time>2015-12-06T02:24:46ZZ</time>
 <name><![CDATA[東富竹]]></name>
</wpt>

<wpt lat="36.59449768066406" lon="138.21534729003906">
 <time>2015-12-06T02:24:46ZZ</time>
 <name><![CDATA[寺尾森林組合]]></name>
</wpt>

<wpt lat="36.605735778808594" lon="138.23863220214844">
 <time>2015-12-06T02:24:46ZZ</time>
 <name><![CDATA[信濃川田駅]]></name>
</wpt>

<wpt lat="36.60456848144531" lon="138.232177734375">
 <time>2015-12-06T02:24:46ZZ</time>
 <name><![CDATA[町川田]]></name>
</wpt>

<wpt lat="36.600608825683594" lon="138.22314453125">
 <time>2015-12-06T02:24:46ZZ</time>
 <name><![CDATA[大室駅]]></name>
</wpt>

<wpt lat="36.59801483154297" lon="138.22084045410156">
 <time>2015-12-06T02:24:46ZZ</time>
 <name><![CDATA[大室神社前]]></name>
</wpt>

<wpt lat="36.59358215332031" lon="138.2197723388672">
 <time>2015-12-06T02:24:46ZZ</time>
 <name><![CDATA[大室南]]></name>
</wpt>

<wpt lat="36.5953369140625" lon="138.2194061279297">
 <time>2015-12-06T02:24:46ZZ</time>
 <name><![CDATA[大室中]]></name>
</wpt>

<wpt lat="36.59145736694336" lon="138.2135467529297">
 <time>2015-12-06T02:24:46ZZ</time>
 <name><![CDATA[名立神社]]></name>
</wpt>

<wpt lat="36.59041213989258" lon="138.2121124267578">
 <time>2015-12-06T02:24:46ZZ</time>
 <name><![CDATA[牧島集荷所]]></name>
</wpt>

<wpt lat="36.59220886230469" lon="138.20974731445312">
 <time>2015-12-06T02:24:46ZZ</time>
 <name><![CDATA[小島田公民館]]></name>
</wpt>

<wpt lat="36.592647552490234" lon="138.2085418701172">
 <time>2015-12-06T02:24:46ZZ</time>
 <name><![CDATA[小島田]]></name>
</wpt>

<wpt lat="36.59156799316406" lon="138.20095825195312">
 <time>2015-12-06T02:24:46ZZ</time>
 <name><![CDATA[金井山駅]]></name>
</wpt>

<wpt lat="36.58907699584961" lon="138.1984405517578">
 <time>2015-12-06T02:24:46ZZ</time>
 <name><![CDATA[柴]]></name>
</wpt>

<wpt lat="36.57722473144531" lon="138.2027587890625">
 <time>2015-12-06T02:24:46ZZ</time>
 <name><![CDATA[アグリまつしろ]]></name>
</wpt>

<wpt lat="36.568939208984375" lon="138.21047973632812">
 <time>2015-12-06T02:24:46ZZ</time>
 <name><![CDATA[松代老人憩の家]]></name>
</wpt>

<wpt lat="36.562171936035156" lon="138.2015380859375">
 <time>2015-12-06T02:24:46ZZ</time>
 <name><![CDATA[伊勢町]]></name>
</wpt>

<wpt lat="36.56589126586914" lon="138.1985626220703">
 <time>2015-12-06T02:24:46ZZ</time>
 <name><![CDATA[松代駅]]></name>
</wpt>

<wpt lat="36.56415557861328" lon="138.19992065429688">
 <time>2015-12-06T02:24:46ZZ</time>
 <name><![CDATA[長野松代総合病院]]></name>
</wpt>

<wpt lat="36.561431884765625" lon="138.20108032226562">
 <time>2015-12-06T02:24:46ZZ</time>
 <name><![CDATA[松代支所]]></name>
</wpt>

<wpt lat="36.555641174316406" lon="138.2017822265625">
 <time>2015-12-06T02:24:46ZZ</time>
 <name><![CDATA[同心町北]]></name>
</wpt>

<wpt lat="36.552547454833984" lon="138.2018585205078">
 <time>2015-12-06T02:24:46ZZ</time>
 <name><![CDATA[青垣公園入口]]></name>
</wpt>

<wpt lat="36.54917526245117" lon="138.20159912109375">
 <time>2015-12-06T02:24:46ZZ</time>
 <name><![CDATA[西条公民館]]></name>
</wpt>

<wpt lat="36.546512603759766" lon="138.20152282714844">
 <time>2015-12-06T02:24:46ZZ</time>
 <name><![CDATA[みすず橋]]></name>
</wpt>

<wpt lat="36.54341506958008" lon="138.20278930664062">
 <time>2015-12-06T02:24:46ZZ</time>
 <name><![CDATA[地震観測所入口]]></name>
</wpt>

<wpt lat="36.541446685791016" lon="138.2052001953125">
 <time>2015-12-06T02:24:46ZZ</time>
 <name><![CDATA[入組公民館前]]></name>
</wpt>

<wpt lat="36.538902282714844" lon="138.20785522460938">
 <time>2015-12-06T02:24:46ZZ</time>
 <name><![CDATA[入組北]]></name>
</wpt>

<wpt lat="36.537010192871094" lon="138.2084197998047">
 <time>2015-12-06T02:24:46ZZ</time>
 <name><![CDATA[入組南]]></name>
</wpt>

<wpt lat="36.54951095581055" lon="138.20022583007812">
 <time>2015-12-06T02:24:46ZZ</time>
 <name><![CDATA[中村神社]]></name>
</wpt>

<wpt lat="36.553707122802734" lon="138.19903564453125">
 <time>2015-12-06T02:24:46ZZ</time>
 <name><![CDATA[乾徳寺]]></name>
</wpt>

<wpt lat="36.559295654296875" lon="138.1981658935547">
 <time>2015-12-06T02:24:46ZZ</time>
 <name><![CDATA[象山記念館]]></name>
</wpt>

<wpt lat="36.573646545410156" lon="138.1390380859375">
 <time>2015-12-06T02:24:46ZZ</time>
 <name><![CDATA[篠ノ井支所]]></name>
</wpt>

<wpt lat="36.57485580444336" lon="138.1397247314453">
 <time>2015-12-06T02:24:46ZZ</time>
 <name><![CDATA[内堀]]></name>
</wpt>

<wpt lat="36.577335357666016" lon="138.13902282714844">
 <time>2015-12-06T02:24:46ZZ</time>
 <name><![CDATA[篠ノ井駅]]></name>
</wpt>

<wpt lat="36.57711410522461" lon="138.1423797607422">
 <time>2015-12-06T02:24:46ZZ</time>
 <name><![CDATA[篠ノ井横町]]></name>
</wpt>

<wpt lat="36.57537841796875" lon="138.14865112304688">
 <time>2015-12-06T02:24:46ZZ</time>
 <name><![CDATA[篠ノ井総合病院]]></name>
</wpt>

<wpt lat="36.574546813964844" lon="138.14601135253906">
 <time>2015-12-06T02:24:46ZZ</time>
 <name><![CDATA[会公民館]]></name>
</wpt>

<wpt lat="36.572593688964844" lon="138.1425323486328">
 <time>2015-12-06T02:24:46ZZ</time>
 <name><![CDATA[御幣川]]></name>
</wpt>

<wpt lat="36.567325592041016" lon="138.14425659179688">
 <time>2015-12-06T02:24:46ZZ</time>
 <name><![CDATA[御幣川南松島]]></name>
</wpt>

<wpt lat="36.564842224121094" lon="138.14857482910156">
 <time>2015-12-06T02:24:46ZZ</time>
 <name><![CDATA[東横田北]]></name>
</wpt>

<wpt lat="36.562564849853516" lon="138.14979553222656">
 <time>2015-12-06T02:24:46ZZ</time>
 <name><![CDATA[東横田公民館]]></name>
</wpt>

<wpt lat="36.56231689453125" lon="138.14756774902344">
 <time>2015-12-06T02:24:46ZZ</time>
 <name><![CDATA[東横田]]></name>
</wpt>

<wpt lat="36.56157684326172" lon="138.1428680419922">
 <time>2015-12-06T02:24:46ZZ</time>
 <name><![CDATA[西横田中]]></name>
</wpt>

<wpt lat="36.56100845336914" lon="138.14088439941406">
 <time>2015-12-06T02:24:46ZZ</time>
 <name><![CDATA[西横田西]]></name>
</wpt>

<wpt lat="36.56175994873047" lon="138.1378936767578">
 <time>2015-12-06T02:24:46ZZ</time>
 <name><![CDATA[庄ノ宮]]></name>
</wpt>

<wpt lat="36.56148147583008" lon="138.1343994140625">
 <time>2015-12-06T02:24:46ZZ</time>
 <name><![CDATA[庄ノ宮団地]]></name>
</wpt>

<wpt lat="36.56779479980469" lon="138.13467407226562">
 <time>2015-12-06T02:24:46ZZ</time>
 <name><![CDATA[みこと川集会所]]></name>
</wpt>

<wpt lat="36.568904876708984" lon="138.13584899902344">
 <time>2015-12-06T02:24:46ZZ</time>
 <name><![CDATA[みこと川第二集会所]]></name>
</wpt>

<wpt lat="36.56425857543945" lon="138.1357421875">
 <time>2015-12-06T02:24:46ZZ</time>
 <name><![CDATA[東篠ノ井公民館]]></name>
</wpt>

<wpt lat="36.562767028808594" lon="138.1288604736328">
 <time>2015-12-06T02:24:46ZZ</time>
 <name><![CDATA[追分]]></name>
</wpt>

<wpt lat="36.56039047241211" lon="138.12339782714844">
 <time>2015-12-06T02:24:46ZZ</time>
 <name><![CDATA[平久保]]></name>
</wpt>

<wpt lat="36.558326721191406" lon="138.1196746826172">
 <time>2015-12-06T02:24:46ZZ</time>
 <name><![CDATA[山崎北]]></name>
</wpt>

<wpt lat="36.55495071411133" lon="138.11672973632812">
 <time>2015-12-06T02:24:46ZZ</time>
 <name><![CDATA[山崎]]></name>
</wpt>

<wpt lat="36.5538444519043" lon="138.1153564453125">
 <time>2015-12-06T02:24:46ZZ</time>
 <name><![CDATA[角間]]></name>
</wpt>

<wpt lat="36.549102783203125" lon="138.11355590820312">
 <time>2015-12-06T02:24:46ZZ</time>
 <name><![CDATA[上町南]]></name>
</wpt>

<wpt lat="36.55134963989258" lon="138.11366271972656">
 <time>2015-12-06T02:24:46ZZ</time>
 <name><![CDATA[稲荷山駅前郵便局前]]></name>
</wpt>

<wpt lat="36.5517578125" lon="138.1117706298828">
 <time>2015-12-06T02:24:46ZZ</time>
 <name><![CDATA[四之宮]]></name>
</wpt>

<wpt lat="36.552120208740234" lon="138.11021423339844">
 <time>2015-12-06T02:24:46ZZ</time>
 <name><![CDATA[塩崎駐在所前]]></name>
</wpt>

<wpt lat="36.54774475097656" lon="138.1070098876953">
 <time>2015-12-06T02:24:46ZZ</time>
 <name><![CDATA[長谷・越公民館]]></name>
</wpt>

<wpt lat="36.54443359375" lon="138.1039581298828">
 <time>2015-12-06T02:24:46ZZ</time>
 <name><![CDATA[越]]></name>
</wpt>

<wpt lat="36.55255889892578" lon="138.1084442138672">
 <time>2015-12-06T02:24:46ZZ</time>
 <name><![CDATA[稲荷山駅]]></name>
</wpt>

<wpt lat="36.55421829223633" lon="138.1047821044922">
 <time>2015-12-06T02:24:46ZZ</time>
 <name><![CDATA[四野宮四辻]]></name>
</wpt>

<wpt lat="36.55904006958008" lon="138.1094512939453">
 <time>2015-12-06T02:24:46ZZ</time>
 <name><![CDATA[四野宮東組]]></name>
</wpt>

<wpt lat="36.56217956542969" lon="138.1070098876953">
 <time>2015-12-06T02:24:46ZZ</time>
 <name><![CDATA[石川老人憩の家]]></name>
</wpt>

<wpt lat="36.641822814941406" lon="138.24874877929688">
 <time>2015-12-06T02:24:46ZZ</time>
 <name><![CDATA[屋島]]></name>
</wpt>

<wpt lat="36.63264465332031" lon="138.26406860351562">
 <time>2015-12-06T02:24:46ZZ</time>
 <name><![CDATA[牛池]]></name>
</wpt>

<wpt lat="36.62810134887695" lon="138.26744079589844">
 <time>2015-12-06T02:24:46ZZ</time>
 <name><![CDATA[大橋]]></name>
</wpt>

<wpt lat="36.62721633911133" lon="138.2749786376953">
 <time>2015-12-06T02:24:46ZZ</time>
 <name><![CDATA[温湯温泉]]></name>
</wpt>

<wpt lat="36.624168395996094" lon="138.2774658203125">
 <time>2015-12-06T02:24:46ZZ</time>
 <name><![CDATA[温湯]]></name>
</wpt>

<wpt lat="36.619197845458984" lon="138.27662658691406">
 <time>2015-12-06T02:24:46ZZ</time>
 <name><![CDATA[清水]]></name>
</wpt>

<wpt lat="36.608463287353516" lon="138.2767333984375">
 <time>2015-12-06T02:24:46ZZ</time>
 <name><![CDATA[ユートピアわかほ]]></name>
</wpt>

<wpt lat="36.60710144042969" lon="138.2828369140625">
 <time>2015-12-06T02:24:46ZZ</time>
 <name><![CDATA[山新田公民館]]></name>
</wpt>

<wpt lat="36.61850357055664" lon="138.2749481201172">
 <time>2015-12-06T02:24:46ZZ</time>
 <name><![CDATA[清水公民館]]></name>
</wpt>

<wpt lat="36.61848449707031" lon="138.2700653076172">
 <time>2015-12-06T02:24:46ZZ</time>
 <name><![CDATA[大柳]]></name>
</wpt>

<wpt lat="36.621944427490234" lon="138.26937866210938">
 <time>2015-12-06T02:24:46ZZ</time>
 <name><![CDATA[森]]></name>
</wpt>

<wpt lat="36.622657775878906" lon="138.2625274658203">
 <time>2015-12-06T02:24:46ZZ</time>
 <name><![CDATA[綿内小学校]]></name>
</wpt>

<wpt lat="36.62531661987305" lon="138.25885009765625">
 <time>2015-12-06T02:24:46ZZ</time>
 <name><![CDATA[綿内駅]]></name>
</wpt>

<wpt lat="36.6220703125" lon="138.25640869140625">
 <time>2015-12-06T02:24:46ZZ</time>
 <name><![CDATA[綿内総合センター]]></name>
</wpt>

<wpt lat="36.613956451416016" lon="138.2509002685547">
 <time>2015-12-06T02:24:46ZZ</time>
 <name><![CDATA[若穂支所]]></name>
</wpt>

<wpt lat="36.605735778808594" lon="138.23863220214844">
 <time>2015-12-06T02:24:46ZZ</time>
 <name><![CDATA[川田駅]]></name>
</wpt>

<wpt lat="36.7077751159668" lon="138.2653045654297">
 <time>2015-12-06T02:24:46ZZ</time>
 <name><![CDATA[りんごの湯]]></name>
</wpt>

<wpt lat="36.71023178100586" lon="138.27589416503906">
 <time>2015-12-06T02:24:46ZZ</time>
 <name><![CDATA[豊野駅南口]]></name>
</wpt>

<wpt lat="36.71173858642578" lon="138.28192138671875">
 <time>2015-12-06T02:24:46ZZ</time>
 <name><![CDATA[長野市豊野支所]]></name>
</wpt>

<wpt lat="36.71079635620117" lon="138.280517578125">
 <time>2015-12-06T02:24:46ZZ</time>
 <name><![CDATA[アップルランド豊野店]]></name>
</wpt>

<wpt lat="36.70139694213867" lon="138.27549743652344">
 <time>2015-12-06T02:24:46ZZ</time>
 <name><![CDATA[赤沼下]]></name>
</wpt>

<wpt lat="36.69993209838867" lon="138.27565002441406">
 <time>2015-12-06T02:24:46ZZ</time>
 <name><![CDATA[赤沼郵便局]]></name>
</wpt>

<wpt lat="36.69751739501953" lon="138.27577209472656">
 <time>2015-12-06T02:24:46ZZ</time>
 <name><![CDATA[妙願寺前]]></name>
</wpt>

<wpt lat="36.6952018737793" lon="138.2755126953125">
 <time>2015-12-06T02:24:46ZZ</time>
 <name><![CDATA[赤沼上]]></name>
</wpt>

<wpt lat="36.69331741333008" lon="138.2754364013672">
 <time>2015-12-06T02:24:46ZZ</time>
 <name><![CDATA[一ノ配]]></name>
</wpt>

<wpt lat="36.687931060791016" lon="138.2750701904297">
 <time>2015-12-06T02:24:46ZZ</time>
 <name><![CDATA[津野公会堂]]></name>
</wpt>

<wpt lat="36.68704605102539" lon="138.27442932128906">
 <time>2015-12-06T02:24:46ZZ</time>
 <name><![CDATA[長沼支所]]></name>
</wpt>

<wpt lat="36.6854248046875" lon="138.27203369140625">
 <time>2015-12-06T02:24:46ZZ</time>
 <name><![CDATA[内町公会堂]]></name>
</wpt>

<wpt lat="36.682945251464844" lon="138.2703857421875">
 <time>2015-12-06T02:24:46ZZ</time>
 <name><![CDATA[りんごの郷入口]]></name>
</wpt>

<wpt lat="36.68110656738281" lon="138.27047729492188">
 <time>2015-12-06T02:24:46ZZ</time>
 <name><![CDATA[穂保南]]></name>
</wpt>

<wpt lat="36.67824172973633" lon="138.2717742919922">
 <time>2015-12-06T02:24:46ZZ</time>
 <name><![CDATA[善導寺前]]></name>
</wpt>

<wpt lat="36.67546463012695" lon="138.26893615722656">
 <time>2015-12-06T02:24:46ZZ</time>
 <name><![CDATA[長沼郵便局]]></name>
</wpt>

<wpt lat="36.675537109375" lon="138.26394653320312">
 <time>2015-12-06T02:24:46ZZ</time>
 <name><![CDATA[大栄団地]]></name>
</wpt>

<wpt lat="36.67530059814453" lon="138.25833129882812">
 <time>2015-12-06T02:24:46ZZ</time>
 <name><![CDATA[東北中学]]></name>
</wpt>

<wpt lat="36.66336441040039" lon="138.25860595703125">
 <time>2015-12-06T02:24:46ZZ</time>
 <name><![CDATA[柳原駅]]></name>
</wpt>

<wpt lat="36.68567657470703" lon="138.24270629882812">
 <time>2015-12-06T02:24:46ZZ</time>
 <name><![CDATA[三才駅]]></name>
</wpt>

<wpt lat="36.68809127807617" lon="138.24676513671875">
 <time>2015-12-06T02:24:46ZZ</time>
 <name><![CDATA[三才宮前]]></name>
</wpt>

<wpt lat="36.692596435546875" lon="138.25111389160156">
 <time>2015-12-06T02:24:46ZZ</time>
 <name><![CDATA[南郷入口]]></name>
</wpt>

<wpt lat="36.69489669799805" lon="138.25360107421875">
 <time>2015-12-06T02:24:46ZZ</time>
 <name><![CDATA[南郷三]]></name>
</wpt>

<wpt lat="36.696998596191406" lon="138.255126953125">
 <time>2015-12-06T02:24:46ZZ</time>
 <name><![CDATA[南郷五]]></name>
</wpt>

<wpt lat="36.698734283447266" lon="138.25735473632812">
 <time>2015-12-06T02:24:46ZZ</time>
 <name><![CDATA[南郷北]]></name>
</wpt>

<wpt lat="36.702022552490234" lon="138.25967407226562">
 <time>2015-12-06T02:24:46ZZ</time>
 <name><![CDATA[南石集会所]]></name>
</wpt>

<wpt lat="36.7041015625" lon="138.25961303710938">
 <time>2015-12-06T02:24:46ZZ</time>
 <name><![CDATA[石辻]]></name>
</wpt>

<wpt lat="36.7061653137207" lon="138.25970458984375">
 <time>2015-12-06T02:24:46ZZ</time>
 <name><![CDATA[さつき保育園]]></name>
</wpt>

<wpt lat="36.70906448364258" lon="138.268310546875">
 <time>2015-12-06T02:24:46ZZ</time>
 <name><![CDATA[美濃和田団地]]></name>
</wpt>

<wpt lat="36.71070861816406" lon="138.2707061767578">
 <time>2015-12-06T02:24:46ZZ</time>
 <name><![CDATA[鈴木医院]]></name>
</wpt>

<wpt lat="36.70783996582031" lon="138.27464294433594">
 <time>2015-12-06T02:24:46ZZ</time>
 <name><![CDATA[本町五]]></name>
</wpt>

<wpt lat="36.71192169189453" lon="138.27847290039062">
 <time>2015-12-06T02:24:46ZZ</time>
 <name><![CDATA[中屋診療所]]></name>
</wpt>

<wpt lat="36.710784912109375" lon="138.28253173828125">
 <time>2015-12-06T02:24:46ZZ</time>
 <name><![CDATA[豊野病院]]></name>
</wpt>

<wpt lat="36.71276092529297" lon="138.28009033203125">
 <time>2015-12-06T02:24:46ZZ</time>
 <name><![CDATA[ながの農協豊野町支所]]></name>
</wpt>

<wpt lat="36.71406173706055" lon="138.2787322998047">
 <time>2015-12-06T02:24:46ZZ</time>
 <name><![CDATA[伊豆毛神社]]></name>
</wpt>

<wpt lat="36.7159538269043" lon="138.28359985351562">
 <time>2015-12-06T02:24:46ZZ</time>
 <name><![CDATA[小瀬北]]></name>
</wpt>

<wpt lat="36.72306442260742" lon="138.28350830078125">
 <time>2015-12-06T02:24:46ZZ</time>
 <name><![CDATA[泉平]]></name>
</wpt>

<wpt lat="36.72474670410156" lon="138.2705078125">
 <time>2015-12-06T02:24:46ZZ</time>
 <name><![CDATA[上神代公会堂]]></name>
</wpt>

<wpt lat="36.7268180847168" lon="138.28416442871094">
 <time>2015-12-06T02:24:46ZZ</time>
 <name><![CDATA[向原]]></name>
</wpt>

<wpt lat="36.71439743041992" lon="138.2834930419922">
 <time>2015-12-06T02:24:46ZZ</time>
 <name><![CDATA[小瀬]]></name>
</wpt>

<wpt lat="36.71984100341797" lon="138.29115295410156">
 <time>2015-12-06T02:24:46ZZ</time>
 <name><![CDATA[神田]]></name>
</wpt>

<wpt lat="36.72172546386719" lon="138.2925262451172">
 <time>2015-12-06T02:24:46ZZ</time>
 <name><![CDATA[浅野駅西団地]]></name>
</wpt>

<wpt lat="36.72368240356445" lon="138.2961883544922">
 <time>2015-12-06T02:24:46ZZ</time>
 <name><![CDATA[昭和橋]]></name>
</wpt>

<wpt lat="36.72951126098633" lon="138.2962188720703">
 <time>2015-12-06T02:24:46ZZ</time>
 <name><![CDATA[大方公会堂]]></name>
</wpt>

<wpt lat="36.731632232666016" lon="138.28677368164062">
 <time>2015-12-06T02:24:46ZZ</time>
 <name><![CDATA[入大倉]]></name>
</wpt>

<wpt lat="36.73398971557617" lon="138.2723388671875">
 <time>2015-12-06T02:24:46ZZ</time>
 <name><![CDATA[川谷]]></name>
</wpt>

<wpt lat="36.739112854003906" lon="138.27655029296875">
 <time>2015-12-06T02:24:46ZZ</time>
 <name><![CDATA[城山公会堂]]></name>
</wpt>

<wpt lat="36.74162673950195" lon="138.2852020263672">
 <time>2015-12-06T02:24:46ZZ</time>
 <name><![CDATA[蟻ヶ崎公会堂]]></name>
</wpt>

<wpt lat="36.71889877319336" lon="138.2928466796875">
 <time>2015-12-06T02:24:46ZZ</time>
 <name><![CDATA[浅野西]]></name>
</wpt>

<wpt lat="36.72121047973633" lon="138.29611206054688">
 <time>2015-12-06T02:24:46ZZ</time>
 <name><![CDATA[浅野区事務所]]></name>
</wpt>

<wpt lat="36.721492767333984" lon="138.29934692382812">
 <time>2015-12-06T02:24:46ZZ</time>
 <name><![CDATA[堀]]></name>
</wpt>

<wpt lat="36.7240104675293" lon="138.30474853515625">
 <time>2015-12-06T02:24:46ZZ</time>
 <name><![CDATA[曽峯]]></name>
</wpt>

<wpt lat="36.7287483215332" lon="138.30189514160156">
 <time>2015-12-06T02:24:46ZZ</time>
 <name><![CDATA[手子塚]]></name>
</wpt>

<wpt lat="36.73207473754883" lon="138.29898071289062">
 <time>2015-12-06T02:24:46ZZ</time>
 <name><![CDATA[上原]]></name>
</wpt>

<wpt lat="36.73847579956055" lon="138.3043975830078">
 <time>2015-12-06T02:24:46ZZ</time>
 <name><![CDATA[中新田]]></name>
</wpt>

<wpt lat="36.74189376831055" lon="138.30699157714844">
 <time>2015-12-06T02:24:46ZZ</time>
 <name><![CDATA[二ツ石公会堂]]></name>
</wpt>

<wpt lat="36.68067169189453" lon="138.00152587890625">
 <time>2015-12-06T02:24:46ZZ</time>
 <name><![CDATA[鬼無里支所]]></name>
</wpt>

<wpt lat="36.682350158691406" lon="138.00531005859375">
 <time>2015-12-06T02:24:46ZZ</time>
 <name><![CDATA[鬼無里町]]></name>
</wpt>

<wpt lat="36.6810417175293" lon="138.00352478027344">
 <time>2015-12-06T02:24:46ZZ</time>
 <name><![CDATA[農協前]]></name>
</wpt>

<wpt lat="36.68129348754883" lon="138.00184631347656">
 <time>2015-12-06T02:24:46ZZ</time>
 <name><![CDATA[支所入口]]></name>
</wpt>

<wpt lat="36.68136978149414" lon="138.0009765625">
 <time>2015-12-06T02:24:46ZZ</time>
 <name><![CDATA[和田沖]]></name>
</wpt>

<wpt lat="36.679473876953125" lon="137.9983367919922">
 <time>2015-12-06T02:24:46ZZ</time>
 <name><![CDATA[資料館前]]></name>
</wpt>

<wpt lat="36.67937088012695" lon="137.99488830566406">
 <time>2015-12-06T02:24:46ZZ</time>
 <name><![CDATA[坂口団地]]></name>
</wpt>

<wpt lat="36.67863845825195" lon="137.99293518066406">
 <time>2015-12-06T02:24:46ZZ</time>
 <name><![CDATA[松原]]></name>
</wpt>

<wpt lat="36.677093505859375" lon="137.99192810058594">
 <time>2015-12-06T02:24:46ZZ</time>
 <name><![CDATA[祖山入口]]></name>
</wpt>

<wpt lat="36.67853546142578" lon="137.98703002929688">
 <time>2015-12-06T02:24:46ZZ</time>
 <name><![CDATA[松島]]></name>
</wpt>

<wpt lat="36.67954635620117" lon="137.98463439941406">
 <time>2015-12-06T02:24:46ZZ</time>
 <name><![CDATA[十二平]]></name>
</wpt>

<wpt lat="36.681976318359375" lon="137.98028564453125">
 <time>2015-12-06T02:24:46ZZ</time>
 <name><![CDATA[七ツ室]]></name>
</wpt>

<wpt lat="36.681724548339844" lon="137.97650146484375">
 <time>2015-12-06T02:24:46ZZ</time>
 <name><![CDATA[大久保]]></name>
</wpt>

<wpt lat="36.68519973754883" lon="137.96710205078125">
 <time>2015-12-06T02:24:46ZZ</time>
 <name><![CDATA[東京口]]></name>
</wpt>

<wpt lat="36.68589782714844" lon="137.9637451171875">
 <time>2015-12-06T02:24:46ZZ</time>
 <name><![CDATA[西京]]></name>
</wpt>

<wpt lat="36.687503814697266" lon="137.96192932128906">
 <time>2015-12-06T02:24:46ZZ</time>
 <name><![CDATA[土倉口]]></name>
</wpt>

<wpt lat="36.688438415527344" lon="137.95352172851562">
 <time>2015-12-06T02:24:46ZZ</time>
 <name><![CDATA[府成]]></name>
</wpt>

<wpt lat="36.68776321411133" lon="137.94151306152344">
 <time>2015-12-06T02:24:46ZZ</time>
 <name><![CDATA[田之頭]]></name>
</wpt>

<wpt lat="36.683841705322266" lon="137.939453125">
 <time>2015-12-06T02:24:46ZZ</time>
 <name><![CDATA[鬼無里の湯]]></name>
</wpt>

<wpt lat="36.67174530029297" lon="137.93089294433594">
 <time>2015-12-06T02:24:46ZZ</time>
 <name><![CDATA[押切]]></name>
</wpt>

<wpt lat="36.668861389160156" lon="137.9289093017578">
 <time>2015-12-06T02:24:46ZZ</time>
 <name><![CDATA[押切西]]></name>
</wpt>

<wpt lat="36.661006927490234" lon="137.921630859375">
 <time>2015-12-06T02:24:46ZZ</time>
 <name><![CDATA[南鬼無里]]></name>
</wpt>

<wpt lat="36.69158172607422" lon="137.9601593017578">
 <time>2015-12-06T02:24:46ZZ</time>
 <name><![CDATA[牛平口]]></name>
</wpt>

<wpt lat="36.6925048828125" lon="137.95896911621094">
 <time>2015-12-06T02:24:46ZZ</time>
 <name><![CDATA[根上]]></name>
</wpt>

<wpt lat="36.70435333251953" lon="137.95413208007812">
 <time>2015-12-06T02:24:46ZZ</time>
 <name><![CDATA[川浦]]></name>
</wpt>

<wpt lat="36.706092834472656" lon="137.95626831054688">
 <time>2015-12-06T02:24:46ZZ</time>
 <name><![CDATA[岩下]]></name>
</wpt>

<wpt lat="36.71144485473633" lon="137.9608612060547">
 <time>2015-12-06T02:24:46ZZ</time>
 <name><![CDATA[入川]]></name>
</wpt>

<wpt lat="36.71508026123047" lon="137.96311950683594">
 <time>2015-12-06T02:24:46ZZ</time>
 <name><![CDATA[土倉入口]]></name>
</wpt>

<wpt lat="36.71668243408203" lon="137.96437072753906">
 <time>2015-12-06T02:24:46ZZ</time>
 <name><![CDATA[土倉]]></name>
</wpt>

<wpt lat="36.683807373046875" lon="138.00686645507812">
 <time>2015-12-06T02:24:46ZZ</time>
 <name><![CDATA[越し上り]]></name>
</wpt>

<wpt lat="36.69050979614258" lon="138.00706481933594">
 <time>2015-12-06T02:24:46ZZ</time>
 <name><![CDATA[小鬼無里]]></name>
</wpt>

<wpt lat="36.69530487060547" lon="138.00875854492188">
 <time>2015-12-06T02:24:46ZZ</time>
 <name><![CDATA[岡]]></name>
</wpt>

<wpt lat="36.69779586791992" lon="138.01121520996094">
 <time>2015-12-06T02:24:46ZZ</time>
 <name><![CDATA[高橋]]></name>
</wpt>

<wpt lat="36.700069427490234" lon="138.0116424560547">
 <time>2015-12-06T02:24:46ZZ</time>
 <name><![CDATA[財又入口]]></name>
</wpt>

<wpt lat="36.70263671875" lon="138.0133819580078">
 <time>2015-12-06T02:24:46ZZ</time>
 <name><![CDATA[財又]]></name>
</wpt>

<wpt lat="36.70539474487305" lon="138.0157928466797">
 <time>2015-12-06T02:24:46ZZ</time>
 <name><![CDATA[別府]]></name>
</wpt>

<wpt lat="36.70640563964844" lon="138.0167236328125">
 <time>2015-12-06T02:24:46ZZ</time>
 <name><![CDATA[新井]]></name>
</wpt>

<wpt lat="36.7086067199707" lon="138.0188751220703">
 <time>2015-12-06T02:24:46ZZ</time>
 <name><![CDATA[上里組合前]]></name>
</wpt>

<wpt lat="36.71004867553711" lon="138.020263671875">
 <time>2015-12-06T02:24:46ZZ</time>
 <name><![CDATA[山大入口]]></name>
</wpt>

<wpt lat="36.71125030517578" lon="138.02117919921875">
 <time>2015-12-06T02:24:46ZZ</time>
 <name><![CDATA[市野瀬]]></name>
</wpt>

<wpt lat="36.71209716796875" lon="138.022705078125">
 <time>2015-12-06T02:24:46ZZ</time>
 <name><![CDATA[改善センター前]]></name>
</wpt>

<wpt lat="36.71299743652344" lon="138.0255584716797">
 <time>2015-12-06T02:24:46ZZ</time>
 <name><![CDATA[一之坂]]></name>
</wpt>

<wpt lat="36.71052932739258" lon="138.0306396484375">
 <time>2015-12-06T02:24:46ZZ</time>
 <name><![CDATA[峠下]]></name>
</wpt>

<wpt lat="36.71173858642578" lon="138.0309600830078">
 <time>2015-12-06T02:24:46ZZ</time>
 <name><![CDATA[峠]]></name>
</wpt>

<wpt lat="36.71337127685547" lon="138.03294372558594">
 <time>2015-12-06T02:24:46ZZ</time>
 <name><![CDATA[中田入口]]></name>
</wpt>

<wpt lat="36.71446990966797" lon="138.03585815429688">
 <time>2015-12-06T02:24:46ZZ</time>
 <name><![CDATA[中田下]]></name>
</wpt>

<wpt lat="36.71491241455078" lon="138.0369110107422">
 <time>2015-12-06T02:24:46ZZ</time>
 <name><![CDATA[奥中田]]></name>
</wpt>

<wpt lat="36.71546173095703" lon="138.03524780273438">
 <time>2015-12-06T02:24:46ZZ</time>
 <name><![CDATA[中田]]></name>
</wpt>

<wpt lat="36.716590881347656" lon="138.03712463378906">
 <time>2015-12-06T02:24:46ZZ</time>
 <name><![CDATA[中田上]]></name>
</wpt>

<wpt lat="36.71782302856445" lon="138.03868103027344">
 <time>2015-12-06T02:24:46ZZ</time>
 <name><![CDATA[財門入口]]></name>
</wpt>

<wpt lat="36.72085189819336" lon="138.04222106933594">
 <time>2015-12-06T02:24:46ZZ</time>
 <name><![CDATA[菅谷地]]></name>
</wpt>

<wpt lat="36.26844024658203" lon="137.9407501220703">
 <time>2015-12-06T02:24:46ZZ</time>
 <name><![CDATA[ラーラ松本]]></name>
</wpt>

<wpt lat="36.264286041259766" lon="137.9426727294922">
 <time>2015-12-06T02:24:46ZZ</time>
 <name><![CDATA[平瀬川西公民館]]></name>
</wpt>

<wpt lat="36.25874710083008" lon="137.94229125976562">
 <time>2015-12-06T02:24:46ZZ</time>
 <name><![CDATA[八幡原]]></name>
</wpt>

<wpt lat="36.25482940673828" lon="137.9415283203125">
 <time>2015-12-06T02:24:46ZZ</time>
 <name><![CDATA[武宮前]]></name>
</wpt>

<wpt lat="36.25173568725586" lon="137.94192504882812">
 <time>2015-12-06T02:24:46ZZ</time>
 <name><![CDATA[島内出張所]]></name>
</wpt>

<wpt lat="36.24964141845703" lon="137.9442901611328">
 <time>2015-12-06T02:24:46ZZ</time>
 <name><![CDATA[東方]]></name>
</wpt>

<wpt lat="36.24721908569336" lon="137.94497680664062">
 <time>2015-12-06T02:24:46ZZ</time>
 <name><![CDATA[島内駅]]></name>
</wpt>

<wpt lat="36.24462890625" lon="137.94468688964844">
 <time>2015-12-06T02:24:46ZZ</time>
 <name><![CDATA[音文ホール]]></name>
</wpt>

<wpt lat="36.23994445800781" lon="137.9459686279297">
 <time>2015-12-06T02:24:46ZZ</time>
 <name><![CDATA[松島郵便局]]></name>
</wpt>

<wpt lat="36.23665237426758" lon="137.95086669921875">
 <time>2015-12-06T02:24:46ZZ</time>
 <name><![CDATA[蛇原橋]]></name>
</wpt>

<wpt lat="36.23597717285156" lon="137.95465087890625">
 <time>2015-12-06T02:24:46ZZ</time>
 <name><![CDATA[丸の内病院]]></name>
</wpt>

<wpt lat="36.23654556274414" lon="137.94676208496094">
 <time>2015-12-06T02:24:46ZZ</time>
 <name><![CDATA[堀米新田]]></name>
</wpt>

<wpt lat="36.236900329589844" lon="137.94036865234375">
 <time>2015-12-06T02:24:46ZZ</time>
 <name><![CDATA[松本あいらんど郵便局]]></name>
</wpt>

<wpt lat="36.23687744140625" lon="137.93304443359375">
 <time>2015-12-06T02:24:46ZZ</time>
 <name><![CDATA[学校前]]></name>
</wpt>

<wpt lat="36.2364501953125" lon="137.92408752441406">
 <time>2015-12-06T02:24:46ZZ</time>
 <name><![CDATA[小宮]]></name>
</wpt>

<wpt lat="36.23810577392578" lon="137.9163818359375">
 <time>2015-12-06T02:24:46ZZ</time>
 <name><![CDATA[小宮団地]]></name>
</wpt>

<wpt lat="36.23352813720703" lon="137.92178344726562">
 <time>2015-12-06T02:24:46ZZ</time>
 <name><![CDATA[小宮協栄公民館]]></name>
</wpt>

<wpt lat="36.231040954589844" lon="137.91998291015625">
 <time>2015-12-06T02:24:46ZZ</time>
 <name><![CDATA[小宮会館]]></name>
</wpt>

<wpt lat="36.227760314941406" lon="137.9208526611328">
 <time>2015-12-06T02:24:46ZZ</time>
 <name><![CDATA[第2コムハウス]]></name>
</wpt>

<wpt lat="36.221317291259766" lon="137.91452026367188">
 <time>2015-12-06T02:24:46ZZ</time>
 <name><![CDATA[新村出張所]]></name>
</wpt>

<wpt lat="36.219940185546875" lon="137.9134521484375">
 <time>2015-12-06T02:24:46ZZ</time>
 <name><![CDATA[北新・松本大学前]]></name>
</wpt>

<wpt lat="36.216182708740234" lon="137.913818359375">
 <time>2015-12-06T02:24:46ZZ</time>
 <name><![CDATA[本郷集落センター]]></name>
</wpt>

<wpt lat="36.215415954589844" lon="137.9175567626953">
 <time>2015-12-06T02:24:46ZZ</time>
 <name><![CDATA[東新公民館]]></name>
</wpt>

<wpt lat="36.209197998046875" lon="137.9170379638672">
 <time>2015-12-06T02:24:46ZZ</time>
 <name><![CDATA[芝沢小学校]]></name>
</wpt>

<wpt lat="36.20640563964844" lon="137.91700744628906">
 <time>2015-12-06T02:24:46ZZ</time>
 <name><![CDATA[窪田空穂記念館]]></name>
</wpt>

<wpt lat="36.20276641845703" lon="137.91543579101562">
 <time>2015-12-06T02:24:46ZZ</time>
 <name><![CDATA[和田出張所]]></name>
</wpt>

<wpt lat="36.200767517089844" lon="137.9181365966797">
 <time>2015-12-06T02:24:46ZZ</time>
 <name><![CDATA[和田中]]></name>
</wpt>

<wpt lat="36.200199127197266" lon="137.92726135253906">
 <time>2015-12-06T02:24:46ZZ</time>
 <name><![CDATA[梶海渡橋]]></name>
</wpt>

<wpt lat="36.200660705566406" lon="137.931884765625">
 <time>2015-12-06T02:24:46ZZ</time>
 <name><![CDATA[大久保配水地]]></name>
</wpt>

<wpt lat="36.200050354003906" lon="137.9353485107422">
 <time>2015-12-06T02:24:46ZZ</time>
 <name><![CDATA[雇用促進住宅]]></name>
</wpt>

<wpt lat="36.199642181396484" lon="137.93890380859375">
 <time>2015-12-06T02:24:46ZZ</time>
 <name><![CDATA[下二子公園]]></name>
</wpt>

<wpt lat="36.19886016845703" lon="137.94227600097656">
 <time>2015-12-06T02:24:46ZZ</time>
 <name><![CDATA[二子橋]]></name>
</wpt>

<wpt lat="36.19807815551758" lon="137.9456024169922">
 <time>2015-12-06T02:24:46ZZ</time>
 <name><![CDATA[下二子]]></name>
</wpt>

<wpt lat="36.194969177246094" lon="137.94554138183594">
 <time>2015-12-06T02:24:46ZZ</time>
 <name><![CDATA[二子団地]]></name>
</wpt>

<wpt lat="36.200950622558594" lon="137.95083618164062">
 <time>2015-12-06T02:24:46ZZ</time>
 <name><![CDATA[野溝西]]></name>
</wpt>

<wpt lat="36.20037078857422" lon="137.9540252685547">
 <time>2015-12-06T02:24:46ZZ</time>
 <name><![CDATA[中川病院]]></name>
</wpt>

<wpt lat="36.20268630981445" lon="137.95742797851562">
 <time>2015-12-06T02:24:46ZZ</time>
 <name><![CDATA[野溝木工]]></name>
</wpt>

<wpt lat="36.20162582397461" lon="137.9609832763672">
 <time>2015-12-06T02:24:46ZZ</time>
 <name><![CDATA[野溝郵便局]]></name>
</wpt>

<wpt lat="36.19837188720703" lon="137.9607696533203">
 <time>2015-12-06T02:24:46ZZ</time>
 <name><![CDATA[芝宮公園]]></name>
</wpt>

<wpt lat="36.191566467285156" lon="137.96139526367188">
 <time>2015-12-06T02:24:46ZZ</time>
 <name><![CDATA[平田駅]]></name>
</wpt>

<wpt lat="36.24284744262695" lon="137.89096069335938">
 <time>2015-12-06T02:24:46ZZ</time>
 <name><![CDATA[カインズホーム梓川店]]></name>
</wpt>

<wpt lat="36.241844177246094" lon="137.88839721679688">
 <time>2015-12-06T02:24:46ZZ</time>
 <name><![CDATA[倭北団地]]></name>
</wpt>

<wpt lat="36.240997314453125" lon="137.88626098632812">
 <time>2015-12-06T02:24:46ZZ</time>
 <name><![CDATA[梓川消防署]]></name>
</wpt>

<wpt lat="36.23588943481445" lon="137.88282775878906">
 <time>2015-12-06T02:24:46ZZ</time>
 <name><![CDATA[野々宮神社]]></name>
</wpt>

<wpt lat="36.23533248901367" lon="137.87847900390625">
 <time>2015-12-06T02:24:46ZZ</time>
 <name><![CDATA[下角北]]></name>
</wpt>

<wpt lat="36.23438262939453" lon="137.87643432617188">
 <time>2015-12-06T02:24:46ZZ</time>
 <name><![CDATA[下角農村公園]]></name>
</wpt>

<wpt lat="36.232582092285156" lon="137.8733367919922">
 <time>2015-12-06T02:24:46ZZ</time>
 <name><![CDATA[下角西]]></name>
</wpt>

<wpt lat="36.23033142089844" lon="137.86753845214844">
 <time>2015-12-06T02:24:46ZZ</time>
 <name><![CDATA[下角南]]></name>
</wpt>

<wpt lat="36.22685241699219" lon="137.86587524414062">
 <time>2015-12-06T02:24:46ZZ</time>
 <name><![CDATA[上角集落センター]]></name>
</wpt>

<wpt lat="36.22773742675781" lon="137.86163330078125">
 <time>2015-12-06T02:24:46ZZ</time>
 <name><![CDATA[角影台集会所]]></name>
</wpt>

<wpt lat="36.224693298339844" lon="137.86843872070312">
 <time>2015-12-06T02:24:46ZZ</time>
 <name><![CDATA[梓川支所]]></name>
</wpt>

<wpt lat="36.22065734863281" lon="137.86572265625">
 <time>2015-12-06T02:24:46ZZ</time>
 <name><![CDATA[JAあづみ梓支所]]></name>
</wpt>

<wpt lat="36.22079086303711" lon="137.86886596679688">
 <time>2015-12-06T02:24:46ZZ</time>
 <name><![CDATA[下立田集落センター]]></name>
</wpt>

<wpt lat="36.223609924316406" lon="137.878662109375">
 <time>2015-12-06T02:24:46ZZ</time>
 <name><![CDATA[正覚寺]]></name>
</wpt>

<wpt lat="36.22563552856445" lon="137.8817138671875">
 <time>2015-12-06T02:24:46ZZ</time>
 <name><![CDATA[上大妻]]></name>
</wpt>

<wpt lat="36.2227897644043" lon="137.88621520996094">
 <time>2015-12-06T02:24:46ZZ</time>
 <name><![CDATA[梓水苑]]></name>
</wpt>

<wpt lat="36.224708557128906" lon="137.8938446044922">
 <time>2015-12-06T02:24:46ZZ</time>
 <name><![CDATA[工業団地]]></name>
</wpt>

<wpt lat="36.226654052734375" lon="137.89605712890625">
 <time>2015-12-06T02:24:46ZZ</time>
 <name><![CDATA[倭橋北]]></name>
</wpt>

<wpt lat="36.229881286621094" lon="137.89300537109375">
 <time>2015-12-06T02:24:46ZZ</time>
 <name><![CDATA[倭南]]></name>
</wpt>

<wpt lat="36.23397445678711" lon="137.89144897460938">
 <time>2015-12-06T02:24:46ZZ</time>
 <name><![CDATA[倭公園]]></name>
</wpt>

<wpt lat="36.237083435058594" lon="137.8910369873047">
 <time>2015-12-06T02:24:46ZZ</time>
 <name><![CDATA[薬師堂]]></name>
</wpt>

<wpt lat="36.239837646484375" lon="137.89068603515625">
 <time>2015-12-06T02:24:46ZZ</time>
 <name><![CDATA[倭北]]></name>
</wpt>

<wpt lat="36.22276306152344" lon="137.89913940429688">
 <time>2015-12-06T02:24:46ZZ</time>
 <name><![CDATA[倭橋南]]></name>
</wpt>

<wpt lat="36.22026062011719" lon="137.90176391601562">
 <time>2015-12-06T02:24:46ZZ</time>
 <name><![CDATA[上新東]]></name>
</wpt>

<wpt lat="36.21609115600586" lon="137.90538024902344">
 <time>2015-12-06T02:24:46ZZ</time>
 <name><![CDATA[新村駅]]></name>
</wpt>

<wpt lat="36.21327209472656" lon="137.90457153320312">
 <time>2015-12-06T02:24:46ZZ</time>
 <name><![CDATA[南新中]]></name>
</wpt>

<wpt lat="36.20937728881836" lon="137.90460205078125">
 <time>2015-12-06T02:24:46ZZ</time>
 <name><![CDATA[和田蘇我]]></name>
</wpt>

<wpt lat="36.207523345947266" lon="137.90823364257812">
 <time>2015-12-06T02:24:46ZZ</time>
 <name><![CDATA[和田衣外]]></name>
</wpt>

<wpt lat="36.20134353637695" lon="137.90994262695312">
 <time>2015-12-06T02:24:46ZZ</time>
 <name><![CDATA[和田殿]]></name>
</wpt>

<wpt lat="36.19764709472656" lon="137.90875244140625">
 <time>2015-12-06T02:24:46ZZ</time>
 <name><![CDATA[南和田公民館]]></name>
</wpt>

<wpt lat="36.191768646240234" lon="137.9073944091797">
 <time>2015-12-06T02:24:46ZZ</time>
 <name><![CDATA[和田太子堂]]></name>
</wpt>

<wpt lat="36.18917465209961" lon="137.90895080566406">
 <time>2015-12-06T02:24:46ZZ</time>
 <name><![CDATA[神林川西]]></name>
</wpt>

<wpt lat="36.18518829345703" lon="137.89927673339844">
 <time>2015-12-06T02:24:46ZZ</time>
 <name><![CDATA[臨空工業団地]]></name>
</wpt>

<wpt lat="36.18235397338867" lon="137.89234924316406">
 <time>2015-12-06T02:24:46ZZ</time>
 <name><![CDATA[アイシティ21]]></name>
</wpt>

<wpt lat="36.16463851928711" lon="137.8939666748047">
 <time>2015-12-06T02:24:46ZZ</time>
 <name><![CDATA[野口北]]></name>
</wpt>

<wpt lat="36.15802001953125" lon="137.89202880859375">
 <time>2015-12-06T02:24:46ZZ</time>
 <name><![CDATA[野口西]]></name>
</wpt>

<wpt lat="36.155609130859375" lon="137.906005859375">
 <time>2015-12-06T02:24:46ZZ</time>
 <name><![CDATA[南耕地]]></name>
</wpt>

<wpt lat="36.15582275390625" lon="137.9087677001953">
 <time>2015-12-06T02:24:46ZZ</time>
 <name><![CDATA[藤岡前]]></name>
</wpt>

<wpt lat="36.15922546386719" lon="137.91119384765625">
 <time>2015-12-06T02:24:46ZZ</time>
 <name><![CDATA[下今井]]></name>
</wpt>

<wpt lat="36.1644401550293" lon="137.9133758544922">
 <time>2015-12-06T02:24:46ZZ</time>
 <name><![CDATA[北耕地]]></name>
</wpt>

<wpt lat="36.1627197265625" lon="137.91819763183594">
 <time>2015-12-06T02:24:46ZZ</time>
 <name><![CDATA[信州スカイパーク体育センター]]></name>
</wpt>

<wpt lat="36.16330337524414" lon="137.92755126953125">
 <time>2015-12-06T02:24:46ZZ</time>
 <name><![CDATA[松本空港入口]]></name>
</wpt>

<wpt lat="36.164268493652344" lon="137.9309844970703">
 <time>2015-12-06T02:24:46ZZ</time>
 <name><![CDATA[空港東区]]></name>
</wpt>

<wpt lat="36.16523742675781" lon="137.934814453125">
 <time>2015-12-06T02:24:46ZZ</time>
 <name><![CDATA[巾下]]></name>
</wpt>

<wpt lat="36.16818618774414" lon="137.93565368652344">
 <time>2015-12-06T02:24:46ZZ</time>
 <name><![CDATA[下小俣北]]></name>
</wpt>

<wpt lat="36.17210006713867" lon="137.9361572265625">
 <time>2015-12-06T02:24:46ZZ</time>
 <name><![CDATA[笹賀出張所南]]></name>
</wpt>

<wpt lat="36.1709098815918" lon="137.92958068847656">
 <time>2015-12-06T02:24:46ZZ</time>
 <name><![CDATA[やまびこドーム]]></name>
</wpt>

<wpt lat="36.175079345703125" lon="137.92881774902344">
 <time>2015-12-06T02:24:46ZZ</time>
 <name><![CDATA[菅野小学校南]]></name>
</wpt>

<wpt lat="36.17888259887695" lon="137.9303741455078">
 <time>2015-12-06T02:24:46ZZ</time>
 <name><![CDATA[菅野簡易郵便局]]></name>
</wpt>

<wpt lat="36.18246078491211" lon="137.93545532226562">
 <time>2015-12-06T02:24:46ZZ</time>
 <name><![CDATA[金毘羅神社]]></name>
</wpt>

<wpt lat="36.183319091796875" lon="137.93984985351562">
 <time>2015-12-06T02:24:46ZZ</time>
 <name><![CDATA[上二子公民館]]></name>
</wpt>

<wpt lat="36.184539794921875" lon="137.9456329345703">
 <time>2015-12-06T02:24:46ZZ</time>
 <name><![CDATA[上二子橋西]]></name>
</wpt>

<wpt lat="36.1841926574707" lon="137.94873046875">
 <time>2015-12-06T02:24:46ZZ</time>
 <name><![CDATA[上二子橋東]]></name>
</wpt>

<wpt lat="36.18096160888672" lon="137.95001220703125">
 <time>2015-12-06T02:24:46ZZ</time>
 <name><![CDATA[流通団地南]]></name>
</wpt>

<wpt lat="36.17558288574219" lon="137.95098876953125">
 <time>2015-12-06T02:24:46ZZ</time>
 <name><![CDATA[医師会医療センター南分室]]></name>
</wpt>

<wpt lat="36.17497634887695" lon="137.95684814453125">
 <time>2015-12-06T02:24:46ZZ</time>
 <name><![CDATA[村井駅]]></name>
</wpt>

<wpt lat="36.17431640625" lon="137.96316528320312">
 <time>2015-12-06T02:24:46ZZ</time>
 <name><![CDATA[村井松本病院前]]></name>
</wpt>

<wpt lat="36.17673873901367" lon="137.96295166015625">
 <time>2015-12-06T02:24:46ZZ</time>
 <name><![CDATA[イオンタウン]]></name>
</wpt>

<wpt lat="36.04205322265625" lon="137.64634704589844">
 <time>2015-12-06T02:24:46ZZ</time>
 <name><![CDATA[川浦]]></name>
</wpt>

<wpt lat="36.046077728271484" lon="137.66851806640625">
 <time>2015-12-06T02:24:46ZZ</time>
 <name><![CDATA[保平上]]></name>
</wpt>

<wpt lat="36.04585266113281" lon="137.67051696777344">
 <time>2015-12-06T02:24:46ZZ</time>
 <name><![CDATA[保平]]></name>
</wpt>

<wpt lat="36.04636001586914" lon="137.67410278320312">
 <time>2015-12-06T02:24:46ZZ</time>
 <name><![CDATA[奥神谷]]></name>
</wpt>

<wpt lat="36.049190521240234" lon="137.67955017089844">
 <time>2015-12-06T02:24:46ZZ</time>
 <name><![CDATA[神谷]]></name>
</wpt>

<wpt lat="36.05180358886719" lon="137.6818084716797">
 <time>2015-12-06T02:24:46ZZ</time>
 <name><![CDATA[下神谷]]></name>
</wpt>

<wpt lat="36.0470085144043" lon="137.70761108398438">
 <time>2015-12-06T02:24:46ZZ</time>
 <name><![CDATA[野麦峠スキー場]]></name>
</wpt>

<wpt lat="36.046234130859375" lon="137.701904296875">
 <time>2015-12-06T02:24:46ZZ</time>
 <name><![CDATA[運動広場]]></name>
</wpt>

<wpt lat="36.0416145324707" lon="137.70152282714844">
 <time>2015-12-06T02:24:46ZZ</time>
 <name><![CDATA[奈川高原入口]]></name>
</wpt>

<wpt lat="36.04865264892578" lon="137.6902618408203">
 <time>2015-12-06T02:24:46ZZ</time>
 <name><![CDATA[坂ノ曽]]></name>
</wpt>

<wpt lat="36.058876037597656" lon="137.68824768066406">
 <time>2015-12-06T02:24:46ZZ</time>
 <name><![CDATA[曽倉]]></name>
</wpt>

<wpt lat="36.05574035644531" lon="137.68621826171875">
 <time>2015-12-06T02:24:46ZZ</time>
 <name><![CDATA[寄合渡]]></name>
</wpt>

<wpt lat="36.05715560913086" lon="137.6864471435547">
 <time>2015-12-06T02:24:46ZZ</time>
 <name><![CDATA[丸中前]]></name>
</wpt>

<wpt lat="36.05945587158203" lon="137.68553161621094">
 <time>2015-12-06T02:24:46ZZ</time>
 <name><![CDATA[大平]]></name>
</wpt>

<wpt lat="36.06456756591797" lon="137.68533325195312">
 <time>2015-12-06T02:24:46ZZ</time>
 <name><![CDATA[曽倉沢]]></name>
</wpt>

<wpt lat="36.06829833984375" lon="137.6856689453125">
 <time>2015-12-06T02:24:46ZZ</time>
 <name><![CDATA[追平]]></name>
</wpt>

<wpt lat="36.0733757019043" lon="137.6850128173828">
 <time>2015-12-06T02:24:46ZZ</time>
 <name><![CDATA[金原]]></name>
</wpt>

<wpt lat="36.07527542114258" lon="137.6844482421875">
 <time>2015-12-06T02:24:46ZZ</time>
 <name><![CDATA[金原下]]></name>
</wpt>

<wpt lat="36.0830192565918" lon="137.68148803710938">
 <time>2015-12-06T02:24:46ZZ</time>
 <name><![CDATA[学校口]]></name>
</wpt>

<wpt lat="36.08528518676758" lon="137.68255615234375">
 <time>2015-12-06T02:24:46ZZ</time>
 <name><![CDATA[学校前]]></name>
</wpt>

<wpt lat="36.088741302490234" lon="137.6824951171875">
 <time>2015-12-06T02:24:46ZZ</time>
 <name><![CDATA[文化センター]]></name>
</wpt>

<wpt lat="36.09053039550781" lon="137.68284606933594">
 <time>2015-12-06T02:24:46ZZ</time>
 <name><![CDATA[古宿]]></name>
</wpt>

<wpt lat="36.087764739990234" lon="137.68017578125">
 <time>2015-12-06T02:24:46ZZ</time>
 <name><![CDATA[黒川渡]]></name>
</wpt>

<wpt lat="36.08349609375" lon="137.66165161132812">
 <time>2015-12-06T02:24:46ZZ</time>
 <name><![CDATA[奈川温泉]]></name>
</wpt>

<wpt lat="36.08515167236328" lon="137.66549682617188">
 <time>2015-12-06T02:24:46ZZ</time>
 <name><![CDATA[小黒川橋]]></name>
</wpt>

<wpt lat="36.087642669677734" lon="137.66957092285156">
 <time>2015-12-06T02:24:46ZZ</time>
 <name><![CDATA[下道]]></name>
</wpt>

<wpt lat="36.08952713012695" lon="137.6803436279297">
 <time>2015-12-06T02:24:46ZZ</time>
 <name><![CDATA[診療所前]]></name>
</wpt>

<wpt lat="36.09174346923828" lon="137.68064880371094">
 <time>2015-12-06T02:24:46ZZ</time>
 <name><![CDATA[黒川渡下]]></name>
</wpt>

<wpt lat="36.092586517333984" lon="137.68190002441406">
 <time>2015-12-06T02:24:46ZZ</time>
 <name><![CDATA[古宿下]]></name>
</wpt>

<wpt lat="36.09524917602539" lon="137.6847686767578">
 <time>2015-12-06T02:24:46ZZ</time>
 <name><![CDATA[中地川]]></name>
</wpt>

<wpt lat="36.09981155395508" lon="137.68695068359375">
 <time>2015-12-06T02:24:46ZZ</time>
 <name><![CDATA[田ノ萱上]]></name>
</wpt>

<wpt lat="36.128726959228516" lon="137.71717834472656">
 <time>2015-12-06T02:24:46ZZ</time>
 <name><![CDATA[宮ノ下]]></name>
</wpt>

<wpt lat="36.10430908203125" lon="137.69122314453125">
 <time>2015-12-06T02:24:46ZZ</time>
 <name><![CDATA[田ノ萱]]></name>
</wpt>

<wpt lat="36.1290397644043" lon="137.7193145751953">
 <time>2015-12-06T02:24:46ZZ</time>
 <name><![CDATA[入山]]></name>
</wpt>

<wpt lat="36.13153839111328" lon="137.71900939941406">
 <time>2015-12-06T02:24:46ZZ</time>
 <name><![CDATA[奈川渡ダム]]></name>
</wpt>

<wpt lat="36.19010543823242" lon="137.82167053222656">
 <time>2015-12-06T02:24:46ZZ</time>
 <name><![CDATA[新島々]]></name>
</wpt>

<wpt lat="36.39696502685547" lon="138.24974060058594">
 <time>2015-12-06T02:24:46ZZ</time>
 <name><![CDATA[上田駅]]></name>
</wpt>

<wpt lat="36.39759063720703" lon="138.25244140625">
 <time>2015-12-06T02:24:46ZZ</time>
 <name><![CDATA[鷹匠町]]></name>
</wpt>

<wpt lat="36.399810791015625" lon="138.25160217285156">
 <time>2015-12-06T02:24:46ZZ</time>
 <name><![CDATA[松尾町]]></name>
</wpt>

<wpt lat="36.400047302246094" lon="138.25418090820312">
 <time>2015-12-06T02:24:46ZZ</time>
 <name><![CDATA[海野町]]></name>
</wpt>

<wpt lat="36.39837646484375" lon="138.2545928955078">
 <time>2015-12-06T02:24:46ZZ</time>
 <name><![CDATA[横町]]></name>
</wpt>

<wpt lat="36.39490509033203" lon="138.25616455078125">
 <time>2015-12-06T02:24:46ZZ</time>
 <name><![CDATA[笠原工業前]]></name>
</wpt>

<wpt lat="36.39288330078125" lon="138.258056640625">
 <time>2015-12-06T02:24:46ZZ</time>
 <name><![CDATA[イオン上田ショッピングセンター前]]></name>
</wpt>

<wpt lat="36.39519119262695" lon="138.25961303710938">
 <time>2015-12-06T02:24:46ZZ</time>
 <name><![CDATA[東高校入口]]></name>
</wpt>

<wpt lat="36.40079116821289" lon="138.25973510742188">
 <time>2015-12-06T02:24:46ZZ</time>
 <name><![CDATA[文化会館合庁前]]></name>
</wpt>

<wpt lat="36.405662536621094" lon="138.26007080078125">
 <time>2015-12-06T02:24:46ZZ</time>
 <name><![CDATA[下川原柳]]></name>
</wpt>

<wpt lat="36.40898513793945" lon="138.2624053955078">
 <time>2015-12-06T02:24:46ZZ</time>
 <name><![CDATA[染谷丘高校前]]></name>
</wpt>

<wpt lat="36.412715911865234" lon="138.26437377929688">
 <time>2015-12-06T02:24:46ZZ</time>
 <name><![CDATA[山口]]></name>
</wpt>

<wpt lat="36.41335678100586" lon="138.26187133789062">
 <time>2015-12-06T02:24:46ZZ</time>
 <name><![CDATA[山口西]]></name>
</wpt>

<wpt lat="36.4135856628418" lon="138.2587890625">
 <time>2015-12-06T02:24:46ZZ</time>
 <name><![CDATA[大星東]]></name>
</wpt>

<wpt lat="36.41265106201172" lon="138.25550842285156">
 <time>2015-12-06T02:24:46ZZ</time>
 <name><![CDATA[北小学校前]]></name>
</wpt>

<wpt lat="36.410377502441406" lon="138.25418090820312">
 <time>2015-12-06T02:24:46ZZ</time>
 <name><![CDATA[新田]]></name>
</wpt>

<wpt lat="36.4105224609375" lon="138.25180053710938">
 <time>2015-12-06T02:24:46ZZ</time>
 <name><![CDATA[山洋電気前]]></name>
</wpt>

<wpt lat="36.41225814819336" lon="138.2506866455078">
 <time>2015-12-06T02:24:46ZZ</time>
 <name><![CDATA[長野病院]]></name>
</wpt>

<wpt lat="36.41142272949219" lon="138.25001525878906">
 <time>2015-12-06T02:24:46ZZ</time>
 <name><![CDATA[緑が丘]]></name>
</wpt>

<wpt lat="36.413490295410156" lon="138.24844360351562">
 <time>2015-12-06T02:24:46ZZ</time>
 <name><![CDATA[緑が丘北]]></name>
</wpt>

<wpt lat="36.41353988647461" lon="138.24624633789062">
 <time>2015-12-06T02:24:46ZZ</time>
 <name><![CDATA[緑が丘西]]></name>
</wpt>

<wpt lat="36.409969329833984" lon="138.24697875976562">
 <time>2015-12-06T02:24:46ZZ</time>
 <name><![CDATA[花園西]]></name>
</wpt>

<wpt lat="36.40564727783203" lon="138.2486114501953">
 <time>2015-12-06T02:24:46ZZ</time>
 <name><![CDATA[北大手]]></name>
</wpt>

<wpt lat="36.4048957824707" lon="138.252685546875">
 <time>2015-12-06T02:24:46ZZ</time>
 <name><![CDATA[木町]]></name>
</wpt>

<wpt lat="36.403175354003906" lon="138.25335693359375">
 <time>2015-12-06T02:24:46ZZ</time>
 <name><![CDATA[原町]]></name>
</wpt>

<wpt lat="36.402587890625" lon="138.247802734375">
 <time>2015-12-06T02:24:46ZZ</time>
 <name><![CDATA[公園市役所前]]></name>
</wpt>

<wpt lat="36.40027618408203" lon="138.24652099609375">
 <time>2015-12-06T02:24:46ZZ</time>
 <name><![CDATA[高砂殿前]]></name>
</wpt>

<wpt lat="36.40216064453125" lon="138.2440948486328">
 <time>2015-12-06T02:24:46ZZ</time>
 <name><![CDATA[お城下]]></name>
</wpt>

<wpt lat="36.40271759033203" lon="138.24256896972656">
 <time>2015-12-06T02:24:46ZZ</time>
 <name><![CDATA[市民体育館入口]]></name>
</wpt>

<wpt lat="36.405189514160156" lon="138.23690795898438">
 <time>2015-12-06T02:24:46ZZ</time>
 <name><![CDATA[玉姫殿前]]></name>
</wpt>

<wpt lat="36.40260314941406" lon="138.23434448242188">
 <time>2015-12-06T02:24:46ZZ</time>
 <name><![CDATA[高齢者福祉センター]]></name>
</wpt>

<wpt lat="36.40990447998047" lon="138.22125244140625">
 <time>2015-12-06T02:24:46ZZ</time>
 <name><![CDATA[アクアプラザ上田]]></name>
</wpt>

<wpt lat="36.410884857177734" lon="138.22633361816406">
 <time>2015-12-06T02:24:46ZZ</time>
 <name><![CDATA[卸団地南]]></name>
</wpt>

<wpt lat="36.41569900512695" lon="138.2217254638672">
 <time>2015-12-06T02:24:46ZZ</time>
 <name><![CDATA[生協診療所入口]]></name>
</wpt>

<wpt lat="36.4171257019043" lon="138.2154083251953">
 <time>2015-12-06T02:24:46ZZ</time>
 <name><![CDATA[塩尻]]></name>
</wpt>

<wpt lat="36.41537094116211" lon="138.21192932128906">
 <time>2015-12-06T02:24:46ZZ</time>
 <name><![CDATA[日清製粉前]]></name>
</wpt>

<wpt lat="36.41539001464844" lon="138.2085723876953">
 <time>2015-12-06T02:24:46ZZ</time>
 <name><![CDATA[西上田駅南口]]></name>
</wpt>

<wpt lat="36.41786193847656" lon="138.20481872558594">
 <time>2015-12-06T02:24:46ZZ</time>
 <name><![CDATA[中島入口]]></name>
</wpt>

<wpt lat="36.41445541381836" lon="138.2269287109375">
 <time>2015-12-06T02:24:46ZZ</time>
 <name><![CDATA[下秋和]]></name>
</wpt>

<wpt lat="36.41496276855469" lon="138.22987365722656">
 <time>2015-12-06T02:24:46ZZ</time>
 <name><![CDATA[長野計器前]]></name>
</wpt>

<wpt lat="36.41393280029297" lon="138.23326110839844">
 <time>2015-12-06T02:24:46ZZ</time>
 <name><![CDATA[秋和保育園前]]></name>
</wpt>

<wpt lat="36.41288375854492" lon="138.23687744140625">
 <time>2015-12-06T02:24:46ZZ</time>
 <name><![CDATA[常磐町]]></name>
</wpt>

<wpt lat="36.41193389892578" lon="138.23814392089844">
 <time>2015-12-06T02:24:46ZZ</time>
 <name><![CDATA[生塚]]></name>
</wpt>

<wpt lat="36.41083526611328" lon="138.2400665283203">
 <time>2015-12-06T02:24:46ZZ</time>
 <name><![CDATA[警察署南]]></name>
</wpt>

<wpt lat="36.410953521728516" lon="138.24412536621094">
 <time>2015-12-06T02:24:46ZZ</time>
 <name><![CDATA[産院前]]></name>
</wpt>

<wpt lat="36.408546447753906" lon="138.2508544921875">
 <time>2015-12-06T02:24:46ZZ</time>
 <name><![CDATA[八幡前]]></name>
</wpt>

<wpt lat="36.32300567626953" lon="138.2703094482422">
 <time>2015-12-06T02:24:46ZZ</time>
 <name><![CDATA[自治センター]]></name>
</wpt>

<wpt lat="36.32270812988281" lon="138.2718048095703">
 <time>2015-12-06T02:24:46ZZ</time>
 <name><![CDATA[六丁目]]></name>
</wpt>

<wpt lat="36.32115936279297" lon="138.2725372314453">
 <time>2015-12-06T02:24:46ZZ</time>
 <name><![CDATA[丸子駅前]]></name>
</wpt>

<wpt lat="36.31841278076172" lon="138.27078247070312">
 <time>2015-12-06T02:24:46ZZ</time>
 <name><![CDATA[三反田]]></name>
</wpt>

<wpt lat="36.310325622558594" lon="138.2697296142578">
 <time>2015-12-06T02:24:46ZZ</time>
 <name><![CDATA[深山入口]]></name>
</wpt>

<wpt lat="36.30278015136719" lon="138.27085876464844">
 <time>2015-12-06T02:24:46ZZ</time>
 <name><![CDATA[深山]]></name>
</wpt>

<wpt lat="36.304832458496094" lon="138.27105712890625">
 <time>2015-12-06T02:24:46ZZ</time>
 <name><![CDATA[深山向井入口]]></name>
</wpt>

<wpt lat="36.31196212768555" lon="138.267333984375">
 <time>2015-12-06T02:24:46ZZ</time>
 <name><![CDATA[道久団地入口]]></name>
</wpt>

<wpt lat="36.314022064208984" lon="138.26461791992188">
 <time>2015-12-06T02:24:46ZZ</time>
 <name><![CDATA[腰越]]></name>
</wpt>

<wpt lat="36.3158073425293" lon="138.26571655273438">
 <time>2015-12-06T02:24:46ZZ</time>
 <name><![CDATA[尚武橋]]></name>
</wpt>

<wpt lat="36.324703216552734" lon="138.27182006835938">
 <time>2015-12-06T02:24:46ZZ</time>
 <name><![CDATA[五丁目]]></name>
</wpt>

<wpt lat="36.32744216918945" lon="138.2720947265625">
 <time>2015-12-06T02:24:46ZZ</time>
 <name><![CDATA[中央病院前]]></name>
</wpt>

<wpt lat="36.32948684692383" lon="138.27169799804688">
 <time>2015-12-06T02:24:46ZZ</time>
 <name><![CDATA[修学館高校入口]]></name>
</wpt>

<wpt lat="36.33234786987305" lon="138.2723388671875">
 <time>2015-12-06T02:24:46ZZ</time>
 <name><![CDATA[中丸子]]></name>
</wpt>

<wpt lat="36.33424758911133" lon="138.27340698242188">
 <time>2015-12-06T02:24:46ZZ</time>
 <name><![CDATA[稲荷前]]></name>
</wpt>

<wpt lat="36.33731460571289" lon="138.271240234375">
 <time>2015-12-06T02:24:46ZZ</time>
 <name><![CDATA[ベルプラザ前]]></name>
</wpt>

<wpt lat="36.33252716064453" lon="138.27163696289062">
 <time>2015-12-06T02:24:46ZZ</time>
 <name><![CDATA[中丸子寿町]]></name>
</wpt>

<wpt lat="36.332977294921875" lon="138.26988220214844">
 <time>2015-12-06T02:24:46ZZ</time>
 <name><![CDATA[寿町]]></name>
</wpt>

<wpt lat="36.33331298828125" lon="138.26856994628906">
 <time>2015-12-06T02:24:46ZZ</time>
 <name><![CDATA[中丸子団地]]></name>
</wpt>

<wpt lat="36.33469772338867" lon="138.26608276367188">
 <time>2015-12-06T02:24:46ZZ</time>
 <name><![CDATA[上組]]></name>
</wpt>

<wpt lat="36.3374137878418" lon="138.26492309570312">
 <time>2015-12-06T02:24:46ZZ</time>
 <name><![CDATA[中山]]></name>
</wpt>

<wpt lat="36.345703125" lon="138.26368713378906">
 <time>2015-12-06T02:24:46ZZ</time>
 <name><![CDATA[南原・北原]]></name>
</wpt>

<wpt lat="36.34771728515625" lon="138.26539611816406">
 <time>2015-12-06T02:24:46ZZ</time>
 <name><![CDATA[飯沼西]]></name>
</wpt>

<wpt lat="36.349456787109375" lon="138.26983642578125">
 <time>2015-12-06T02:24:46ZZ</time>
 <name><![CDATA[とんぼハウス]]></name>
</wpt>

<wpt lat="36.35073471069336" lon="138.2704620361328">
 <time>2015-12-06T02:24:46ZZ</time>
 <name><![CDATA[熊の森センター]]></name>
</wpt>

<wpt lat="36.351417541503906" lon="138.27301025390625">
 <time>2015-12-06T02:24:46ZZ</time>
 <name><![CDATA[営農センター]]></name>
</wpt>

<wpt lat="36.35789489746094" lon="138.2771453857422">
 <time>2015-12-06T02:24:46ZZ</time>
 <name><![CDATA[二本木]]></name>
</wpt>

<wpt lat="36.36171340942383" lon="138.2734832763672">
 <time>2015-12-06T02:24:46ZZ</time>
 <name><![CDATA[鳥羽]]></name>
</wpt>

<wpt lat="36.363346099853516" lon="138.27320861816406">
 <time>2015-12-06T02:24:46ZZ</time>
 <name><![CDATA[尾野山]]></name>
</wpt>

<wpt lat="36.36215591430664" lon="138.27703857421875">
 <time>2015-12-06T02:24:46ZZ</time>
 <name><![CDATA[信州国際音楽村]]></name>
</wpt>

<wpt lat="36.365665435791016" lon="138.2811279296875">
 <time>2015-12-06T02:24:46ZZ</time>
 <name><![CDATA[ビュータウン茂沢]]></name>
</wpt>

<wpt lat="36.36186218261719" lon="138.28323364257812">
 <time>2015-12-06T02:24:46ZZ</time>
 <name><![CDATA[茂沢公民館]]></name>
</wpt>

<wpt lat="36.35842514038086" lon="138.28175354003906">
 <time>2015-12-06T02:24:46ZZ</time>
 <name><![CDATA[茂沢]]></name>
</wpt>

<wpt lat="36.351802825927734" lon="138.2782745361328">
 <time>2015-12-06T02:24:46ZZ</time>
 <name><![CDATA[北中学校]]></name>
</wpt>

<wpt lat="36.35215377807617" lon="138.28298950195312">
 <time>2015-12-06T02:24:46ZZ</time>
 <name><![CDATA[長瀬中央]]></name>
</wpt>

<wpt lat="36.35002899169922" lon="138.2843017578125">
 <time>2015-12-06T02:24:46ZZ</time>
 <name><![CDATA[老人福祉センター]]></name>
</wpt>

<wpt lat="36.348045349121094" lon="138.28330993652344">
 <time>2015-12-06T02:24:46ZZ</time>
 <name><![CDATA[上長瀬]]></name>
</wpt>

<wpt lat="36.343502044677734" lon="138.27850341796875">
 <time>2015-12-06T02:24:46ZZ</time>
 <name><![CDATA[下丸子団地入口]]></name>
</wpt>

<wpt lat="36.33930206298828" lon="138.2755889892578">
 <time>2015-12-06T02:24:46ZZ</time>
 <name><![CDATA[下丸子]]></name>
</wpt>

<wpt lat="36.346832275390625" lon="138.2888641357422">
 <time>2015-12-06T02:24:46ZZ</time>
 <name><![CDATA[金井・上平入口]]></name>
</wpt>

<wpt lat="36.33694076538086" lon="138.29588317871094">
 <time>2015-12-06T02:24:46ZZ</time>
 <name><![CDATA[練合]]></name>
</wpt>

<wpt lat="36.332847595214844" lon="138.2984161376953">
 <time>2015-12-06T02:24:46ZZ</time>
 <name><![CDATA[藤原田公民館]]></name>
</wpt>

<wpt lat="36.33115005493164" lon="138.30116271972656">
 <time>2015-12-06T02:24:46ZZ</time>
 <name><![CDATA[藤原田]]></name>
</wpt>

<wpt lat="36.34954833984375" lon="138.3095245361328">
 <time>2015-12-06T02:24:46ZZ</time>
 <name><![CDATA[宮平団地入口]]></name>
</wpt>

<wpt lat="36.35139465332031" lon="138.3085174560547">
 <time>2015-12-06T02:24:46ZZ</time>
 <name><![CDATA[南方]]></name>
</wpt>

<wpt lat="36.35427474975586" lon="138.30760192871094">
 <time>2015-12-06T02:24:46ZZ</time>
 <name><![CDATA[南塩川]]></name>
</wpt>

<wpt lat="36.35566711425781" lon="138.30642700195312">
 <time>2015-12-06T02:24:46ZZ</time>
 <name><![CDATA[塩川小学校前]]></name>
</wpt>

<wpt lat="36.358177185058594" lon="138.3029022216797">
 <time>2015-12-06T02:24:46ZZ</time>
 <name><![CDATA[坂井]]></name>
</wpt>

<wpt lat="36.35939025878906" lon="138.2964324951172">
 <time>2015-12-06T02:24:46ZZ</time>
 <name><![CDATA[狐塚]]></name>
</wpt>

<wpt lat="36.36189270019531" lon="138.29844665527344">
 <time>2015-12-06T02:24:46ZZ</time>
 <name><![CDATA[石井団地入口]]></name>
</wpt>

<wpt lat="36.36311340332031" lon="138.2965545654297">
 <time>2015-12-06T02:24:46ZZ</time>
 <name><![CDATA[石井東]]></name>
</wpt>

<wpt lat="36.36396026611328" lon="138.2952880859375">
 <time>2015-12-06T02:24:46ZZ</time>
 <name><![CDATA[石井]]></name>
</wpt>

<wpt lat="36.36253356933594" lon="138.2931365966797">
 <time>2015-12-06T02:24:46ZZ</time>
 <name><![CDATA[北街道]]></name>
</wpt>

<wpt lat="36.358585357666016" lon="138.29132080078125">
 <time>2015-12-06T02:24:46ZZ</time>
 <name><![CDATA[東街道]]></name>
</wpt>

<wpt lat="36.35573959350586" lon="138.28982543945312">
 <time>2015-12-06T02:24:46ZZ</time>
 <name><![CDATA[東組]]></name>
</wpt>

<wpt lat="36.35356521606445" lon="138.286865234375">
 <time>2015-12-06T02:24:46ZZ</time>
 <name><![CDATA[コミュニティーセンター下長瀬]]></name>
</wpt>

<wpt lat="36.351924896240234" lon="138.28538513183594">
 <time>2015-12-06T02:24:46ZZ</time>
 <name><![CDATA[農協長瀬支所]]></name>
</wpt>

<wpt lat="36.41884994506836" lon="138.2055206298828">
 <time>2015-12-06T02:24:46ZZ</time>
 <name><![CDATA[下塩尻]]></name>
</wpt>

<wpt lat="36.41250228881836" lon="138.2306671142578">
 <time>2015-12-06T02:24:46ZZ</time>
 <name><![CDATA[秋和]]></name>
</wpt>

<wpt lat="36.40926742553711" lon="138.2403106689453">
 <time>2015-12-06T02:24:46ZZ</time>
 <name><![CDATA[警察署入口]]></name>
</wpt>

<wpt lat="36.41328430175781" lon="138.24993896484375">
 <time>2015-12-06T02:24:46ZZ</time>
 <name><![CDATA[長野病院前]]></name>
</wpt>

<wpt lat="36.39845275878906" lon="138.25750732421875">
 <time>2015-12-06T02:24:46ZZ</time>
 <name><![CDATA[昭和薬局前]]></name>
</wpt>

<wpt lat="36.39696502685547" lon="138.24974060058594">
 <time>2015-12-06T02:24:46ZZ</time>
 <name><![CDATA[上田駅お城口]]></name>
</wpt>

<wpt lat="36.39802169799805" lon="138.24636840820312">
 <time>2015-12-06T02:24:46ZZ</time>
 <name><![CDATA[日本タバコ前]]></name>
</wpt>

<wpt lat="36.39029312133789" lon="138.24879455566406">
 <time>2015-12-06T02:24:46ZZ</time>
 <name><![CDATA[諏訪形]]></name>
</wpt>

<wpt lat="36.385345458984375" lon="138.25070190429688">
 <time>2015-12-06T02:24:46ZZ</time>
 <name><![CDATA[小牧]]></name>
</wpt>

<wpt lat="36.386356353759766" lon="138.2435760498047">
 <time>2015-12-06T02:24:46ZZ</time>
 <name><![CDATA[県営水道]]></name>
</wpt>

<wpt lat="36.38631057739258" lon="138.23736572265625">
 <time>2015-12-06T02:24:46ZZ</time>
 <name><![CDATA[朝日が丘]]></name>
</wpt>

<wpt lat="36.396827697753906" lon="138.22987365722656">
 <time>2015-12-06T02:24:46ZZ</time>
 <name><![CDATA[中之条]]></name>
</wpt>

<wpt lat="36.398799896240234" lon="138.23001098632812">
 <time>2015-12-06T02:24:46ZZ</time>
 <name><![CDATA[千曲高校]]></name>
</wpt>

<wpt lat="36.36880874633789" lon="138.18862915039062">
 <time>2015-12-06T02:24:46ZZ</time>
 <name><![CDATA[田中]]></name>
</wpt>

<wpt lat="36.36338424682617" lon="138.18270874023438">
 <time>2015-12-06T02:24:46ZZ</time>
 <name><![CDATA[舞田]]></name>
</wpt>

<wpt lat="36.36135482788086" lon="138.1763458251953">
 <time>2015-12-06T02:24:46ZZ</time>
 <name><![CDATA[八木沢]]></name>
</wpt>

<wpt lat="36.358551025390625" lon="138.17213439941406">
 <time>2015-12-06T02:24:46ZZ</time>
 <name><![CDATA[天神前]]></name>
</wpt>

<wpt lat="36.35717010498047" lon="138.16946411132812">
 <time>2015-12-06T02:24:46ZZ</time>
 <name><![CDATA[八木沢西]]></name>
</wpt>

<wpt lat="36.352657318115234" lon="138.1617431640625">
 <time>2015-12-06T02:24:46ZZ</time>
 <name><![CDATA[別所温泉駅]]></name>
</wpt>

<wpt lat="36.354286193847656" lon="138.16395568847656">
 <time>2015-12-06T02:24:46ZZ</time>
 <name><![CDATA[比蘭樹]]></name>
</wpt>

<wpt lat="36.349517822265625" lon="138.17066955566406">
 <time>2015-12-06T02:24:46ZZ</time>
 <name><![CDATA[山田]]></name>
</wpt>

<wpt lat="36.34183120727539" lon="138.1774139404297">
 <time>2015-12-06T02:24:46ZZ</time>
 <name><![CDATA[紺屋村]]></name>
</wpt>

<wpt lat="36.3388557434082" lon="138.1786346435547">
 <time>2015-12-06T02:24:46ZZ</time>
 <name><![CDATA[樋ノ口]]></name>
</wpt>

<wpt lat="36.34334945678711" lon="138.18121337890625">
 <time>2015-12-06T02:24:46ZZ</time>
 <name><![CDATA[手塚公民館]]></name>
</wpt>

<wpt lat="36.34514236450195" lon="138.1820068359375">
 <time>2015-12-06T02:24:46ZZ</time>
 <name><![CDATA[手塚]]></name>
</wpt>

<wpt lat="36.34834671020508" lon="138.1858367919922">
 <time>2015-12-06T02:24:46ZZ</time>
 <name><![CDATA[王子]]></name>
</wpt>

<wpt lat="36.349300384521484" lon="138.18820190429688">
 <time>2015-12-06T02:24:46ZZ</time>
 <name><![CDATA[新町公民館]]></name>
</wpt>

<wpt lat="36.35069274902344" lon="138.1910858154297">
 <time>2015-12-06T02:24:46ZZ</time>
 <name><![CDATA[新町]]></name>
</wpt>

<wpt lat="36.353599548339844" lon="138.1952362060547">
 <time>2015-12-06T02:24:46ZZ</time>
 <name><![CDATA[十人]]></name>
</wpt>

<wpt lat="36.35520935058594" lon="138.19708251953125">
 <time>2015-12-06T02:24:46ZZ</time>
 <name><![CDATA[十人王子神社]]></name>
</wpt>

<wpt lat="36.35915756225586" lon="138.19903564453125">
 <time>2015-12-06T02:24:46ZZ</time>
 <name><![CDATA[塩田支所]]></name>
</wpt>

<wpt lat="36.35993194580078" lon="138.19898986816406">
 <time>2015-12-06T02:24:46ZZ</time>
 <name><![CDATA[塩田病院]]></name>
</wpt>

<wpt lat="36.36091995239258" lon="138.198974609375">
 <time>2015-12-06T02:24:46ZZ</time>
 <name><![CDATA[塩田町駅]]></name>
</wpt>

<wpt lat="36.363216400146484" lon="138.1992645263672">
 <time>2015-12-06T02:24:46ZZ</time>
 <name><![CDATA[塩田農協]]></name>
</wpt>

<wpt lat="36.36757278442383" lon="138.19683837890625">
 <time>2015-12-06T02:24:46ZZ</time>
 <name><![CDATA[学海団地]]></name>
</wpt>

<wpt lat="36.37050247192383" lon="138.19607543945312">
 <time>2015-12-06T02:24:46ZZ</time>
 <name><![CDATA[保野]]></name>
</wpt>

<wpt lat="36.37468719482422" lon="138.19239807128906">
 <time>2015-12-06T02:24:46ZZ</time>
 <name><![CDATA[川西病院]]></name>
</wpt>

<wpt lat="36.373226165771484" lon="138.20053100585938">
 <time>2015-12-06T02:24:46ZZ</time>
 <name><![CDATA[保野東]]></name>
</wpt>

<wpt lat="36.37431716918945" lon="138.20608520507812">
 <time>2015-12-06T02:24:46ZZ</time>
 <name><![CDATA[上小島]]></name>
</wpt>

<wpt lat="36.37776565551758" lon="138.2090301513672">
 <time>2015-12-06T02:24:46ZZ</time>
 <name><![CDATA[小島]]></name>
</wpt>

<wpt lat="36.38743209838867" lon="138.21292114257812">
 <time>2015-12-06T02:24:46ZZ</time>
 <name><![CDATA[しおだ野ショッピングセンター]]></name>
</wpt>

<wpt lat="36.39032745361328" lon="138.2178192138672">
 <time>2015-12-06T02:24:46ZZ</time>
 <name><![CDATA[川辺農協前]]></name>
</wpt>

<wpt lat="36.390750885009766" lon="138.2207489013672">
 <time>2015-12-06T02:24:46ZZ</time>
 <name><![CDATA[上田原駅前]]></name>
</wpt>

<wpt lat="36.39141845703125" lon="138.22525024414062">
 <time>2015-12-06T02:24:46ZZ</time>
 <name><![CDATA[阪美精密前]]></name>
</wpt>

<wpt lat="36.39204025268555" lon="138.22964477539062">
 <time>2015-12-06T02:24:46ZZ</time>
 <name><![CDATA[三角]]></name>
</wpt>

<wpt lat="36.39265823364258" lon="138.23379516601562">
 <time>2015-12-06T02:24:46ZZ</time>
 <name><![CDATA[三好町2丁目]]></name>
</wpt>

<wpt lat="36.39308547973633" lon="138.2367706298828">
 <time>2015-12-06T02:24:46ZZ</time>
 <name><![CDATA[四中前]]></name>
</wpt>

<wpt lat="36.394371032714844" lon="138.2424774169922">
 <time>2015-12-06T02:24:46ZZ</time>
 <name><![CDATA[三好町1丁目]]></name>
</wpt>

<wpt lat="36.39413070678711" lon="138.2582550048828">
 <time>2015-12-06T02:24:46ZZ</time>
 <name><![CDATA[常入]]></name>
</wpt>

<wpt lat="36.394405364990234" lon="138.26023864746094">
 <time>2015-12-06T02:24:46ZZ</time>
 <name><![CDATA[日の出町]]></name>
</wpt>

<wpt lat="36.39421081542969" lon="138.26498413085938">
 <time>2015-12-06T02:24:46ZZ</time>
 <name><![CDATA[小林脳外科]]></name>
</wpt>

<wpt lat="36.394142150878906" lon="138.2677764892578">
 <time>2015-12-06T02:24:46ZZ</time>
 <name><![CDATA[東公園前]]></name>
</wpt>

<wpt lat="36.390647888183594" lon="138.27609252929688">
 <time>2015-12-06T02:24:46ZZ</time>
 <name><![CDATA[旧SBC放送局前]]></name>
</wpt>

<wpt lat="36.39036178588867" lon="138.28257751464844">
 <time>2015-12-06T02:24:46ZZ</time>
 <name><![CDATA[岩門]]></name>
</wpt>

<wpt lat="36.3928337097168" lon="138.2886505126953">
 <time>2015-12-06T02:24:46ZZ</time>
 <name><![CDATA[笹井]]></name>
</wpt>

<wpt lat="36.38990020751953" lon="138.2909393310547">
 <time>2015-12-06T02:24:46ZZ</time>
 <name><![CDATA[林之郷]]></name>
</wpt>

<wpt lat="36.38486862182617" lon="138.287841796875">
 <time>2015-12-06T02:24:46ZZ</time>
 <name><![CDATA[上青木]]></name>
</wpt>

<wpt lat="36.383487701416016" lon="138.28453063964844">
 <time>2015-12-06T02:24:46ZZ</time>
 <name><![CDATA[下青木]]></name>
</wpt>

<wpt lat="36.38253402709961" lon="138.29071044921875">
 <time>2015-12-06T02:24:46ZZ</time>
 <name><![CDATA[みすず台]]></name>
</wpt>

<wpt lat="36.386165618896484" lon="138.2961883544922">
 <time>2015-12-06T02:24:46ZZ</time>
 <name><![CDATA[ひかり]]></name>
</wpt>

<wpt lat="36.38570785522461" lon="138.29864501953125">
 <time>2015-12-06T02:24:46ZZ</time>
 <name><![CDATA[町吉田]]></name>
</wpt>

<wpt lat="36.37974166870117" lon="138.29261779785156">
 <time>2015-12-06T02:24:46ZZ</time>
 <name><![CDATA[下吉田生活センター]]></name>
</wpt>

<wpt lat="36.376686096191406" lon="138.28785705566406">
 <time>2015-12-06T02:24:46ZZ</time>
 <name><![CDATA[みすず台南]]></name>
</wpt>

<wpt lat="36.369144439697266" lon="138.296875">
 <time>2015-12-06T02:24:46ZZ</time>
 <name><![CDATA[大屋駅]]></name>
</wpt>

<wpt lat="36.372005462646484" lon="138.29315185546875">
 <time>2015-12-06T02:24:46ZZ</time>
 <name><![CDATA[大屋北]]></name>
</wpt>

<wpt lat="36.37229537963867" lon="138.29074096679688">
 <time>2015-12-06T02:24:46ZZ</time>
 <name><![CDATA[トウトク前]]></name>
</wpt>

<wpt lat="36.37348937988281" lon="138.2845458984375">
 <time>2015-12-06T02:24:46ZZ</time>
 <name><![CDATA[岩下]]></name>
</wpt>

<wpt lat="36.37613296508789" lon="138.2787322998047">
 <time>2015-12-06T02:24:46ZZ</time>
 <name><![CDATA[蒼久保]]></name>
</wpt>

<wpt lat="36.37757110595703" lon="138.27610778808594">
 <time>2015-12-06T02:24:46ZZ</time>
 <name><![CDATA[神川]]></name>
</wpt>

<wpt lat="36.379512786865234" lon="138.2730255126953">
 <time>2015-12-06T02:24:46ZZ</time>
 <name><![CDATA[信濃国分寺駅前]]></name>
</wpt>

<wpt lat="36.380859375" lon="138.27122497558594">
 <time>2015-12-06T02:24:46ZZ</time>
 <name><![CDATA[八日堂入口]]></name>
</wpt>

<wpt lat="36.384342193603516" lon="138.2671661376953">
 <time>2015-12-06T02:24:46ZZ</time>
 <name><![CDATA[日信工業前]]></name>
</wpt>

<wpt lat="36.387996673583984" lon="138.2627410888672">
 <time>2015-12-06T02:24:46ZZ</time>
 <name><![CDATA[上堀]]></name>
</wpt>

<wpt lat="36.38962936401367" lon="138.2611541748047">
 <time>2015-12-06T02:24:46ZZ</time>
 <name><![CDATA[日本無線前]]></name>
</wpt>

<wpt lat="36.39288330078125" lon="138.258056640625">
 <time>2015-12-06T02:24:46ZZ</time>
 <name><![CDATA[昭栄前]]></name>
</wpt>

<wpt lat="36.37120819091797" lon="138.21615600585938">
 <time>2015-12-06T02:24:46ZZ</time>
 <name><![CDATA[大学駅前]]></name>
</wpt>

<wpt lat="36.36320495605469" lon="138.218017578125">
 <time>2015-12-06T02:24:46ZZ</time>
 <name><![CDATA[下之郷]]></name>
</wpt>

<wpt lat="36.361053466796875" lon="138.2188720703125">
 <time>2015-12-06T02:24:46ZZ</time>
 <name><![CDATA[生島足島神社]]></name>
</wpt>

<wpt lat="36.3514289855957" lon="138.2335662841797">
 <time>2015-12-06T02:24:46ZZ</time>
 <name><![CDATA[久保]]></name>
</wpt>

<wpt lat="36.35375213623047" lon="138.22891235351562">
 <time>2015-12-06T02:24:46ZZ</time>
 <name><![CDATA[下組公民館]]></name>
</wpt>

<wpt lat="36.34882736206055" lon="138.22930908203125">
 <time>2015-12-06T02:24:46ZZ</time>
 <name><![CDATA[中村入口]]></name>
</wpt>

<wpt lat="36.345184326171875" lon="138.2288055419922">
 <time>2015-12-06T02:24:46ZZ</time>
 <name><![CDATA[富士山]]></name>
</wpt>

<wpt lat="36.33716583251953" lon="138.22885131835938">
 <time>2015-12-06T02:24:46ZZ</time>
 <name><![CDATA[水出商店前]]></name>
</wpt>

<wpt lat="36.3363151550293" lon="138.2281494140625">
 <time>2015-12-06T02:24:46ZZ</time>
 <name><![CDATA[奈良尾]]></name>
</wpt>

<wpt lat="36.33595657348633" lon="138.22177124023438">
 <time>2015-12-06T02:24:46ZZ</time>
 <name><![CDATA[平井寺]]></name>
</wpt>

<wpt lat="36.34425354003906" lon="138.22280883789062">
 <time>2015-12-06T02:24:46ZZ</time>
 <name><![CDATA[上鈴子]]></name>
</wpt>

<wpt lat="36.3486442565918" lon="138.2199249267578">
 <time>2015-12-06T02:24:46ZZ</time>
 <name><![CDATA[東塩田小学校]]></name>
</wpt>

<wpt lat="36.349239349365234" lon="138.21414184570312">
 <time>2015-12-06T02:24:46ZZ</time>
 <name><![CDATA[石神]]></name>
</wpt>

<wpt lat="36.348365783691406" lon="138.20628356933594">
 <time>2015-12-06T02:24:46ZZ</time>
 <name><![CDATA[柳沢]]></name>
</wpt>

<wpt lat="36.34858322143555" lon="138.20245361328125">
 <time>2015-12-06T02:24:46ZZ</time>
 <name><![CDATA[柳沢西]]></name>
</wpt>

<wpt lat="36.34990692138672" lon="138.19451904296875">
 <time>2015-12-06T02:24:46ZZ</time>
 <name><![CDATA[東前山]]></name>
</wpt>

<wpt lat="36.36359405517578" lon="138.20419311523438">
 <time>2015-12-06T02:24:46ZZ</time>
 <name><![CDATA[五加]]></name>
</wpt>

<wpt lat="36.367713928222656" lon="138.2079620361328">
 <time>2015-12-06T02:24:46ZZ</time>
 <name><![CDATA[八幡神社]]></name>
</wpt>

<wpt lat="36.371395111083984" lon="138.2119598388672">
 <time>2015-12-06T02:24:46ZZ</time>
 <name><![CDATA[下本郷公民館]]></name>
</wpt>

<wpt lat="36.37576675415039" lon="138.21218872070312">
 <time>2015-12-06T02:24:46ZZ</time>
 <name><![CDATA[下本郷]]></name>
</wpt>

<wpt lat="36.37690353393555" lon="138.21563720703125">
 <time>2015-12-06T02:24:46ZZ</time>
 <name><![CDATA[下神畑]]></name>
</wpt>

<wpt lat="36.37862777709961" lon="138.2176971435547">
 <time>2015-12-06T02:24:46ZZ</time>
 <name><![CDATA[神畑]]></name>
</wpt>

<wpt lat="36.38225173950195" lon="138.2187042236328">
 <time>2015-12-06T02:24:46ZZ</time>
 <name><![CDATA[上神畑]]></name>
</wpt>

<wpt lat="36.38664627075195" lon="138.22373962402344">
 <time>2015-12-06T02:24:46ZZ</time>
 <name><![CDATA[月見ヶ丘]]></name>
</wpt>

<wpt lat="36.38788986206055" lon="138.224853515625">
 <time>2015-12-06T02:24:46ZZ</time>
 <name><![CDATA[創造館前]]></name>
</wpt>

<wpt lat="36.39032745361328" lon="138.22854614257812">
 <time>2015-12-06T02:24:46ZZ</time>
 <name><![CDATA[報恩寮前]]></name>
</wpt>

<wpt lat="36.41041564941406" lon="138.2373809814453">
 <time>2015-12-06T02:24:46ZZ</time>
 <name><![CDATA[生塚]]></name>
</wpt>

<wpt lat="36.40413284301758" lon="138.2621612548828">
 <time>2015-12-06T02:24:46ZZ</time>
 <name><![CDATA[上川原柳]]></name>
</wpt>

<wpt lat="36.40229034423828" lon="138.267578125">
 <time>2015-12-06T02:24:46ZZ</time>
 <name><![CDATA[染屋浄水場前]]></name>
</wpt>

<wpt lat="36.404972076416016" lon="138.2752685546875">
 <time>2015-12-06T02:24:46ZZ</time>
 <name><![CDATA[上田検査場前]]></name>
</wpt>

<wpt lat="36.40266036987305" lon="138.28274536132812">
 <time>2015-12-06T02:24:46ZZ</time>
 <name><![CDATA[西野竹]]></name>
</wpt>

<wpt lat="36.409236907958984" lon="138.28334045410156">
 <time>2015-12-06T02:24:46ZZ</time>
 <name><![CDATA[神科農協前]]></name>
</wpt>

<wpt lat="36.40939712524414" lon="138.28587341308594">
 <time>2015-12-06T02:24:46ZZ</time>
 <name><![CDATA[神科小学校前]]></name>
</wpt>

<wpt lat="36.409339904785156" lon="138.28927612304688">
 <time>2015-12-06T02:24:46ZZ</time>
 <name><![CDATA[第12分団前]]></name>
</wpt>

<wpt lat="36.40747833251953" lon="138.29196166992188">
 <time>2015-12-06T02:24:46ZZ</time>
 <name><![CDATA[五中前]]></name>
</wpt>

<wpt lat="36.41300964355469" lon="138.29579162597656">
 <time>2015-12-06T02:24:46ZZ</time>
 <name><![CDATA[富士見台]]></name>
</wpt>

<wpt lat="36.40581130981445" lon="138.2947235107422">
 <time>2015-12-06T02:24:46ZZ</time>
 <name><![CDATA[新屋西]]></name>
</wpt>

<wpt lat="36.40481185913086" lon="138.29624938964844">
 <time>2015-12-06T02:24:46ZZ</time>
 <name><![CDATA[新屋]]></name>
</wpt>

<wpt lat="36.40312957763672" lon="138.30088806152344">
 <time>2015-12-06T02:24:46ZZ</time>
 <name><![CDATA[下郷西]]></name>
</wpt>

<wpt lat="36.391571044921875" lon="138.30242919921875">
 <time>2015-12-06T02:24:46ZZ</time>
 <name><![CDATA[ショッピングパーク前]]></name>
</wpt>

<wpt lat="36.397769927978516" lon="138.30364990234375">
 <time>2015-12-06T02:24:46ZZ</time>
 <name><![CDATA[漆戸]]></name>
</wpt>

<wpt lat="36.401695251464844" lon="138.3045654296875">
 <time>2015-12-06T02:24:46ZZ</time>
 <name><![CDATA[下郷]]></name>
</wpt>

<wpt lat="36.404869079589844" lon="138.3065185546875">
 <time>2015-12-06T02:24:46ZZ</time>
 <name><![CDATA[宮前]]></name>
</wpt>

<wpt lat="36.40974044799805" lon="138.30674743652344">
 <time>2015-12-06T02:24:46ZZ</time>
 <name><![CDATA[殿城農協]]></name>
</wpt>

<wpt lat="36.41499328613281" lon="138.30540466308594">
 <time>2015-12-06T02:24:46ZZ</time>
 <name><![CDATA[まほろばの里交流会館]]></name>
</wpt>

<wpt lat="36.41702651977539" lon="138.30706787109375">
 <time>2015-12-06T02:24:46ZZ</time>
 <name><![CDATA[赤坂口]]></name>
</wpt>

<wpt lat="36.417259216308594" lon="138.29534912109375">
 <time>2015-12-06T02:24:46ZZ</time>
 <name><![CDATA[伊勢山]]></name>
</wpt>

<wpt lat="36.41755676269531" lon="138.29212951660156">
 <time>2015-12-06T02:24:46ZZ</time>
 <name><![CDATA[戸石・米山城入口]]></name>
</wpt>

<wpt lat="36.418766021728516" lon="138.28489685058594">
 <time>2015-12-06T02:24:46ZZ</time>
 <name><![CDATA[金剛寺]]></name>
</wpt>

<wpt lat="36.4125862121582" lon="138.27749633789062">
 <time>2015-12-06T02:24:46ZZ</time>
 <name><![CDATA[大久保]]></name>
</wpt>

<wpt lat="36.41029739379883" lon="138.2740936279297">
 <time>2015-12-06T02:24:46ZZ</time>
 <name><![CDATA[大久保入口]]></name>
</wpt>

<wpt lat="36.40971374511719" lon="138.271484375">
 <time>2015-12-06T02:24:46ZZ</time>
 <name><![CDATA[金井]]></name>
</wpt>

<wpt lat="36.40812301635742" lon="138.26834106445312">
 <time>2015-12-06T02:24:46ZZ</time>
 <name><![CDATA[上蛇沢]]></name>
</wpt>

<wpt lat="36.406639099121094" lon="138.26490783691406">
 <time>2015-12-06T02:24:46ZZ</time>
 <name><![CDATA[蛇沢]]></name>
</wpt>

<wpt lat="36.405696868896484" lon="138.26158142089844">
 <time>2015-12-06T02:24:46ZZ</time>
 <name><![CDATA[川原柳]]></name>
</wpt>

<wpt lat="36.40552520751953" lon="138.25401306152344">
 <time>2015-12-06T02:24:46ZZ</time>
 <name><![CDATA[房山]]></name>
</wpt>

<wpt lat="36.402313232421875" lon="138.24871826171875">
 <time>2015-12-06T02:24:46ZZ</time>
 <name><![CDATA[市役所前]]></name>
</wpt>

<wpt lat="36.41825485229492" lon="138.14590454101562">
 <time>2015-12-06T02:24:46ZZ</time>
 <name><![CDATA[入組]]></name>
</wpt>

<wpt lat="36.416603088378906" lon="138.1474609375">
 <time>2015-12-06T02:24:46ZZ</time>
 <name><![CDATA[中畝]]></name>
</wpt>

<wpt lat="36.4122428894043" lon="138.14944458007812">
 <time>2015-12-06T02:24:46ZZ</time>
 <name><![CDATA[中組]]></name>
</wpt>

<wpt lat="36.4084587097168" lon="138.15162658691406">
 <time>2015-12-06T02:24:46ZZ</time>
 <name><![CDATA[原組]]></name>
</wpt>

<wpt lat="36.405147552490234" lon="138.1553497314453">
 <time>2015-12-06T02:24:46ZZ</time>
 <name><![CDATA[本組]]></name>
</wpt>

<wpt lat="36.402774810791016" lon="138.1591339111328">
 <time>2015-12-06T02:24:46ZZ</time>
 <name><![CDATA[長谷]]></name>
</wpt>

<wpt lat="36.40110778808594" lon="138.1614227294922">
 <time>2015-12-06T02:24:46ZZ</time>
 <name><![CDATA[御屋敷]]></name>
</wpt>

<wpt lat="36.398841857910156" lon="138.16441345214844">
 <time>2015-12-06T02:24:46ZZ</time>
 <name><![CDATA[日影]]></name>
</wpt>

<wpt lat="36.39754104614258" lon="138.16615295410156">
 <time>2015-12-06T02:24:46ZZ</time>
 <name><![CDATA[田中組]]></name>
</wpt>

<wpt lat="36.395538330078125" lon="138.17098999023438">
 <time>2015-12-06T02:24:46ZZ</time>
 <name><![CDATA[押切]]></name>
</wpt>

<wpt lat="36.393985748291016" lon="138.1753387451172">
 <time>2015-12-06T02:24:46ZZ</time>
 <name><![CDATA[池下]]></name>
</wpt>

<wpt lat="36.391929626464844" lon="138.17906188964844">
 <time>2015-12-06T02:24:46ZZ</time>
 <name><![CDATA[岳の組]]></name>
</wpt>

<wpt lat="36.38874053955078" lon="138.18272399902344">
 <time>2015-12-06T02:24:46ZZ</time>
 <name><![CDATA[和合]]></name>
</wpt>

<wpt lat="36.38080596923828" lon="138.17398071289062">
 <time>2015-12-06T02:24:46ZZ</time>
 <name><![CDATA[岡]]></name>
</wpt>

<wpt lat="36.36918640136719" lon="138.15701293945312">
 <time>2015-12-06T02:24:46ZZ</time>
 <name><![CDATA[越戸]]></name>
</wpt>

<wpt lat="36.370784759521484" lon="138.1614227294922">
 <time>2015-12-06T02:24:46ZZ</time>
 <name><![CDATA[第1作業所]]></name>
</wpt>

<wpt lat="36.375667572021484" lon="138.1614227294922">
 <time>2015-12-06T02:24:46ZZ</time>
 <name><![CDATA[川西支所]]></name>
</wpt>

<wpt lat="36.37640380859375" lon="138.16390991210938">
 <time>2015-12-06T02:24:46ZZ</time>
 <name><![CDATA[出浦]]></name>
</wpt>

<wpt lat="36.37688446044922" lon="138.1675567626953">
 <time>2015-12-06T02:24:46ZZ</time>
 <name><![CDATA[寺軒町]]></name>
</wpt>

<wpt lat="36.37805938720703" lon="138.17359924316406">
 <time>2015-12-06T02:24:46ZZ</time>
 <name><![CDATA[白銀]]></name>
</wpt>

<wpt lat="36.37978744506836" lon="138.1777801513672">
 <time>2015-12-06T02:24:46ZZ</time>
 <name><![CDATA[花ノ木]]></name>
</wpt>

<wpt lat="36.38151168823242" lon="138.18199157714844">
 <time>2015-12-06T02:24:46ZZ</time>
 <name><![CDATA[川西小入口]]></name>
</wpt>

<wpt lat="36.38338851928711" lon="138.1864776611328">
 <time>2015-12-06T02:24:46ZZ</time>
 <name><![CDATA[小泉]]></name>
</wpt>

<wpt lat="36.38478088378906" lon="138.1898956298828">
 <time>2015-12-06T02:24:46ZZ</time>
 <name><![CDATA[横山入口]]></name>
</wpt>

<wpt lat="36.38705062866211" lon="138.1962127685547">
 <time>2015-12-06T02:24:46ZZ</time>
 <name><![CDATA[古吉町]]></name>
</wpt>

<wpt lat="36.387611389160156" lon="138.20008850097656">
 <time>2015-12-06T02:24:46ZZ</time>
 <name><![CDATA[吉田公民館]]></name>
</wpt>

<wpt lat="36.3882942199707" lon="138.20469665527344">
 <time>2015-12-06T02:24:46ZZ</time>
 <name><![CDATA[福田]]></name>
</wpt>

<wpt lat="36.38898468017578" lon="138.20912170410156">
 <time>2015-12-06T02:24:46ZZ</time>
 <name><![CDATA[宮島]]></name>
</wpt>

<wpt lat="36.392391204833984" lon="138.20957946777344">
 <time>2015-12-06T02:24:46ZZ</time>
 <name><![CDATA[七社宮]]></name>
</wpt>

<wpt lat="36.39474868774414" lon="138.20889282226562">
 <time>2015-12-06T02:24:46ZZ</time>
 <name><![CDATA[築地]]></name>
</wpt>

<wpt lat="36.40323257446289" lon="138.21017456054688">
 <time>2015-12-06T02:24:46ZZ</time>
 <name><![CDATA[県営球場入口]]></name>
</wpt>

<wpt lat="36.40243911743164" lon="138.21327209472656">
 <time>2015-12-06T02:24:46ZZ</time>
 <name><![CDATA[下之条]]></name>
</wpt>

<wpt lat="36.40180587768555" lon="138.21612548828125">
 <time>2015-12-06T02:24:46ZZ</time>
 <name><![CDATA[常福寺]]></name>
</wpt>

<wpt lat="36.40108108520508" lon="138.2205810546875">
 <time>2015-12-06T02:24:46ZZ</time>
 <name><![CDATA[旧小野精工前]]></name>
</wpt>

<wpt lat="36.40000915527344" lon="138.22218322753906">
 <time>2015-12-06T02:24:46ZZ</time>
 <name><![CDATA[千曲町]]></name>
</wpt>

<wpt lat="36.398433685302734" lon="138.2249755859375">
 <time>2015-12-06T02:24:46ZZ</time>
 <name><![CDATA[上田しいのみ園前]]></name>
</wpt>

<wpt lat="36.39738464355469" lon="138.2275390625">
 <time>2015-12-06T02:24:46ZZ</time>
 <name><![CDATA[柳堂]]></name>
</wpt>

<wpt lat="36.395511627197266" lon="138.23561096191406">
 <time>2015-12-06T02:24:46ZZ</time>
 <name><![CDATA[御所]]></name>
</wpt>

<wpt lat="36.39366912841797" lon="138.23934936523438">
 <time>2015-12-06T02:24:46ZZ</time>
 <name><![CDATA[三好町]]></name>
</wpt>

<wpt lat="36.05658721923828" lon="138.04522705078125">
 <time>2015-12-06T02:24:46ZZ</time>
 <name><![CDATA[岡谷駅南口]]></name>
</wpt>

<wpt lat="36.055477142333984" lon="138.044677734375">
 <time>2015-12-06T02:24:46ZZ</time>
 <name><![CDATA[西友前]]></name>
</wpt>

<wpt lat="36.057701110839844" lon="138.0490264892578">
 <time>2015-12-06T02:24:46ZZ</time>
 <name><![CDATA[丸山橋南]]></name>
</wpt>

<wpt lat="36.059810638427734" lon="138.04721069335938">
 <time>2015-12-06T02:24:46ZZ</time>
 <name><![CDATA[童画館通り入口]]></name>
</wpt>

<wpt lat="36.062503814697266" lon="138.0475311279297">
 <time>2015-12-06T02:24:46ZZ</time>
 <name><![CDATA[中央通り三丁目]]></name>
</wpt>

<wpt lat="36.064430236816406" lon="138.04696655273438">
 <time>2015-12-06T02:24:46ZZ</time>
 <name><![CDATA[新屋敷]]></name>
</wpt>

<wpt lat="36.06565475463867" lon="138.04930114746094">
 <time>2015-12-06T02:24:46ZZ</time>
 <name><![CDATA[岡谷病院前]]></name>
</wpt>

<wpt lat="36.06930923461914" lon="138.04737854003906">
 <time>2015-12-06T02:24:46ZZ</time>
 <name><![CDATA[敬念寺前]]></name>
</wpt>

<wpt lat="36.072784423828125" lon="138.044189453125">
 <time>2015-12-06T02:24:46ZZ</time>
 <name><![CDATA[神明町一丁目]]></name>
</wpt>

<wpt lat="36.07727813720703" lon="138.04312133789062">
 <time>2015-12-06T02:24:46ZZ</time>
 <name><![CDATA[神明小学校前]]></name>
</wpt>

<wpt lat="36.08063507080078" lon="138.0426788330078">
 <time>2015-12-06T02:24:46ZZ</time>
 <name><![CDATA[十五社前]]></name>
</wpt>

<wpt lat="36.083221435546875" lon="138.0418701171875">
 <time>2015-12-06T02:24:46ZZ</time>
 <name><![CDATA[今井西公園前]]></name>
</wpt>

<wpt lat="36.08413314819336" lon="138.04409790039062">
 <time>2015-12-06T02:24:46ZZ</time>
 <name><![CDATA[今井西]]></name>
</wpt>

<wpt lat="36.08316421508789" lon="138.0470733642578">
 <time>2015-12-06T02:24:46ZZ</time>
 <name><![CDATA[JA今井支所前]]></name>
</wpt>

<wpt lat="36.0848274230957" lon="138.048828125">
 <time>2015-12-06T02:24:46ZZ</time>
 <name><![CDATA[東今井]]></name>
</wpt>

<wpt lat="36.08770751953125" lon="138.04852294921875">
 <time>2015-12-06T02:24:46ZZ</time>
 <name><![CDATA[今井市民農園前]]></name>
</wpt>

<wpt lat="36.08983612060547" lon="138.0482940673828">
 <time>2015-12-06T02:24:46ZZ</time>
 <name><![CDATA[上の原団地下]]></name>
</wpt>

<wpt lat="36.08980941772461" lon="138.04502868652344">
 <time>2015-12-06T02:24:46ZZ</time>
 <name><![CDATA[上の原団地中]]></name>
</wpt>

<wpt lat="36.08977127075195" lon="138.04266357421875">
 <time>2015-12-06T02:24:46ZZ</time>
 <name><![CDATA[上の原団地上]]></name>
</wpt>

<wpt lat="36.090110778808594" lon="138.05230712890625">
 <time>2015-12-06T02:24:46ZZ</time>
 <name><![CDATA[富士見ヶ丘団地入口]]></name>
</wpt>

<wpt lat="36.09128952026367" lon="138.0537567138672">
 <time>2015-12-06T02:24:46ZZ</time>
 <name><![CDATA[富士見ヶ丘団地上]]></name>
</wpt>

<wpt lat="36.09031295776367" lon="138.05406188964844">
 <time>2015-12-06T02:24:46ZZ</time>
 <name><![CDATA[富士見ヶ丘団地下]]></name>
</wpt>

<wpt lat="36.09098815917969" lon="138.05137634277344">
 <time>2015-12-06T02:24:46ZZ</time>
 <name><![CDATA[出早公園]]></name>
</wpt>

<wpt lat="36.08759689331055" lon="138.0520477294922">
 <time>2015-12-06T02:24:46ZZ</time>
 <name><![CDATA[上手の辻]]></name>
</wpt>

<wpt lat="36.087581634521484" lon="138.0536346435547">
 <time>2015-12-06T02:24:46ZZ</time>
 <name><![CDATA[横川保育園入口]]></name>
</wpt>

<wpt lat="36.08565139770508" lon="138.0558319091797">
 <time>2015-12-06T02:24:46ZZ</time>
 <name><![CDATA[下の辻]]></name>
</wpt>

<wpt lat="36.08462905883789" lon="138.0565948486328">
 <time>2015-12-06T02:24:46ZZ</time>
 <name><![CDATA[横川公会堂]]></name>
</wpt>

<wpt lat="36.083465576171875" lon="138.05760192871094">
 <time>2015-12-06T02:24:46ZZ</time>
 <name><![CDATA[小萩住宅団地前]]></name>
</wpt>

<wpt lat="36.083675384521484" lon="138.05917358398438">
 <time>2015-12-06T02:24:46ZZ</time>
 <name><![CDATA[小萩郵便局前]]></name>
</wpt>

<wpt lat="36.084720611572266" lon="138.0609588623047">
 <time>2015-12-06T02:24:46ZZ</time>
 <name><![CDATA[第10分団屯所前]]></name>
</wpt>

<wpt lat="36.08454513549805" lon="138.0621795654297">
 <time>2015-12-06T02:24:46ZZ</time>
 <name><![CDATA[中村薬師堂下]]></name>
</wpt>

<wpt lat="36.083831787109375" lon="138.06394958496094">
 <time>2015-12-06T02:24:46ZZ</time>
 <name><![CDATA[中村]]></name>
</wpt>

<wpt lat="36.082332611083984" lon="138.0674591064453">
 <time>2015-12-06T02:24:46ZZ</time>
 <name><![CDATA[西小路口]]></name>
</wpt>

<wpt lat="36.082489013671875" lon="138.06983947753906">
 <time>2015-12-06T02:24:46ZZ</time>
 <name><![CDATA[中屋辻]]></name>
</wpt>

<wpt lat="36.08216857910156" lon="138.07138061523438">
 <time>2015-12-06T02:24:46ZZ</time>
 <name><![CDATA[扇橋]]></name>
</wpt>

<wpt lat="36.07988357543945" lon="138.0697021484375">
 <time>2015-12-06T02:24:46ZZ</time>
 <name><![CDATA[スクモ塚前]]></name>
</wpt>

<wpt lat="36.077884674072266" lon="138.0675048828125">
 <time>2015-12-06T02:24:46ZZ</time>
 <name><![CDATA[長地小学校前]]></name>
</wpt>

<wpt lat="36.075687408447266" lon="138.0637664794922">
 <time>2015-12-06T02:24:46ZZ</time>
 <name><![CDATA[柴宮]]></name>
</wpt>

<wpt lat="36.073486328125" lon="138.0650634765625">
 <time>2015-12-06T02:24:46ZZ</time>
 <name><![CDATA[長地中央薬局前]]></name>
</wpt>

<wpt lat="36.07139205932617" lon="138.06610107421875">
 <time>2015-12-06T02:24:46ZZ</time>
 <name><![CDATA[雇用促進住宅入口]]></name>
</wpt>

<wpt lat="36.0695915222168" lon="138.0643768310547">
 <time>2015-12-06T02:24:46ZZ</time>
 <name><![CDATA[ヤマダイ前]]></name>
</wpt>

<wpt lat="36.0682373046875" lon="138.06112670898438">
 <time>2015-12-06T02:24:46ZZ</time>
 <name><![CDATA[西堀区公会所前]]></name>
</wpt>

<wpt lat="36.06730651855469" lon="138.05809020996094">
 <time>2015-12-06T02:24:46ZZ</time>
 <name><![CDATA[山崎医院前]]></name>
</wpt>

<wpt lat="36.06672286987305" lon="138.05572509765625">
 <time>2015-12-06T02:24:46ZZ</time>
 <name><![CDATA[信州計器前]]></name>
</wpt>

<wpt lat="36.065696716308594" lon="138.05332946777344">
 <time>2015-12-06T02:24:46ZZ</time>
 <name><![CDATA[ピア・アピタ東]]></name>
</wpt>

<wpt lat="36.067115783691406" lon="138.04969787597656">
 <time>2015-12-06T02:24:46ZZ</time>
 <name><![CDATA[岡谷市役所正面口]]></name>
</wpt>

<wpt lat="36.059627532958984" lon="138.04879760742188">
 <time>2015-12-06T02:24:46ZZ</time>
 <name><![CDATA[イルフ童画館]]></name>
</wpt>

<wpt lat="36.05448913574219" lon="138.05226135253906">
 <time>2015-12-06T02:24:46ZZ</time>
 <name><![CDATA[下浜区民センター前]]></name>
</wpt>

<wpt lat="36.058265686035156" lon="138.06005859375">
 <time>2015-12-06T02:24:46ZZ</time>
 <name><![CDATA[岡谷南高校前]]></name>
</wpt>

<wpt lat="36.060569763183594" lon="138.0646209716797">
 <time>2015-12-06T02:24:46ZZ</time>
 <name><![CDATA[祐愛病院前]]></name>
</wpt>

<wpt lat="36.06011962890625" lon="138.06764221191406">
 <time>2015-12-06T02:24:46ZZ</time>
 <name><![CDATA[諏訪湖ハイツ]]></name>
</wpt>

<wpt lat="36.062042236328125" lon="138.06764221191406">
 <time>2015-12-06T02:24:46ZZ</time>
 <name><![CDATA[ロマネット前]]></name>
</wpt>

<wpt lat="36.063541412353516" lon="138.06431579589844">
 <time>2015-12-06T02:24:46ZZ</time>
 <name><![CDATA[岡谷東高校前]]></name>
</wpt>

<wpt lat="36.0615119934082" lon="138.05885314941406">
 <time>2015-12-06T02:24:46ZZ</time>
 <name><![CDATA[田中小学校前]]></name>
</wpt>

<wpt lat="36.05917739868164" lon="138.0525665283203">
 <time>2015-12-06T02:24:46ZZ</time>
 <name><![CDATA[田中町交番前]]></name>
</wpt>

<wpt lat="36.06649398803711" lon="138.0488739013672">
 <time>2015-12-06T02:24:46ZZ</time>
 <name><![CDATA[岡谷病院東]]></name>
</wpt>

<wpt lat="36.064170837402344" lon="138.0502471923828">
 <time>2015-12-06T02:24:46ZZ</time>
 <name><![CDATA[中央通り六丁目]]></name>
</wpt>

<wpt lat="36.06067657470703" lon="138.04847717285156">
 <time>2015-12-06T02:24:46ZZ</time>
 <name><![CDATA[中央通り四丁目]]></name>
</wpt>

<wpt lat="36.063663482666016" lon="138.0525665283203">
 <time>2015-12-06T02:24:46ZZ</time>
 <name><![CDATA[向山医院前]]></name>
</wpt>

<wpt lat="36.05912780761719" lon="138.0546112060547">
 <time>2015-12-06T02:24:46ZZ</time>
 <name><![CDATA[田中町二丁目]]></name>
</wpt>

<wpt lat="36.056148529052734" lon="138.05543518066406">
 <time>2015-12-06T02:24:46ZZ</time>
 <name><![CDATA[美謄堂印刷前]]></name>
</wpt>

<wpt lat="36.06415939331055" lon="138.06224060058594">
 <time>2015-12-06T02:24:46ZZ</time>
 <name><![CDATA[岡谷熱処理工業入口]]></name>
</wpt>

<wpt lat="36.06619644165039" lon="138.0606231689453">
 <time>2015-12-06T02:24:46ZZ</time>
 <name><![CDATA[日本青銅前]]></name>
</wpt>

<wpt lat="36.06841278076172" lon="138.05923461914062">
 <time>2015-12-06T02:24:46ZZ</time>
 <name><![CDATA[大光新生前]]></name>
</wpt>

<wpt lat="36.07103729248047" lon="138.05772399902344">
 <time>2015-12-06T02:24:46ZZ</time>
 <name><![CDATA[観音堂入口]]></name>
</wpt>

<wpt lat="36.073150634765625" lon="138.0555877685547">
 <time>2015-12-06T02:24:46ZZ</time>
 <name><![CDATA[小井川区民会館前]]></name>
</wpt>

<wpt lat="36.07487869262695" lon="138.05477905273438">
 <time>2015-12-06T02:24:46ZZ</time>
 <name><![CDATA[金山神社入口]]></name>
</wpt>

<wpt lat="36.07682418823242" lon="138.05393981933594">
 <time>2015-12-06T02:24:46ZZ</time>
 <name><![CDATA[西友北店前]]></name>
</wpt>

<wpt lat="36.0794677734375" lon="138.05235290527344">
 <time>2015-12-06T02:24:46ZZ</time>
 <name><![CDATA[赤羽三丁目]]></name>
</wpt>

<wpt lat="36.08076858520508" lon="138.05404663085938">
 <time>2015-12-06T02:24:46ZZ</time>
 <name><![CDATA[シルキー横河川橋]]></name>
</wpt>

<wpt lat="36.082916259765625" lon="138.0533447265625">
 <time>2015-12-06T02:24:46ZZ</time>
 <name><![CDATA[横河川大橋]]></name>
</wpt>

<wpt lat="36.083648681640625" lon="138.0496826171875">
 <time>2015-12-06T02:24:46ZZ</time>
 <name><![CDATA[今井中山道]]></name>
</wpt>

<wpt lat="36.081756591796875" lon="138.04586791992188">
 <time>2015-12-06T02:24:46ZZ</time>
 <name><![CDATA[今井区公会所前]]></name>
</wpt>

<wpt lat="36.079952239990234" lon="138.04554748535156">
 <time>2015-12-06T02:24:46ZZ</time>
 <name><![CDATA[神明町三丁目]]></name>
</wpt>

<wpt lat="36.07744598388672" lon="138.04563903808594">
 <time>2015-12-06T02:24:46ZZ</time>
 <name><![CDATA[岡工グランド前]]></name>
</wpt>

<wpt lat="36.0743293762207" lon="138.04600524902344">
 <time>2015-12-06T02:24:46ZZ</time>
 <name><![CDATA[丸山整骨院前]]></name>
</wpt>

<wpt lat="36.07261657714844" lon="138.04576110839844">
 <time>2015-12-06T02:24:46ZZ</time>
 <name><![CDATA[西山精密板金前]]></name>
</wpt>

<wpt lat="36.06987380981445" lon="138.0447540283203">
 <time>2015-12-06T02:24:46ZZ</time>
 <name><![CDATA[中部自動車前]]></name>
</wpt>

<wpt lat="36.067989349365234" lon="138.04443359375">
 <time>2015-12-06T02:24:46ZZ</time>
 <name><![CDATA[間下区民センター前]]></name>
</wpt>

<wpt lat="36.06543731689453" lon="138.04237365722656">
 <time>2015-12-06T02:24:46ZZ</time>
 <name><![CDATA[カネルハイツ前]]></name>
</wpt>

<wpt lat="36.063350677490234" lon="138.04052734375">
 <time>2015-12-06T02:24:46ZZ</time>
 <name><![CDATA[滝の沢]]></name>
</wpt>

<wpt lat="36.06116485595703" lon="138.0371856689453">
 <time>2015-12-06T02:24:46ZZ</time>
 <name><![CDATA[夕日山団地]]></name>
</wpt>

<wpt lat="36.0634880065918" lon="138.0377655029297">
 <time>2015-12-06T02:24:46ZZ</time>
 <name><![CDATA[月見ヶ丘団地]]></name>
</wpt>

<wpt lat="36.061458587646484" lon="138.04039001464844">
 <time>2015-12-06T02:24:46ZZ</time>
 <name><![CDATA[山手町]]></name>
</wpt>

<wpt lat="36.05948257446289" lon="138.04205322265625">
 <time>2015-12-06T02:24:46ZZ</time>
 <name><![CDATA[鳴澤口]]></name>
</wpt>

<wpt lat="36.05711364746094" lon="138.04457092285156">
 <time>2015-12-06T02:24:46ZZ</time>
 <name><![CDATA[岡谷駅]]></name>
</wpt>

<wpt lat="36.07175827026367" lon="138.05056762695312">
 <time>2015-12-06T02:24:46ZZ</time>
 <name><![CDATA[加茂町]]></name>
</wpt>

<wpt lat="36.07539367675781" lon="138.04931640625">
 <time>2015-12-06T02:24:46ZZ</time>
 <name><![CDATA[神明町]]></name>
</wpt>

<wpt lat="36.07795333862305" lon="138.0484161376953">
 <time>2015-12-06T02:24:46ZZ</time>
 <name><![CDATA[岡工前]]></name>
</wpt>

<wpt lat="36.079654693603516" lon="138.04783630371094">
 <time>2015-12-06T02:24:46ZZ</time>
 <name><![CDATA[北部中学校前]]></name>
</wpt>

<wpt lat="36.08179473876953" lon="138.04708862304688">
 <time>2015-12-06T02:24:46ZZ</time>
 <name><![CDATA[今井郵便局前]]></name>
</wpt>

<wpt lat="36.077369689941406" lon="138.03353881835938">
 <time>2015-12-06T02:24:46ZZ</time>
 <name><![CDATA[塩嶺病院]]></name>
</wpt>

<wpt lat="36.074310302734375" lon="138.02940368652344">
 <time>2015-12-06T02:24:46ZZ</time>
 <name><![CDATA[内山霊園]]></name>
</wpt>

<wpt lat="36.07258224487305" lon="138.02943420410156">
 <time>2015-12-06T02:24:46ZZ</time>
 <name><![CDATA[アイスアリーナ]]></name>
</wpt>

<wpt lat="36.069828033447266" lon="138.02755737304688">
 <time>2015-12-06T02:24:46ZZ</time>
 <name><![CDATA[やまびこ公園]]></name>
</wpt>