<?xml version="1.0" encoding="UTF-8"?>
<kml xmlns="http://www.opengis.net/kml/2.2">
<Document>
<name><![CDATA[バス停 : 埼玉]]></name>
<Folder>
<name>Placemarks</name>
<Placemark>
<name>六葉</name>
<description></description>
<Point>
<coordinates>138.97291564941406,35.9884147644043,0</coordinates>
</Point>
</Placemark>
<Placemark>
<name>大滝老人福祉センター</name>
<description></description>
<Point>
<coordinates>138.9296875,35.95186996459961,0</coordinates>
</Point>
</Placemark>
<Placemark>
<name>JA二本木支店前</name>
<description></description>
<Point>
<coordinates>139.36228942871094,35.796024322509766,0</coordinates>
</Point>
</Placemark>
<Placemark>
<name>金子駅入口</name>
<description></description>
<Point>
<coordinates>139.33062744140625,35.81203079223633,0</coordinates>
</Point>
</Placemark>
<Placemark>
<name>図書館前</name>
<description></description>
<Point>
<coordinates>139.43087768554688,35.78118896484375,0</coordinates>
</Point>
</Placemark>
<Placemark>
<name>大日堂</name>
<description></description>
<Point>
<coordinates>139.4096221923828,35.78997802734375,0</coordinates>
</Point>
</Placemark>
<Placemark>
<name>北野総合運動場前</name>
<description></description>
<Point>
<coordinates>139.41873168945312,35.79035186767578,0</coordinates>
</Point>
</Placemark>
<Placemark>
<name>平沢記念病院</name>
<description></description>
<Point>
<coordinates>139.418701171875,35.79370880126953,0</coordinates>
</Point>
</Placemark>
<Placemark>
<name>JA三ヶ島支店</name>
<description></description>
<Point>
<coordinates>139.40097045898438,35.79082489013672,0</coordinates>
</Point>
</Placemark>
<Placemark>
<name>三ヶ島小学校</name>
<description></description>
<Point>
<coordinates>139.40419006347656,35.79365921020508,0</coordinates>
</Point>
</Placemark>
<Placemark>
<name>林小学校</name>
<description></description>
<Point>
<coordinates>139.40110778808594,35.80398941040039,0</coordinates>
</Point>
</Placemark>
<Placemark>
<name>十三区集会所前</name>
<description></description>
<Point>
<coordinates>139.40452575683594,35.80621337890625,0</coordinates>
</Point>
</Placemark>
<Placemark>
<name>若狭</name>
<description></description>
<Point>
<coordinates>139.41397094726562,35.8056755065918,0</coordinates>
</Point>
</Placemark>
<Placemark>
<name>所沢ロイヤル病院前</name>
<description></description>
<Point>
<coordinates>139.4207763671875,35.7973747253418,0</coordinates>
</Point>
</Placemark>
<Placemark>
<name>殖産住宅入口</name>
<description></description>
<Point>
<coordinates>139.49949645996094,35.7833137512207,0</coordinates>
</Point>
</Placemark>
<Placemark>
<name>下安松下通り</name>
<description></description>
<Point>
<coordinates>139.50482177734375,35.7852897644043,0</coordinates>
</Point>
</Placemark>
<Placemark>
<name>和田西</name>
<description></description>
<Point>
<coordinates>139.50741577148438,35.78901672363281,0</coordinates>
</Point>
</Placemark>
<Placemark>
<name>和田南会館</name>
<description></description>
<Point>
<coordinates>139.51075744628906,35.79041290283203,0</coordinates>
</Point>
</Placemark>
<Placemark>
<name>和田東</name>
<description></description>
<Point>
<coordinates>139.51400756835938,35.79107666015625,0</coordinates>
</Point>
</Placemark>
<Placemark>
<name>下河原</name>
<description></description>
<Point>
<coordinates>139.50759887695312,35.78612518310547,0</coordinates>
</Point>
</Placemark>
<Placemark>
<name>東所沢保育園</name>
<description></description>
<Point>
<coordinates>139.50457763671875,35.79409408569336,0</coordinates>
</Point>
</Placemark>
<Placemark>
<name>椿峰小学校入口</name>
<description></description>
<Point>
<coordinates>139.42774963378906,35.78095245361328,0</coordinates>
</Point>
</Placemark>
<Placemark>
<name>西武球場前</name>
<description></description>
<Point>
<coordinates>139.41844177246094,35.76944351196289,0</coordinates>
</Point>
</Placemark>
<Placemark>
<name>芸術総合高校</name>
<description></description>
<Point>
<coordinates>139.40557861328125,35.789939880371094,0</coordinates>
</Point>
</Placemark>
<Placemark>
<name>狭山湖口</name>
<description></description>
<Point>
<coordinates>139.41629028320312,35.78962326049805,0</coordinates>
</Point>
</Placemark>
<Placemark>
<name>椿峰中央</name>
<description></description>
<Point>
<coordinates>139.43431091308594,35.78085708618164,0</coordinates>
</Point>
</Placemark>
<Placemark>
<name>中央公園</name>
<description></description>
<Point>
<coordinates>139.43556213378906,35.782936096191406,0</coordinates>
</Point>
</Placemark>
<Placemark>
<name>小手指南</name>
<description></description>
<Point>
<coordinates>139.43959045410156,35.79024887084961,0</coordinates>
</Point>
</Placemark>
<Placemark>
<name>大六天</name>
<description></description>
<Point>
<coordinates>139.4437713623047,35.7912483215332,0</coordinates>
</Point>
</Placemark>
<Placemark>
<name>上新井</name>
<description></description>
<Point>
<coordinates>139.44808959960938,35.792076110839844,0</coordinates>
</Point>
</Placemark>
<Placemark>
<name>六所神社入口</name>
<description></description>
<Point>
<coordinates>139.45262145996094,35.790931701660156,0</coordinates>
</Point>
</Placemark>
<Placemark>
<name>金山町二丁目</name>
<description></description>
<Point>
<coordinates>139.46096801757812,35.79130554199219,0</coordinates>
</Point>
</Placemark>
<Placemark>
<name>金山町五丁目</name>
<description></description>
<Point>
<coordinates>139.46270751953125,35.79158020019531,0</coordinates>
</Point>
</Placemark>
<Placemark>
<name>吾妻</name>
<description></description>
<Point>
<coordinates>139.4721221923828,35.780765533447266,0</coordinates>
</Point>
</Placemark>
<Placemark>
<name>北秋津</name>
<description></description>
<Point>
<coordinates>139.47763061523438,35.78194046020508,0</coordinates>
</Point>
</Placemark>
<Placemark>
<name>茨原前</name>
<description></description>
<Point>
<coordinates>139.47998046875,35.78742599487305,0</coordinates>
</Point>
</Placemark>
<Placemark>
<name>日吉町</name>
<description></description>
<Point>
<coordinates>139.47076416015625,35.78919982910156,0</coordinates>
</Point>
</Placemark>
<Placemark>
<name>東町</name>
<description></description>
<Point>
<coordinates>139.46986389160156,35.79084777832031,0</coordinates>
</Point>
</Placemark>
<Placemark>
<name>旭町</name>
<description></description>
<Point>
<coordinates>139.4750518798828,35.79182052612305,0</coordinates>
</Point>
</Placemark>
<Placemark>
<name>市民医療センター</name>
<description></description>
<Point>
<coordinates>139.4784393310547,35.79185485839844,0</coordinates>
</Point>
</Placemark>
<Placemark>
<name>市営住宅前</name>
<description></description>
<Point>
<coordinates>139.48326110839844,35.7903938293457,0</coordinates>
</Point>
</Placemark>
<Placemark>
<name>東新井町</name>
<description></description>
<Point>
<coordinates>139.47828674316406,35.79435348510742,0</coordinates>
</Point>
</Placemark>
<Placemark>
<name>所沢駅西口</name>
<description></description>
<Point>
<coordinates>139.47274780273438,35.786712646484375,0</coordinates>
</Point>
</Placemark>
<Placemark>
<name>西所沢駅入口</name>
<description></description>
<Point>
<coordinates>139.4571990966797,35.79086685180664,0</coordinates>
</Point>
</Placemark>
<Placemark>
<name>銀座二丁目</name>
<description></description>
<Point>
<coordinates>139.46571350097656,35.79148864746094,0</coordinates>
</Point>
</Placemark>
<Placemark>
<name>銀座三丁目</name>
<description></description>
<Point>
<coordinates>139.4680633544922,35.79127502441406,0</coordinates>
</Point>
</Placemark>
<Placemark>
<name>中央公民館</name>
<description></description>
<Point>
<coordinates>139.4645538330078,35.791603088378906,0</coordinates>
</Point>
</Placemark>
<Placemark>
<name>北秋津小学校入口</name>
<description></description>
<Point>
<coordinates>139.47784423828125,35.784019470214844,0</coordinates>
</Point>
</Placemark>
<Placemark>
<name>西武秋津団地</name>
<description></description>
<Point>
<coordinates>139.4861602783203,35.790130615234375,0</coordinates>
</Point>
</Placemark>
<Placemark>
<name>保健センター</name>
<description></description>
<Point>
<coordinates>139.48097229003906,35.791786193847656,0</coordinates>
</Point>
</Placemark>
<Placemark>
<name>東住吉</name>
<description></description>
<Point>
<coordinates>139.47216796875,35.783843994140625,0</coordinates>
</Point>
</Placemark>
<Placemark>
<name>久米境</name>
<description></description>
<Point>
<coordinates>139.4719696044922,35.77824020385742,0</coordinates>
</Point>
</Placemark>
<Placemark>
<name>勢揃橋北</name>
<description></description>
<Point>
<coordinates>139.46934509277344,35.77848434448242,0</coordinates>
</Point>
</Placemark>
<Placemark>
<name>JA吾妻支店前</name>
<description></description>
<Point>
<coordinates>139.46609497070312,35.77906036376953,0</coordinates>
</Point>
</Placemark>
<Placemark>
<name>じゅうにん坂</name>
<description></description>
<Point>
<coordinates>139.46078491210938,35.78162384033203,0</coordinates>
</Point>
</Placemark>
<Placemark>
<name>北久米</name>
<description></description>
<Point>
<coordinates>139.45870971679688,35.78053665161133,0</coordinates>
</Point>
</Placemark>
<Placemark>
<name>吾妻公民館</name>
<description></description>
<Point>
<coordinates>139.45526123046875,35.77901840209961,0</coordinates>
</Point>
</Placemark>
<Placemark>
<name>下山口駅入口</name>
<description></description>
<Point>
<coordinates>139.4407958984375,35.780086517333984,0</coordinates>
</Point>
</Placemark>
<Placemark>
<name>山口城跡</name>
<description></description>
<Point>
<coordinates>139.43551635742188,35.77836990356445,0</coordinates>
</Point>
</Placemark>
<Placemark>
<name>篠山公園</name>
<description></description>
<Point>
<coordinates>139.4894561767578,35.787471771240234,0</coordinates>
</Point>
</Placemark>
<Placemark>
<name>稲荷町</name>
<description></description>
<Point>
<coordinates>139.49021911621094,35.785030364990234,0</coordinates>
</Point>
</Placemark>
<Placemark>
<name>松戸橋</name>
<description></description>
<Point>
<coordinates>139.49411010742188,35.78220748901367,0</coordinates>
</Point>
</Placemark>
<Placemark>
<name>七曲り</name>
<description></description>
<Point>
<coordinates>139.49142456054688,35.7830924987793,0</coordinates>
</Point>
</Placemark>
<Placemark>
<name>山口公民館</name>
<description></description>
<Point>
<coordinates>139.43955993652344,35.78430938720703,0</coordinates>
</Point>
</Placemark>
<Placemark>
<name>遊園地西駅</name>
<description></description>
<Point>
<coordinates>139.43829345703125,35.7697868347168,0</coordinates>
</Point>
</Placemark>
<Placemark>
<name>山口民俗資料館</name>
<description></description>
<Point>
<coordinates>139.4352569580078,35.77670669555664,0</coordinates>
</Point>
</Placemark>
<Placemark>
<name>南陵中学校下</name>
<description></description>
<Point>
<coordinates>139.46380615234375,35.7802619934082,0</coordinates>
</Point>
</Placemark>
<Placemark>
<name>競輪場入口</name>
<description></description>
<Point>
<coordinates>139.45111083984375,35.77047348022461,0</coordinates>
</Point>
</Placemark>
<Placemark>
<name>桜田</name>
<description></description>
<Point>
<coordinates>139.43951416015625,35.78791809082031,0</coordinates>
</Point>
</Placemark>
<Placemark>
<name>光蔵寺</name>
<description></description>
<Point>
<coordinates>139.45265197753906,35.77590560913086,0</coordinates>
</Point>
</Placemark>
<Placemark>
<name>所沢駅東口</name>
<description></description>
<Point>
<coordinates>139.47445678710938,35.78691482543945,0</coordinates>
</Point>
</Placemark>
<Placemark>
<name>三ヶ島中学校</name>
<description></description>
<Point>
<coordinates>139.40635681152344,35.79597854614258,0</coordinates>
</Point>
</Placemark>
<Placemark>
<name>和ヶ原入口</name>
<description></description>
<Point>
<coordinates>139.4154052734375,35.80726623535156,0</coordinates>
</Point>
</Placemark>
<Placemark>
<name>所沢グリーンヒル</name>
<description></description>
<Point>
<coordinates>139.42047119140625,35.80177307128906,0</coordinates>
</Point>
</Placemark>
<Placemark>
<name>西埼玉中央病院</name>
<description></description>
<Point>
<coordinates>139.42420959472656,35.80268859863281,0</coordinates>
</Point>
</Placemark>
<Placemark>
<name>誓詞橋</name>
<description></description>
<Point>
<coordinates>139.42388916015625,35.798030853271484,0</coordinates>
</Point>
</Placemark>
<Placemark>
<name>小手指会館</name>
<description></description>
<Point>
<coordinates>139.4324188232422,35.79601287841797,0</coordinates>
</Point>
</Placemark>
<Placemark>
<name>狭山ヶ丘駅</name>
<description></description>
<Point>
<coordinates>139.4164581298828,35.80988693237305,0</coordinates>
</Point>
</Placemark>
<Placemark>
<name>こてさし荘</name>
<description></description>
<Point>
<coordinates>139.42784118652344,35.79706954956055,0</coordinates>
</Point>
</Placemark>
<Placemark>
<name>三ヶ島保育園</name>
<description></description>
<Point>
<coordinates>139.39772033691406,35.79618835449219,0</coordinates>
</Point>
</Placemark>
<Placemark>
<name>林</name>
<description></description>
<Point>
<coordinates>139.39622497558594,35.80101776123047,0</coordinates>
</Point>
</Placemark>
<Placemark>
<name>三ヶ島公民館</name>
<description></description>
<Point>
<coordinates>139.40390014648438,35.798316955566406,0</coordinates>
</Point>
</Placemark>
<Placemark>
<name>狭山ヶ丘二丁目</name>
<description></description>
<Point>
<coordinates>139.41099548339844,35.81031036376953,0</coordinates>
</Point>
</Placemark>
<Placemark>
<name>和ヶ原二丁目</name>
<description></description>
<Point>
<coordinates>139.40805053710938,35.80875778198242,0</coordinates>
</Point>
</Placemark>
<Placemark>
<name>小手指町四</name>
<description></description>
<Point>
<coordinates>139.43548583984375,35.7964973449707,0</coordinates>
</Point>
</Placemark>
<Placemark>
<name>パークタウン所沢警察署前</name>
<description></description>
<Point>
<coordinates>139.47096252441406,35.80068588256836,0</coordinates>
</Point>
</Placemark>
<Placemark>
<name>所沢市役所</name>
<description></description>
<Point>
<coordinates>139.46823120117188,35.800010681152344,0</coordinates>
</Point>
</Placemark>
<Placemark>
<name>秩父学園入口</name>
<description></description>
<Point>
<coordinates>139.48007202148438,35.802330017089844,0</coordinates>
</Point>
</Placemark>
<Placemark>
<name>小手指駅南口</name>
<description></description>
<Point>
<coordinates>139.4373779296875,35.80052947998047,0</coordinates>
</Point>
</Placemark>
<Placemark>
<name>航空公園駅</name>
<description></description>
<Point>
<coordinates>139.466064453125,35.7985954284668,0</coordinates>
</Point>
</Placemark>
<Placemark>
<name>航空公園南</name>
<description></description>
<Point>
<coordinates>139.4746551513672,35.79541778564453,0</coordinates>
</Point>
</Placemark>
<Placemark>
<name>文化センターミューズ航空公園南</name>
<description></description>
<Point>
<coordinates>139.47496032714844,35.80138397216797,0</coordinates>
</Point>
</Placemark>
<Placemark>
<name>公園通り</name>
<description></description>
<Point>
<coordinates>139.47071838378906,35.79598617553711,0</coordinates>
</Point>
</Placemark>
<Placemark>
<name>三井アウトレットパーク</name>
<description></description>
<Point>
<coordinates>139.37939453125,35.809654235839844,0</coordinates>
</Point>
</Placemark>
<Placemark>
<name>こぶし町西</name>
<description></description>
<Point>
<coordinates>139.4806365966797,35.799129486083984,0</coordinates>
</Point>
</Placemark>
<Placemark>
<name>こぶし町中央</name>
<description></description>
<Point>
<coordinates>139.48394775390625,35.80011749267578,0</coordinates>
</Point>
</Placemark>
<Placemark>
<name>こぶし町東</name>
<description></description>
<Point>
<coordinates>139.48809814453125,35.8000602722168,0</coordinates>
</Point>
</Placemark>
<Placemark>
<name>JA三ヶ島支店北</name>
<description></description>
<Point>
<coordinates>139.4010467529297,35.791629791259766,0</coordinates>
</Point>
</Placemark>
<Placemark>
<name>三ヶ島五丁目</name>
<description></description>
<Point>
<coordinates>139.39752197265625,35.7900505065918,0</coordinates>
</Point>
</Placemark>
<Placemark>
<name>荒幡</name>
<description></description>
<Point>
<coordinates>139.4520721435547,35.77887725830078,0</coordinates>
</Point>
</Placemark>
<Placemark>
<name>松井保育園</name>
<description></description>
<Point>
<coordinates>139.49095153808594,35.79931640625,0</coordinates>
</Point>
</Placemark>
<Placemark>
<name>あけぼの橋北</name>
<description></description>
<Point>
<coordinates>139.4927520751953,35.79719924926758,0</coordinates>
</Point>
</Placemark>
<Placemark>
<name>若狭四丁目</name>
<description></description>
<Point>
<coordinates>139.4144744873047,35.802528381347656,0</coordinates>
</Point>
</Placemark>
<Placemark>
<name>新座営業所</name>
<description></description>
<Point>
<coordinates>139.55435180664062,35.78287887573242,0</coordinates>
</Point>
</Placemark>
<Placemark>
<name>新座総合体育館入口</name>
<description></description>
<Point>
<coordinates>139.55543518066406,35.7841911315918,0</coordinates>
</Point>
</Placemark>
<Placemark>
<name>団地西口</name>
<description></description>
<Point>
<coordinates>139.6164093017578,35.77370071411133,0</coordinates>
</Point>
</Placemark>
<Placemark>
<name>南大和</name>
<description></description>
<Point>
<coordinates>139.613037109375,35.77256774902344,0</coordinates>
</Point>
</Placemark>
<Placemark>
<name>税務大学正門</name>
<description></description>
<Point>
<coordinates>139.60824584960938,35.775691986083984,0</coordinates>
</Point>
</Placemark>
<Placemark>
<name>南公民館</name>
<description></description>
<Point>
<coordinates>139.61328125,35.775028228759766,0</coordinates>
</Point>
</Placemark>
<Placemark>
<name>諏訪原</name>
<description></description>
<Point>
<coordinates>139.61500549316406,35.77528762817383,0</coordinates>
</Point>
</Placemark>
<Placemark>
<name>諏訪原住宅</name>
<description></description>
<Point>
<coordinates>139.61598205566406,35.776371002197266,0</coordinates>
</Point>
</Placemark>
<Placemark>
<name>西大和団地</name>
<description></description>
<Point>
<coordinates>139.60643005371094,35.778465270996094,0</coordinates>
</Point>
</Placemark>
<Placemark>
<name>団地センター前</name>
<description></description>
<Point>
<coordinates>139.60794067382812,35.77979278564453,0</coordinates>
</Point>
</Placemark>
<Placemark>
<name>和光郵便局</name>
<description></description>
<Point>
<coordinates>139.6097869873047,35.78656768798828,0</coordinates>
</Point>
</Placemark>
<Placemark>
<name>漆台</name>
<description></description>
<Point>
<coordinates>139.6166534423828,35.79202651977539,0</coordinates>
</Point>
</Placemark>
<Placemark>
<name>新道坂上</name>
<description></description>
<Point>
<coordinates>139.62107849121094,35.77842330932617,0</coordinates>
</Point>
</Placemark>
<Placemark>
<name>埼玉病院</name>
<description></description>
<Point>
<coordinates>139.61776733398438,35.77702713012695,0</coordinates>
</Point>
</Placemark>
<Placemark>
<name>都民農園セコニック</name>
<description></description>
<Point>
<coordinates>139.5856475830078,35.776145935058594,0</coordinates>
</Point>
</Placemark>
<Placemark>
<name>和光第二中学校</name>
<description></description>
<Point>
<coordinates>139.60877990722656,35.78160858154297,0</coordinates>
</Point>
</Placemark>
<Placemark>
<name>新座総合技術高校</name>
<description></description>
<Point>
<coordinates>139.58641052246094,35.77749252319336,0</coordinates>
</Point>
</Placemark>
<Placemark>
<name>新座栄</name>
<description></description>
<Point>
<coordinates>139.57757568359375,35.776798248291016,0</coordinates>
</Point>
</Placemark>
<Placemark>
<name>新倉小学校前</name>
<description></description>
<Point>
<coordinates>139.61961364746094,35.79371643066406,0</coordinates>
</Point>
</Placemark>
<Placemark>
<name>和光市駅北口</name>
<description></description>
<Point>
<coordinates>139.61282348632812,35.78870391845703,0</coordinates>
</Point>
</Placemark>
<Placemark>
<name>和光市駅南口</name>
<description></description>
<Point>
<coordinates>139.6125946044922,35.78832244873047,0</coordinates>
</Point>
</Placemark>
<Placemark>
<name>司法研修所</name>
<description></description>
<Point>
<coordinates>139.6028289794922,35.77276611328125,0</coordinates>
</Point>
</Placemark>
<Placemark>
<name>埼玉病院入口</name>
<description></description>
<Point>
<coordinates>139.6179656982422,35.777626037597656,0</coordinates>
</Point>
</Placemark>
<Placemark>
<name>和光市総合体育館</name>
<description></description>
<Point>
<coordinates>139.6064910888672,35.77730178833008,0</coordinates>
</Point>
</Placemark>
<Placemark>
<name>中央公民館入口</name>
<description></description>
<Point>
<coordinates>139.6092987060547,35.78443908691406,0</coordinates>
</Point>
</Placemark>
<Placemark>
<name>東所沢駅</name>
<description></description>
<Point>
<coordinates>139.51406860351562,35.795013427734375,0</coordinates>
</Point>
</Placemark>
<Placemark>
<name>新座駅南口</name>
<description></description>
<Point>
<coordinates>139.55706787109375,35.803401947021484,0</coordinates>
</Point>
</Placemark>
<Placemark>
<name>東所沢中央</name>
<description></description>
<Point>
<coordinates>139.50909423828125,35.795677185058594,0</coordinates>
</Point>
</Placemark>
<Placemark>
<name>富士見ヶ丘</name>
<description></description>
<Point>
<coordinates>139.5604705810547,35.81827926635742,0</coordinates>
</Point>
</Placemark>
<Placemark>
<name>北朝霞駅</name>
<description></description>
<Point>
<coordinates>139.58729553222656,35.814910888671875,0</coordinates>
</Point>
</Placemark>
<Placemark>
<name>朝霞駅南口</name>
<description></description>
<Point>
<coordinates>139.59945678710938,35.79676818847656,0</coordinates>
</Point>
</Placemark>
<Placemark>
<name>わくわくどーむ</name>
<description></description>
<Point>
<coordinates>139.59878540039062,35.81684112548828,0</coordinates>
</Point>
</Placemark>
<Placemark>
<name>白子向山</name>
<description></description>
<Point>
<coordinates>139.6213836669922,35.769283294677734,0</coordinates>
</Point>
</Placemark>
<Placemark>
<name>亀鶴園南</name>
<description></description>
<Point>
<coordinates>139.50094604492188,35.797061920166016,0</coordinates>
</Point>
</Placemark>
<Placemark>
<name>市場</name>
<description></description>
<Point>
<coordinates>139.6274871826172,35.78489303588867,0</coordinates>
</Point>
</Placemark>
<Placemark>
<name>宮本</name>
<description></description>
<Point>
<coordinates>139.62620544433594,35.787723541259766,0</coordinates>
</Point>
</Placemark>
<Placemark>
<name>東本村</name>
<description></description>
<Point>
<coordinates>139.63079833984375,35.791446685791016,0</coordinates>
</Point>
</Placemark>
<Placemark>
<name>金泉寺前</name>
<description></description>
<Point>
<coordinates>139.62701416015625,35.794349670410156,0</coordinates>
</Point>
</Placemark>
<Placemark>
<name>長島</name>
<description></description>
<Point>
<coordinates>139.63084411621094,35.79363250732422,0</coordinates>
</Point>
</Placemark>
<Placemark>
<name>牛房</name>
<description></description>
<Point>
<coordinates>139.62478637695312,35.772430419921875,0</coordinates>
</Point>
</Placemark>
<Placemark>
<name>第四保育園入口</name>
<description></description>
<Point>
<coordinates>139.6295623779297,35.7879753112793,0</coordinates>
</Point>
</Placemark>
<Placemark>
<name>楢の下</name>
<description></description>
<Point>
<coordinates>139.6337432861328,35.792823791503906,0</coordinates>
</Point>
</Placemark>
<Placemark>
<name>吹上</name>
<description></description>
<Point>
<coordinates>139.6351776123047,35.791221618652344,0</coordinates>
</Point>
</Placemark>
<Placemark>
<name>南市場</name>
<description></description>
<Point>
<coordinates>139.62835693359375,35.786407470703125,0</coordinates>
</Point>
</Placemark>
<Placemark>
<name>稲荷神社下</name>
<description></description>
<Point>
<coordinates>139.6305694580078,35.789005279541016,0</coordinates>
</Point>
</Placemark>
<Placemark>
<name>吹上観音下</name>
<description></description>
<Point>
<coordinates>139.6343231201172,35.79079055786133,0</coordinates>
</Point>
</Placemark>
<Placemark>
<name>領家工場街</name>
<description></description>
<Point>
<coordinates>139.74423217773438,35.7901725769043,0</coordinates>
</Point>
</Placemark>
<Placemark>
<name>榎木橋</name>
<description></description>
<Point>
<coordinates>139.74586486816406,35.78886032104492,0</coordinates>
</Point>
</Placemark>
<Placemark>
<name>門樋下</name>
<description></description>
<Point>
<coordinates>139.7330322265625,35.793121337890625,0</coordinates>
</Point>
</Placemark>
<Placemark>
<name>領家</name>
<description></description>
<Point>
<coordinates>139.74002075195312,35.792083740234375,0</coordinates>
</Point>
</Placemark>
<Placemark>
<name>仙元橋</name>
<description></description>
<Point>
<coordinates>139.73594665527344,35.7917366027832,0</coordinates>
</Point>
</Placemark>
<Placemark>
<name>門樋下</name>
<description></description>
<Point>
<coordinates>139.732177734375,35.792755126953125,0</coordinates>
</Point>
</Placemark>
<Placemark>
<name>梛木の橋</name>
<description></description>
<Point>
<coordinates>139.74227905273438,35.7912712097168,0</coordinates>
</Point>
</Placemark>
<Placemark>
<name>領家四</name>
<description></description>
<Point>
<coordinates>139.74468994140625,35.79267120361328,0</coordinates>
</Point>
</Placemark>
<Placemark>
<name>領家二</name>
<description></description>
<Point>
<coordinates>139.74290466308594,35.79297637939453,0</coordinates>
</Point>
</Placemark>
<Placemark>
<name>領家第九公園入口</name>
<description></description>
<Point>
<coordinates>139.74005126953125,35.79297637939453,0</coordinates>
</Point>
</Placemark>
<Placemark>
<name>新倉坂下</name>
<description></description>
<Point>
<coordinates>139.62493896484375,35.79558181762695,0</coordinates>
</Point>
</Placemark>
<Placemark>
<name>美女木小学校</name>
<description></description>
<Point>
<coordinates>139.6466522216797,35.82957077026367,0</coordinates>
</Point>
</Placemark>
<Placemark>
<name>戸田市役所</name>
<description></description>
<Point>
<coordinates>139.6771697998047,35.8172721862793,0</coordinates>
</Point>
</Placemark>
<Placemark>
<name>中央道路</name>
<description></description>
<Point>
<coordinates>139.7222900390625,35.799861907958984,0</coordinates>
</Point>
</Placemark>
<Placemark>
<name>川口郵便局</name>
<description></description>
<Point>
<coordinates>139.7251434326172,35.79804229736328,0</coordinates>
</Point>
</Placemark>
<Placemark>
<name>荒川大橋</name>
<description></description>
<Point>
<coordinates>139.72662353515625,35.795101165771484,0</coordinates>
</Point>
</Placemark>
<Placemark>
<name>元郷二</name>
<description></description>
<Point>
<coordinates>139.73056030273438,35.794803619384766,0</coordinates>
</Point>
</Placemark>
<Placemark>
<name>駅前郵便局</name>
<description></description>
<Point>
<coordinates>139.68751525878906,35.828006744384766,0</coordinates>
</Point>
</Placemark>
<Placemark>
<name>相原橋</name>
<description></description>
<Point>
<coordinates>138.82711791992188,35.98973846435547,0</coordinates>
</Point>
</Placemark>
<Placemark>
<name>中双里</name>
<description></description>
<Point>
<coordinates>138.83506774902344,35.98591995239258,0</coordinates>
</Point>
</Placemark>
<Placemark>
<name>小森</name>
<description></description>
<Point>
<coordinates>138.97097778320312,36.00031280517578,0</coordinates>
</Point>
</Placemark>
<Placemark>
<name>間庭</name>
<description></description>
<Point>
<coordinates>138.973876953125,35.995975494384766,0</coordinates>
</Point>
</Placemark>
<Placemark>
<name>野沢</name>
<description></description>
<Point>
<coordinates>138.97299194335938,35.99287796020508,0</coordinates>
</Point>
</Placemark>
<Placemark>
<name>白沢</name>
<description></description>
<Point>
<coordinates>138.9727325439453,35.99006652832031,0</coordinates>
</Point>
</Placemark>
<Placemark>
<name>上野沢</name>
<description></description>
<Point>
<coordinates>138.97328186035156,35.98503494262695,0</coordinates>
</Point>
</Placemark>
<Placemark>
<name>大指</name>
<description></description>
<Point>
<coordinates>138.97572326660156,35.97854232788086,0</coordinates>
</Point>
</Placemark>
<Placemark>
<name>古池</name>
<description></description>
<Point>
<coordinates>138.97174072265625,35.97713851928711,0</coordinates>
</Point>
</Placemark>
<Placemark>
<name>柿平</name>
<description></description>
<Point>
<coordinates>138.9713897705078,35.97352981567383,0</coordinates>
</Point>
</Placemark>
<Placemark>
<name>西小前</name>
<description></description>
<Point>
<coordinates>138.978515625,35.966331481933594,0</coordinates>
</Point>
</Placemark>
<Placemark>
<name>出合</name>
<description></description>
<Point>
<coordinates>138.81842041015625,36.00065231323242,0</coordinates>
</Point>
</Placemark>
<Placemark>
<name>西平</name>
<description></description>
<Point>
<coordinates>138.80441284179688,35.99898147583008,0</coordinates>
</Point>
</Placemark>
<Placemark>
<name>農林センター</name>
<description></description>
<Point>
<coordinates>138.80787658691406,36.0005989074707,0</coordinates>
</Point>
</Placemark>
<Placemark>
<name>中津川</name>
<description></description>
<Point>
<coordinates>138.8011016845703,35.995216369628906,0</coordinates>
</Point>
</Placemark>
<Placemark>
<name>白井差口</name>
<description></description>
<Point>
<coordinates>138.8704833984375,35.99991226196289,0</coordinates>
</Point>
</Placemark>
<Placemark>
<name>大滑</name>
<description></description>
<Point>
<coordinates>138.84146118164062,35.97296142578125,0</coordinates>
</Point>
</Placemark>
<Placemark>
<name>坂東橋南詰</name>
<description></description>
<Point>
<coordinates>139.1888885498047,36.25848388671875,0</coordinates>
</Point>
</Placemark>
<Placemark>
<name>沼和田</name>
<description></description>
<Point>
<coordinates>139.18653869628906,36.255306243896484,0</coordinates>
</Point>
</Placemark>
<Placemark>
<name>西金公会堂</name>
<description></description>
<Point>
<coordinates>139.13314819335938,36.27153778076172,0</coordinates>
</Point>
</Placemark>
<Placemark>
<name>勝場公会堂</name>
<description></description>
<Point>
<coordinates>139.12728881835938,36.2661018371582,0</coordinates>
</Point>
</Placemark>
<Placemark>
<name>賀美公民館</name>
<description></description>
<Point>
<coordinates>139.13343811035156,36.265804290771484,0</coordinates>
</Point>
</Placemark>
<Placemark>
<name>原公会堂</name>
<description></description>
<Point>
<coordinates>139.12355041503906,36.26040267944336,0</coordinates>
</Point>
</Placemark>
<Placemark>
<name>天神・真下</name>
<description></description>
<Point>
<coordinates>139.12924194335938,36.261234283447266,0</coordinates>
</Point>
</Placemark>
<Placemark>
<name>金下東集会所</name>
<description></description>
<Point>
<coordinates>139.14393615722656,36.2591438293457,0</coordinates>
</Point>
</Placemark>
<Placemark>
<name>西原町</name>
<description></description>
<Point>
<coordinates>139.14608764648438,36.2536506652832,0</coordinates>
</Point>
</Placemark>
<Placemark>
<name>堀込</name>
<description></description>
<Point>
<coordinates>139.13870239257812,36.25395965576172,0</coordinates>
</Point>
</Placemark>
<Placemark>
<name>金上公会堂東</name>
<description></description>
<Point>
<coordinates>139.13693237304688,36.264129638671875,0</coordinates>
</Point>
</Placemark>
<Placemark>
<name>金下公会堂</name>
<description></description>
<Point>
<coordinates>139.14114379882812,36.263309478759766,0</coordinates>
</Point>
</Placemark>
<Placemark>
<name>薫</name>
<description></description>
<Point>
<coordinates>139.14027404785156,36.269996643066406,0</coordinates>
</Point>
</Placemark>
<Placemark>
<name>内出集落センター</name>
<description></description>
<Point>
<coordinates>139.13967895507812,36.26727294921875,0</coordinates>
</Point>
</Placemark>
<Placemark>
<name>中忍保</name>
<description></description>
<Point>
<coordinates>139.1480712890625,36.26789855957031,0</coordinates>
</Point>
</Placemark>
<Placemark>
<name>池上神社</name>
<description></description>
<Point>
<coordinates>139.15380859375,36.268611907958984,0</coordinates>
</Point>
</Placemark>
<Placemark>
<name>神保原児童館</name>
<description></description>
<Point>
<coordinates>139.15403747558594,36.261390686035156,0</coordinates>
</Point>
</Placemark>
<Placemark>
<name>一丁目</name>
<description></description>
<Point>
<coordinates>139.1483917236328,36.25844955444336,0</coordinates>
</Point>
</Placemark>
<Placemark>
<name>三丁目</name>
<description></description>
<Point>
<coordinates>139.15286254882812,36.25666427612305,0</coordinates>
</Point>
</Placemark>
<Placemark>
<name>旧ジャスコ南</name>
<description></description>
<Point>
<coordinates>139.14923095703125,36.255699157714844,0</coordinates>
</Point>
</Placemark>
<Placemark>
<name>神保原駅北広場</name>
<description></description>
<Point>
<coordinates>139.1494598388672,36.254188537597656,0</coordinates>
</Point>
</Placemark>
<Placemark>
<name>四・五丁目</name>
<description></description>
<Point>
<coordinates>139.15391540527344,36.2537727355957,0</coordinates>
</Point>
</Placemark>
<Placemark>
<name>新井</name>
<description></description>
<Point>
<coordinates>139.1712646484375,36.262550354003906,0</coordinates>
</Point>
</Placemark>
<Placemark>
<name>三友</name>
<description></description>
<Point>
<coordinates>139.17063903808594,36.26632308959961,0</coordinates>
</Point>
</Placemark>
<Placemark>
<name>八町河原</name>
<description></description>
<Point>
<coordinates>139.16281127929688,36.268760681152344,0</coordinates>
</Point>
</Placemark>
<Placemark>
<name>杉山</name>
<description></description>
<Point>
<coordinates>139.16835021972656,36.25893020629883,0</coordinates>
</Point>
</Placemark>
<Placemark>
<name>都島</name>
<description></description>
<Point>
<coordinates>139.17478942871094,36.2578239440918,0</coordinates>
</Point>
</Placemark>
<Placemark>
<name>沼和田</name>
<description></description>
<Point>
<coordinates>139.1779022216797,36.25678634643555,0</coordinates>
</Point>
</Placemark>
<Placemark>
<name>山王堂</name>
<description></description>
<Point>
<coordinates>139.1854248046875,36.25761032104492,0</coordinates>
</Point>
</Placemark>
<Placemark>
<name>つきみ荘</name>
<description></description>
<Point>
<coordinates>139.18942260742188,36.25664520263672,0</coordinates>
</Point>
</Placemark>
<Placemark>
<name>栃本関所跡</name>
<description></description>
<Point>
<coordinates>138.8629913330078,35.944583892822266,0</coordinates>
</Point>
</Placemark>
<Placemark>
<name>栃本</name>
<description></description>
<Point>
<coordinates>138.85716247558594,35.94336700439453,0</coordinates>
</Point>
</Placemark>
<Placemark>
<name>林平</name>
<description></description>
<Point>
<coordinates>138.86666870117188,35.943992614746094,0</coordinates>
</Point>
</Placemark>
<Placemark>
<name>川又</name>
<description></description>
<Point>
<coordinates>138.84945678710938,35.93801498413086,0</coordinates>
</Point>
</Placemark>
<Placemark>
<name>三峰口駅</name>
<description></description>
<Point>
<coordinates>138.97695922851562,35.960182189941406,0</coordinates>
</Point>
</Placemark>
<Placemark>
<name>白川橋</name>
<description></description>
<Point>
<coordinates>138.97406005859375,35.9612922668457,0</coordinates>
</Point>
</Placemark>
<Placemark>
<name>強石</name>
<description></description>
<Point>
<coordinates>138.96376037597656,35.95326232910156,0</coordinates>
</Point>
</Placemark>
<Placemark>
<name>光岩</name>
<description></description>
<Point>
<coordinates>138.9667510986328,35.948280334472656,0</coordinates>
</Point>
</Placemark>
<Placemark>
<name>大陽寺入口</name>
<description></description>
<Point>
<coordinates>138.96766662597656,35.94485855102539,0</coordinates>
</Point>
</Placemark>
<Placemark>
<name>大洞発電所入口</name>
<description></description>
<Point>
<coordinates>138.96372985839844,35.93860626220703,0</coordinates>
</Point>
</Placemark>
<Placemark>
<name>大達原</name>
<description></description>
<Point>
<coordinates>138.9579315185547,35.93986892700195,0</coordinates>
</Point>
</Placemark>
<Placemark>
<name>下大輪</name>
<description></description>
<Point>
<coordinates>138.95521545410156,35.94026565551758,0</coordinates>
</Point>
</Placemark>
<Placemark>
<name>大輪</name>
<description></description>
<Point>
<coordinates>138.95057678222656,35.937278747558594,0</coordinates>
</Point>
</Placemark>
<Placemark>
<name>岡本</name>
<description></description>
<Point>
<coordinates>138.94482421875,35.94203186035156,0</coordinates>
</Point>
</Placemark>
<Placemark>
<name>神岡団地</name>
<description></description>
<Point>
<coordinates>138.93963623046875,35.94776153564453,0</coordinates>
</Point>
</Placemark>
<Placemark>
<name>落合</name>
<description></description>
<Point>
<coordinates>138.93955993652344,35.9522590637207,0</coordinates>
</Point>
</Placemark>
<Placemark>
<name>大滝郵便局</name>
<description></description>
<Point>
<coordinates>138.93650817871094,35.953121185302734,0</coordinates>
</Point>
</Placemark>
<Placemark>
<name>三十場</name>
<description></description>
<Point>
<coordinates>138.93197631835938,35.94683074951172,0</coordinates>
</Point>
</Placemark>
<Placemark>
<name>小西</name>
<description></description>
<Point>
<coordinates>138.91615295410156,35.94866180419922,0</coordinates>
</Point>
</Placemark>
<Placemark>
<name>大久保</name>
<description></description>
<Point>
<coordinates>138.91177368164062,35.948463439941406,0</coordinates>
</Point>
</Placemark>
<Placemark>
<name>秩父湖</name>
<description></description>
<Point>
<coordinates>138.9103546142578,35.94368362426758,0</coordinates>
</Point>
</Placemark>
<Placemark>
<name>麻生</name>
<description></description>
<Point>
<coordinates>138.8980255126953,35.943050384521484,0</coordinates>
</Point>
</Placemark>
<Placemark>
<name>寺井</name>
<description></description>
<Point>
<coordinates>138.89662170410156,35.94390106201172,0</coordinates>
</Point>
</Placemark>
<Placemark>
<name>上中尾</name>
<description></description>
<Point>
<coordinates>138.88821411132812,35.944664001464844,0</coordinates>
</Point>
</Placemark>
<Placemark>
<name>小双里</name>
<description></description>
<Point>
<coordinates>138.90823364257812,35.957252502441406,0</coordinates>
</Point>
</Placemark>
<Placemark>
<name>鶉平</name>
<description></description>
<Point>
<coordinates>138.9166259765625,35.95382308959961,0</coordinates>
</Point>
</Placemark>
<Placemark>
<name>黒橋</name>
<description></description>
<Point>
<coordinates>138.9642791748047,35.995155334472656,0</coordinates>
</Point>
</Placemark>
<Placemark>
<name>大堤</name>
<description></description>
<Point>
<coordinates>138.95884704589844,35.9909553527832,0</coordinates>
</Point>
</Placemark>
<Placemark>
<name>堂上</name>
<description></description>
<Point>
<coordinates>138.95558166503906,35.98875427246094,0</coordinates>
</Point>
</Placemark>
<Placemark>
<name>東橋</name>
<description></description>
<Point>
<coordinates>138.94906616210938,35.98652267456055,0</coordinates>
</Point>
</Placemark>
<Placemark>
<name>大谷橋</name>
<description></description>
<Point>
<coordinates>138.94525146484375,35.98411178588867,0</coordinates>
</Point>
</Placemark>
<Placemark>
<name>鳶岩</name>
<description></description>
<Point>
<coordinates>138.91314697265625,35.98265075683594,0</coordinates>
</Point>
</Placemark>
<Placemark>
<name>煤川上</name>
<description></description>
<Point>
<coordinates>138.89854431152344,35.98667907714844,0</coordinates>
</Point>
</Placemark>
<Placemark>
<name>滝前</name>
<description></description>
<Point>
<coordinates>138.88670349121094,35.992488861083984,0</coordinates>
</Point>
</Placemark>
<Placemark>
<name>丸神ノ滝入口</name>
<description></description>
<Point>
<coordinates>138.88265991210938,35.99385452270508,0</coordinates>
</Point>
</Placemark>
<Placemark>
<name>中尾</name>
<description></description>
<Point>
<coordinates>138.8773956298828,35.99705505371094,0</coordinates>
</Point>
</Placemark>
<Placemark>
<name>煤川</name>
<description></description>
<Point>
<coordinates>138.90281677246094,35.98592758178711,0</coordinates>
</Point>
</Placemark>
<Placemark>
<name>二瀬</name>
<description></description>
<Point>
<coordinates>138.9019012451172,35.942626953125,0</coordinates>
</Point>
</Placemark>
<Placemark>
<name>宮平</name>
<description></description>
<Point>
<coordinates>138.93211364746094,35.95104217529297,0</coordinates>
</Point>
</Placemark>
<Placemark>
<name>大滝総合支所</name>
<description></description>
<Point>
<coordinates>138.93458557128906,35.952362060546875,0</coordinates>
</Point>
</Placemark>
<Placemark>
<name>川塩</name>
<description></description>
<Point>
<coordinates>138.93113708496094,35.98509216308594,0</coordinates>
</Point>
</Placemark>
<Placemark>
<name>大滝温泉遊湯館</name>
<description></description>
<Point>
<coordinates>138.93881225585938,35.95043182373047,0</coordinates>
</Point>
</Placemark>
<Placemark>
<name>原沢</name>
<description></description>
<Point>
<coordinates>138.96875,35.99827194213867,0</coordinates>
</Point>
</Placemark>
<Placemark>
<name>荒川園入口</name>
<description></description>
<Point>
<coordinates>138.97293090820312,35.97519302368164,0</coordinates>
</Point>
</Placemark>
<Placemark>
<name>光の村養護学校</name>
<description></description>
<Point>
<coordinates>138.88165283203125,35.94392013549805,0</coordinates>
</Point>
</Placemark>
<Placemark>
<name>贄川</name>
<description></description>
<Point>
<coordinates>138.97755432128906,35.964088439941406,0</coordinates>
</Point>
</Placemark>
<Placemark>
<name>荒川局前</name>
<description></description>
<Point>
<coordinates>138.9669189453125,35.95859146118164,0</coordinates>
</Point>
</Placemark>
<Placemark>
<name>櫟平</name>
<description></description>
<Point>
<coordinates>138.9267120361328,35.95263671875,0</coordinates>
</Point>
</Placemark>
<Placemark>
<name>白川橋</name>
<description></description>
<Point>
<coordinates>138.97557067871094,35.96220397949219,0</coordinates>
</Point>
</Placemark>
<Placemark>
<name>元狭山</name>
<description></description>
<Point>
<coordinates>139.35935974121094,35.79482650756836,0</coordinates>
</Point>
</Placemark>
<Placemark>
<name>二本木地蔵前</name>
<description></description>
<Point>
<coordinates>139.35482788085938,35.793888092041016,0</coordinates>
</Point>
</Placemark>
<Placemark>
<name>太子堂入口</name>
<description></description>
<Point>
<coordinates>139.3709716796875,35.79082489013672,0</coordinates>
</Point>
</Placemark>
<Placemark>
<name>金子橋</name>
<description></description>
<Point>
<coordinates>139.31817626953125,35.81034851074219,0</coordinates>
</Point>
</Placemark>
<Placemark>
<name>桂川神社前</name>
<description></description>
<Point>
<coordinates>139.3217315673828,35.8126106262207,0</coordinates>
</Point>
</Placemark>
<Placemark>
<name>南峯公会堂</name>
<description></description>
<Point>
<coordinates>139.32437133789062,35.81351089477539,0</coordinates>
</Point>
</Placemark>
<Placemark>
<name>寺竹</name>
<description></description>
<Point>
<coordinates>139.3302459716797,35.815738677978516,0</coordinates>
</Point>
</Placemark>
<Placemark>
<name>岩渕</name>
<description></description>
<Point>
<coordinates>139.31173706054688,35.83586120605469,0</coordinates>
</Point>
</Placemark>
<Placemark>
<name>落合</name>
<description></description>
<Point>
<coordinates>139.32261657714844,35.83392333984375,0</coordinates>
</Point>
</Placemark>
<Placemark>
<name>飯能南高校</name>
<description></description>
<Point>
<coordinates>139.32611083984375,35.83646774291992,0</coordinates>
</Point>
</Placemark>
<Placemark>
<name>阿須</name>
<description></description>
<Point>
<coordinates>139.3290557861328,35.833927154541016,0</coordinates>
</Point>
</Placemark>
<Placemark>
<name>入間市博物館</name>
<description></description>
<Point>
<coordinates>139.36837768554688,35.8011474609375,0</coordinates>
</Point>
</Placemark>
<Placemark>
<name>上谷ヶ貫</name>
<description></description>
<Point>
<coordinates>139.34019470214844,35.81698989868164,0</coordinates>
</Point>
</Placemark>
<Placemark>
<name>谷ヶ貫寺</name>
<description></description>
<Point>
<coordinates>139.34584045410156,35.818443298339844,0</coordinates>
</Point>
</Placemark>
<Placemark>
<name>中神</name>
<description></description>
<Point>
<coordinates>139.3505401611328,35.8206672668457,0</coordinates>
</Point>
</Placemark>
<Placemark>
<name>新久西</name>
<description></description>
<Point>
<coordinates>139.36038208007812,35.822391510009766,0</coordinates>
</Point>
</Placemark>
<Placemark>
<name>ペアーレ入間入口</name>
<description></description>
<Point>
<coordinates>139.36390686035156,35.823692321777344,0</coordinates>
</Point>
</Placemark>
<Placemark>
<name>桂橋</name>
<description></description>
<Point>
<coordinates>139.36672973632812,35.82470703125,0</coordinates>
</Point>
</Placemark>
<Placemark>
<name>運動公園</name>
<description></description>
<Point>
<coordinates>139.34133911132812,35.832183837890625,0</coordinates>
</Point>
</Placemark>
<Placemark>
<name>円照寺入口</name>
<description></description>
<Point>
<coordinates>139.3496551513672,35.835792541503906,0</coordinates>
</Point>
</Placemark>
<Placemark>
<name>南峯</name>
<description></description>
<Point>
<coordinates>139.32652282714844,35.81454086303711,0</coordinates>
</Point>
</Placemark>
<Placemark>
<name>根岸</name>
<description></description>
<Point>
<coordinates>139.3563232421875,35.82163619995117,0</coordinates>
</Point>
</Placemark>
<Placemark>
<name>金子駅</name>
<description></description>
<Point>
<coordinates>139.3290557861328,35.811195373535156,0</coordinates>
</Point>
</Placemark>
<Placemark>
<name>西三ツ木</name>
<description></description>
<Point>
<coordinates>139.3355712890625,35.81650924682617,0</coordinates>
</Point>
</Placemark>
<Placemark>
<name>北中野</name>
<description></description>
<Point>
<coordinates>139.37020874023438,35.79998016357422,0</coordinates>
</Point>
</Placemark>
<Placemark>
<name>二本木</name>
<description></description>
<Point>
<coordinates>139.36741638183594,35.798667907714844,0</coordinates>
</Point>
</Placemark>
<Placemark>
<name>北中野</name>
<description></description>
<Point>
<coordinates>139.3686065673828,35.795860290527344,0</coordinates>
</Point>
</Placemark>
<Placemark>
<name>工業団地南</name>
<description></description>
<Point>
<coordinates>139.3708953857422,35.802974700927734,0</coordinates>
</Point>
</Placemark>
<Placemark>
<name>入間市博物館</name>
<description></description>
<Point>
<coordinates>139.36598205566406,35.802574157714844,0</coordinates>
</Point>
</Placemark>
<Placemark>
<name>二本木保育所</name>
<description></description>
<Point>
<coordinates>139.35971069335938,35.79890441894531,0</coordinates>
</Point>
</Placemark>
<Placemark>
<name>二本木憩いの家</name>
<description></description>
<Point>
<coordinates>139.360595703125,35.795860290527344,0</coordinates>
</Point>
</Placemark>
<Placemark>
<name>給食センター</name>
<description></description>
<Point>
<coordinates>139.37057495117188,35.81725311279297,0</coordinates>
</Point>
</Placemark>
<Placemark>
<name>東金子地区体育館入口</name>
<description></description>
<Point>
<coordinates>139.36834716796875,35.821956634521484,0</coordinates>
</Point>
</Placemark>
<Placemark>
<name>東金子支所</name>
<description></description>
<Point>
<coordinates>139.36737060546875,35.82588577270508,0</coordinates>
</Point>
</Placemark>
<Placemark>
<name>さくら公園入口</name>
<description></description>
<Point>
<coordinates>139.36956787109375,35.82899856567383,0</coordinates>
</Point>
</Placemark>
<Placemark>
<name>リサイクルプラザ</name>
<description></description>
<Point>
<coordinates>139.36614990234375,35.815921783447266,0</coordinates>
</Point>
</Placemark>
<Placemark>
<name>社会保険健康センター</name>
<description></description>
<Point>
<coordinates>139.36483764648438,35.81656265258789,0</coordinates>
</Point>
</Placemark>
<Placemark>
<name>新久清水橋</name>
<description></description>
<Point>
<coordinates>139.36373901367188,35.82232666015625,0</coordinates>
</Point>
</Placemark>
<Placemark>
<name>金子病院入口</name>
<description></description>
<Point>
<coordinates>139.362548828125,35.82698059082031,0</coordinates>
</Point>
</Placemark>
<Placemark>
<name>八坂神社入口</name>
<description></description>
<Point>
<coordinates>139.36172485351562,35.82963943481445,0</coordinates>
</Point>
</Placemark>
<Placemark>
<name>武蔵野音大入口</name>
<description></description>
<Point>
<coordinates>139.35964965820312,35.835289001464844,0</coordinates>
</Point>
</Placemark>
<Placemark>
<name>木蓮寺</name>
<description></description>
<Point>
<coordinates>139.3203125,35.81159973144531,0</coordinates>
</Point>
</Placemark>
<Placemark>
<name>金子駅西</name>
<description></description>
<Point>
<coordinates>139.32705688476562,35.812137603759766,0</coordinates>
</Point>
</Placemark>
<Placemark>
<name>桂橋北</name>
<description></description>
<Point>
<coordinates>139.325927734375,35.81376647949219,0</coordinates>
</Point>
</Placemark>
<Placemark>
<name>狭山ヶ原</name>
<description></description>
<Point>
<coordinates>139.3710479736328,35.81016540527344,0</coordinates>
</Point>
</Placemark>
<Placemark>
<name>武蔵工業団地</name>
<description></description>
<Point>
<coordinates>139.36866760253906,35.809425354003906,0</coordinates>
</Point>
</Placemark>
<Placemark>
<name>いちょう通り</name>
<description></description>
<Point>
<coordinates>139.3688507080078,35.80747604370117,0</coordinates>
</Point>
</Placemark>
<Placemark>
<name>宮ノ台</name>
<description></description>
<Point>
<coordinates>139.3702392578125,35.80443572998047,0</coordinates>
</Point>
</Placemark>
<Placemark>
<name>大妻女子大学</name>
<description></description>
<Point>
<coordinates>139.35848999023438,35.80235290527344,0</coordinates>
</Point>
</Placemark>
<Placemark>
<name>前ヶ貫入口</name>
<description></description>
<Point>
<coordinates>139.31556701660156,35.8343620300293,0</coordinates>
</Point>
</Placemark>
<Placemark>
<name>小谷田</name>
<description></description>
<Point>
<coordinates>139.37176513671875,35.825809478759766,0</coordinates>
</Point>
</Placemark>
<Placemark>
<name>博物館入口</name>
<description></description>
<Point>
<coordinates>139.36781311035156,35.79994583129883,0</coordinates>
</Point>
</Placemark>
<Placemark>
<name>台</name>
<description></description>
<Point>
<coordinates>139.3924560546875,35.78978729248047,0</coordinates>
</Point>
</Placemark>
<Placemark>
<name>荻原</name>
<description></description>
<Point>
<coordinates>139.38333129882812,35.79342269897461,0</coordinates>
</Point>
</Placemark>
<Placemark>
<name>椿峰ニュータウン入口</name>
<description></description>
<Point>
<coordinates>139.4263153076172,35.78241729736328,0</coordinates>
</Point>
</Placemark>
<Placemark>
<name>内手</name>
<description></description>
<Point>
<coordinates>139.4229736328125,35.788997650146484,0</coordinates>
</Point>
</Placemark>
<Placemark>
<name>北野天神前</name>
<description></description>
<Point>
<coordinates>139.42799377441406,35.78907012939453,0</coordinates>
</Point>
</Placemark>
<Placemark>
<name>糀谷</name>
<description></description>
<Point>
<coordinates>139.38864135742188,35.79133605957031,0</coordinates>
</Point>
</Placemark>
<Placemark>
<name>宮寺</name>
<description></description>
<Point>
<coordinates>139.3804931640625,35.79255676269531,0</coordinates>
</Point>
</Placemark>
<Placemark>
<name>狭山ヶ丘駅東口</name>
<description></description>
<Point>
<coordinates>139.41712951660156,35.811336517333984,0</coordinates>
</Point>
</Placemark>
<Placemark>
<name>南入曽前原</name>
<description></description>
<Point>
<coordinates>139.42984008789062,35.8329963684082,0</coordinates>
</Point>
</Placemark>
<Placemark>
<name>狭山入曽郵便局</name>
<description></description>
<Point>
<coordinates>139.43051147460938,35.83031463623047,0</coordinates>
</Point>
</Placemark>
<Placemark>
<name>月見野</name>
<description></description>
<Point>
<coordinates>139.4333038330078,35.82974624633789,0</coordinates>
</Point>
</Placemark>
<Placemark>
<name>若葉台児童交通公園</name>
<description></description>
<Point>
<coordinates>139.4294891357422,35.827239990234375,0</coordinates>
</Point>
</Placemark>
<Placemark>
<name>水野保育所</name>
<description></description>
<Point>
<coordinates>139.42779541015625,35.8260383605957,0</coordinates>
</Point>
</Placemark>
<Placemark>
<name>和田安松</name>
<description></description>
<Point>
<coordinates>139.5060272216797,35.79190444946289,0</coordinates>
</Point>
</Placemark>
<Placemark>
<name>あたご橋</name>
<description></description>
<Point>
<coordinates>139.54843139648438,35.79022216796875,0</coordinates>
</Point>
</Placemark>
<Placemark>
<name>本多一丁目</name>
<description></description>
<Point>
<coordinates>139.55784606933594,35.78171920776367,0</coordinates>
</Point>
</Placemark>
<Placemark>
<name>小手指中学校前</name>
<description></description>
<Point>
<coordinates>139.4306182861328,35.79008483886719,0</coordinates>
</Point>
</Placemark>
<Placemark>
<name>早稲田大学</name>
<description></description>
<Point>
<coordinates>139.40213012695312,35.78759765625,0</coordinates>
</Point>
</Placemark>
<Placemark>
<name>宮寺西</name>
<description></description>
<Point>
<coordinates>139.3728485107422,35.79241943359375,0</coordinates>
</Point>
</Placemark>
<Placemark>
<name>JA宮寺支店前</name>
<description></description>
<Point>
<coordinates>139.37765502929688,35.79254913330078,0</coordinates>
</Point>
</Placemark>
<Placemark>
<name>こてさし荘入口</name>
<description></description>
<Point>
<coordinates>139.4290771484375,35.79433822631836,0</coordinates>
</Point>
</Placemark>
<Placemark>
<name>高橋</name>
<description></description>
<Point>
<coordinates>139.4253692626953,35.77786636352539,0</coordinates>
</Point>
</Placemark>
<Placemark>
<name>堀口</name>
<description></description>
<Point>
<coordinates>139.41917419433594,35.77777862548828,0</coordinates>
</Point>
</Placemark>
<Placemark>
<name>上山口</name>
<description></description>
<Point>
<coordinates>139.4207763671875,35.77560806274414,0</coordinates>
</Point>
</Placemark>
<Placemark>
<name>中氷川神社</name>
<description></description>
<Point>
<coordinates>139.4303741455078,35.77783966064453,0</coordinates>
</Point>
</Placemark>
<Placemark>
<name>宮寺地区体育館入口</name>
<description></description>
<Point>
<coordinates>139.37965393066406,35.794246673583984,0</coordinates>
</Point>
</Placemark>
<Placemark>
<name>宮後</name>
<description></description>
<Point>
<coordinates>139.4282989501953,35.7926139831543,0</coordinates>
</Point>
</Placemark>
<Placemark>
<name>高峰</name>
<description></description>
<Point>
<coordinates>139.42672729492188,35.78575134277344,0</coordinates>
</Point>
</Placemark>
<Placemark>
<name>堀之内</name>
<description></description>
<Point>
<coordinates>139.3968963623047,35.78996276855469,0</coordinates>
</Point>
</Placemark>
<Placemark>
<name>峰の下</name>
<description></description>
<Point>
<coordinates>139.45704650878906,35.772891998291016,0</coordinates>
</Point>
</Placemark>
<Placemark>
<name>松が丘中央</name>
<description></description>
<Point>
<coordinates>139.45970153808594,35.773868560791016,0</coordinates>
</Point>
</Placemark>
<Placemark>
<name>水天宮下</name>
<description></description>
<Point>
<coordinates>139.46136474609375,35.7758674621582,0</coordinates>
</Point>
</Placemark>
<Placemark>
<name>悲田処跡</name>
<description></description>
<Point>
<coordinates>139.46434020996094,35.77608871459961,0</coordinates>
</Point>
</Placemark>
<Placemark>
<name>将軍塚</name>
<description></description>
<Point>
<coordinates>139.4673309326172,35.77509689331055,0</coordinates>
</Point>
</Placemark>
<Placemark>
<name>勢揃橋</name>
<description></description>
<Point>
<coordinates>139.4694366455078,35.77742004394531,0</coordinates>
</Point>
</Placemark>
<Placemark>
<name>松井</name>
<description></description>
<Point>
<coordinates>139.48951721191406,35.790287017822266,0</coordinates>
</Point>
</Placemark>
<Placemark>
<name>上安松</name>
<description></description>
<Point>
<coordinates>139.4921875,35.790679931640625,0</coordinates>
</Point>
</Placemark>
<Placemark>
<name>北御幸町</name>
<description></description>
<Point>
<coordinates>139.4718475341797,35.793357849121094,0</coordinates>
</Point>
</Placemark>
<Placemark>
<name>大沢</name>
<description></description>
<Point>
<coordinates>139.43618774414062,35.794918060302734,0</coordinates>
</Point>
</Placemark>
<Placemark>
<name>大沢橋</name>
<description></description>
<Point>
<coordinates>139.43878173828125,35.79414367675781,0</coordinates>
</Point>
</Placemark>
<Placemark>
<name>大六天北</name>
<description></description>
<Point>
<coordinates>139.44229125976562,35.792842864990234,0</coordinates>
</Point>
</Placemark>
<Placemark>
<name>東中学校入口</name>
<description></description>
<Point>
<coordinates>139.4951629638672,35.7910270690918,0</coordinates>
</Point>
</Placemark>
<Placemark>
<name>市民医療センター入口</name>
<description></description>
<Point>
<coordinates>139.4822998046875,35.79290008544922,0</coordinates>
</Point>
</Placemark>
<Placemark>
<name>小手指小学校前</name>
<description></description>
<Point>
<coordinates>139.43580627441406,35.79067611694336,0</coordinates>
</Point>
</Placemark>
<Placemark>
<name>椿峰ニュータウン</name>
<description></description>
<Point>
<coordinates>139.43809509277344,35.78468704223633,0</coordinates>
</Point>
</Placemark>
<Placemark>
<name>所沢駅東口通り</name>
<description></description>
<Point>
<coordinates>139.4769287109375,35.78681182861328,0</coordinates>
</Point>
</Placemark>
<Placemark>
<name>南大谷公園</name>
<description></description>
<Point>
<coordinates>139.45489501953125,35.771541595458984,0</coordinates>
</Point>
</Placemark>
<Placemark>
<name>所沢陸橋北</name>
<description></description>
<Point>
<coordinates>139.48231506347656,35.791046142578125,0</coordinates>
</Point>
</Placemark>
<Placemark>
<name>日月神社</name>
<description></description>
<Point>
<coordinates>139.47842407226562,35.77962112426758,0</coordinates>
</Point>
</Placemark>
<Placemark>
<name>永源寺</name>
<description></description>
<Point>
<coordinates>139.45785522460938,35.78255081176758,0</coordinates>
</Point>
</Placemark>
<Placemark>
<name>春の台公園</name>
<description></description>
<Point>
<coordinates>139.4547882080078,35.78465270996094,0</coordinates>
</Point>
</Placemark>
<Placemark>
<name>瑞岩寺前</name>
<description></description>
<Point>
<coordinates>139.44937133789062,35.784976959228516,0</coordinates>
</Point>
</Placemark>
<Placemark>
<name>松が丘西</name>
<description></description>
<Point>
<coordinates>139.45248413085938,35.770538330078125,0</coordinates>
</Point>
</Placemark>
<Placemark>
<name>仏蔵院前</name>
<description></description>
<Point>
<coordinates>139.44407653808594,35.782142639160156,0</coordinates>
</Point>
</Placemark>
<Placemark>
<name>大森</name>
<description></description>
<Point>
<coordinates>139.37704467773438,35.804039001464844,0</coordinates>
</Point>
</Placemark>
<Placemark>
<name>船久保工場前</name>
<description></description>
<Point>
<coordinates>139.3778533935547,35.81153869628906,0</coordinates>
</Point>
</Placemark>
<Placemark>
<name>人事院研修所</name>
<description></description>
<Point>
<coordinates>139.3766326904297,35.816104888916016,0</coordinates>
</Point>
</Placemark>
<Placemark>
<name>東金子</name>
<description></description>
<Point>
<coordinates>139.37672424316406,35.820106506347656,0</coordinates>
</Point>
</Placemark>
<Placemark>
<name>武蔵団地入口</name>
<description></description>
<Point>
<coordinates>139.3815460205078,35.82634735107422,0</coordinates>
</Point>
</Placemark>
<Placemark>
<name>扇町屋</name>
<description></description>
<Point>
<coordinates>139.38304138183594,35.82978439331055,0</coordinates>
</Point>
</Placemark>
<Placemark>
<name>坂下</name>
<description></description>
<Point>
<coordinates>139.3779754638672,35.82688522338867,0</coordinates>
</Point>
</Placemark>
<Placemark>
<name>扇町屋二</name>
<description></description>
<Point>
<coordinates>139.38449096679688,35.83226013183594,0</coordinates>
</Point>
</Placemark>
<Placemark>
<name>扇町屋一丁目</name>
<description></description>
<Point>
<coordinates>139.38888549804688,35.830535888671875,0</coordinates>
</Point>
</Placemark>
<Placemark>
<name>扇町屋中央</name>
<description></description>
<Point>
<coordinates>139.38658142089844,35.835140228271484,0</coordinates>
</Point>
</Placemark>
<Placemark>
<name>入間市役所</name>
<description></description>
<Point>
<coordinates>139.39208984375,35.835914611816406,0</coordinates>
</Point>
</Placemark>
<Placemark>
<name>藤沢中学校</name>
<description></description>
<Point>
<coordinates>139.40162658691406,35.8247184753418,0</coordinates>
</Point>
</Placemark>
<Placemark>
<name>県営住宅入口</name>
<description></description>
<Point>
<coordinates>139.39588928222656,35.8244514465332,0</coordinates>
</Point>
</Placemark>
<Placemark>
<name>金井ヶ原入口</name>
<description></description>
<Point>
<coordinates>139.410888671875,35.80058288574219,0</coordinates>
</Point>
</Placemark>
<Placemark>
<name>甲地蔵</name>
<description></description>
<Point>
<coordinates>139.41810607910156,35.805747985839844,0</coordinates>
</Point>
</Placemark>
<Placemark>
<name>入曽駅</name>
<description></description>
<Point>
<coordinates>139.42726135253906,35.83283233642578,0</coordinates>
</Point>
</Placemark>
<Placemark>
<name>入間扇町屋団地</name>
<description></description>
<Point>
<coordinates>139.39364624023438,35.82634353637695,0</coordinates>
</Point>
</Placemark>
<Placemark>
<name>入曽駅入口</name>
<description></description>
<Point>
<coordinates>139.42604064941406,35.834129333496094,0</coordinates>
</Point>
</Placemark>
<Placemark>
<name>藤沢十字路</name>
<description></description>
<Point>
<coordinates>139.41067504882812,35.824588775634766,0</coordinates>
</Point>
</Placemark>
<Placemark>
<name>西武住宅前</name>
<description></description>
<Point>
<coordinates>139.37423706054688,35.802093505859375,0</coordinates>
</Point>
</Placemark>
<Placemark>
<name>西武グリーンヒル</name>
<description></description>
<Point>
<coordinates>139.39657592773438,35.821617126464844,0</coordinates>
</Point>
</Placemark>
<Placemark>
<name>武蔵藤沢駅</name>
<description></description>
<Point>
<coordinates>139.41209411621094,35.82146072387695,0</coordinates>
</Point>
</Placemark>
<Placemark>
<name>高見原</name>
<description></description>
<Point>
<coordinates>139.3990020751953,35.82306671142578,0</coordinates>
</Point>
</Placemark>
<Placemark>
<name>狭山ヶ丘住宅入口</name>
<description></description>
<Point>
<coordinates>139.41171264648438,35.801856994628906,0</coordinates>
</Point>
</Placemark>
<Placemark>
<name>高倉小学校</name>
<description></description>
<Point>
<coordinates>139.37953186035156,35.835201263427734,0</coordinates>
</Point>
</Placemark>
<Placemark>
<name>中野原稲荷</name>
<description></description>
<Point>
<coordinates>139.37318420410156,35.828548431396484,0</coordinates>
</Point>
</Placemark>
<Placemark>
<name>大森通り中央</name>
<description></description>
<Point>
<coordinates>139.37921142578125,35.797637939453125,0</coordinates>
</Point>
</Placemark>
<Placemark>
<name>大森会館前</name>
<description></description>
<Point>
<coordinates>139.3797149658203,35.80134582519531,0</coordinates>
</Point>
</Placemark>
<Placemark>
<name>やまゆり荘</name>
<description></description>
<Point>
<coordinates>139.38201904296875,35.803932189941406,0</coordinates>
</Point>
</Placemark>
<Placemark>
<name>下枝医院前</name>
<description></description>
<Point>
<coordinates>139.38157653808594,35.80607986450195,0</coordinates>
</Point>
</Placemark>
<Placemark>
<name>縄竹公会堂</name>
<description></description>
<Point>
<coordinates>139.37741088867188,35.80717468261719,0</coordinates>
</Point>
</Placemark>
<Placemark>
<name>武蔵中学校</name>
<description></description>
<Point>
<coordinates>139.37464904785156,35.81122970581055,0</coordinates>
</Point>
</Placemark>
<Placemark>
<name>十四区集会所</name>
<description></description>
<Point>
<coordinates>139.3734588623047,35.81452941894531,0</coordinates>
</Point>
</Placemark>
<Placemark>
<name>東台</name>
<description></description>
<Point>
<coordinates>139.4055938720703,35.8263053894043,0</coordinates>
</Point>
</Placemark>
<Placemark>
<name>澤田医院前</name>
<description></description>
<Point>
<coordinates>139.4059600830078,35.82164764404297,0</coordinates>
</Point>
</Placemark>
<Placemark>
<name>藤沢支所</name>
<description></description>
<Point>
<coordinates>139.40252685546875,35.81774139404297,0</coordinates>
</Point>
</Placemark>
<Placemark>
<name>藤沢橋東</name>
<description></description>
<Point>
<coordinates>139.3997802734375,35.81462860107422,0</coordinates>
</Point>
</Placemark>
<Placemark>
<name>上藤沢</name>
<description></description>
<Point>
<coordinates>139.3899688720703,35.809356689453125,0</coordinates>
</Point>
</Placemark>
<Placemark>
<name>北中</name>
<description></description>
<Point>
<coordinates>139.43421936035156,35.80928039550781,0</coordinates>
</Point>
</Placemark>
<Placemark>
<name>吉祥院前</name>
<description></description>
<Point>
<coordinates>139.42820739746094,35.812042236328125,0</coordinates>
</Point>
</Placemark>
<Placemark>
<name>宮前小学校入口</name>
<description></description>
<Point>
<coordinates>139.42462158203125,35.813751220703125,0</coordinates>
</Point>
</Placemark>
<Placemark>
<name>東狭山ヶ丘一丁目</name>
<description></description>
<Point>
<coordinates>139.41952514648438,35.81515884399414,0</coordinates>
</Point>
</Placemark>
<Placemark>
<name>産業文化センター</name>
<description></description>
<Point>
<coordinates>139.39564514160156,35.835472106933594,0</coordinates>
</Point>
</Placemark>
<Placemark>
<name>豊岡四</name>
<description></description>
<Point>
<coordinates>139.39498901367188,35.83440017700195,0</coordinates>
</Point>
</Placemark>
<Placemark>
<name>東町小学校</name>
<description></description>
<Point>
<coordinates>139.39993286132812,35.83386993408203,0</coordinates>
</Point>
</Placemark>
<Placemark>
<name>東久保団地</name>
<description></description>
<Point>
<coordinates>139.4051055908203,35.83395767211914,0</coordinates>
</Point>
</Placemark>
<Placemark>
<name>東町団地</name>
<description></description>
<Point>
<coordinates>139.4091339111328,35.830936431884766,0</coordinates>
</Point>
</Placemark>
<Placemark>
<name>東町五丁目</name>
<description></description>
<Point>
<coordinates>139.40823364257812,35.8293571472168,0</coordinates>
</Point>
</Placemark>
<Placemark>
<name>下藤沢</name>
<description></description>
<Point>
<coordinates>139.40870666503906,35.82764434814453,0</coordinates>
</Point>
</Placemark>
<Placemark>
<name>東町公民館入口</name>
<description></description>
<Point>
<coordinates>139.40106201171875,35.831974029541016,0</coordinates>
</Point>
</Placemark>
<Placemark>
<name>東町公民館</name>
<description></description>
<Point>
<coordinates>139.40037536621094,35.830543518066406,0</coordinates>
</Point>
</Placemark>
<Placemark>
<name>入間扇町屋団地中央</name>
<description></description>
<Point>
<coordinates>139.39605712890625,35.8274040222168,0</coordinates>
</Point>
</Placemark>
<Placemark>
<name>ユアコート入間前</name>
<description></description>
<Point>
<coordinates>139.38470458984375,35.827571868896484,0</coordinates>
</Point>
</Placemark>
<Placemark>
<name>水野公民館入口</name>
<description></description>
<Point>
<coordinates>139.4237823486328,35.824825286865234,0</coordinates>
</Point>
</Placemark>
<Placemark>
<name>水野郵便局</name>
<description></description>
<Point>
<coordinates>139.4197540283203,35.82203674316406,0</coordinates>
</Point>
</Placemark>
<Placemark>
<name>水野本堀</name>
<description></description>
<Point>
<coordinates>139.41432189941406,35.826942443847656,0</coordinates>
</Point>
</Placemark>
<Placemark>
<name>入曽多目的広場南</name>
<description></description>
<Point>
<coordinates>139.4173126220703,35.828704833984375,0</coordinates>
</Point>
</Placemark>
<Placemark>
<name>西前原</name>
<description></description>
<Point>
<coordinates>139.42103576660156,35.830894470214844,0</coordinates>
</Point>
</Placemark>
<Placemark>
<name>老人福祉センター不老荘</name>
<description></description>
<Point>
<coordinates>139.4177703857422,35.833961486816406,0</coordinates>
</Point>
</Placemark>
<Placemark>
<name>扇町屋五</name>
<description></description>
<Point>
<coordinates>139.38262939453125,35.82589340209961,0</coordinates>
</Point>
</Placemark>
<Placemark>
<name>JA豊岡支店前</name>
<description></description>
<Point>
<coordinates>139.3863983154297,35.829254150390625,0</coordinates>
</Point>
</Placemark>
<Placemark>
<name>奈賀町</name>
<description></description>
<Point>
<coordinates>139.3855438232422,35.833683013916016,0</coordinates>
</Point>
</Placemark>
<Placemark>
<name>入間市市民会館</name>
<description></description>
<Point>
<coordinates>139.38966369628906,35.83296585083008,0</coordinates>
</Point>
</Placemark>
<Placemark>
<name>健康福祉センター</name>
<description></description>
<Point>
<coordinates>139.3902587890625,35.814674377441406,0</coordinates>
</Point>
</Placemark>
<Placemark>
<name>市営住宅前</name>
<description></description>
<Point>
<coordinates>139.3906707763672,35.82883071899414,0</coordinates>
</Point>
</Placemark>
<Placemark>
<name>市民プール入口</name>
<description></description>
<Point>
<coordinates>139.4322509765625,35.798099517822266,0</coordinates>
</Point>
</Placemark>
<Placemark>
<name>三井アウトレットパーク前</name>
<description></description>
<Point>
<coordinates>139.3787384033203,35.8084831237793,0</coordinates>
</Point>
</Placemark>
<Placemark>
<name>神明神社</name>
<description></description>
<Point>
<coordinates>139.39488220214844,35.812808990478516,0</coordinates>
</Point>
</Placemark>
<Placemark>
<name>藤沢駅入口</name>
<description></description>
<Point>
<coordinates>139.4077911376953,35.82283401489258,0</coordinates>
</Point>
</Placemark>
<Placemark>
<name>安川新道口</name>
<description></description>
<Point>
<coordinates>139.40663146972656,35.82837677001953,0</coordinates>
</Point>
</Placemark>
<Placemark>
<name>不老荘東</name>
<description></description>
<Point>
<coordinates>139.42221069335938,35.83427429199219,0</coordinates>
</Point>
</Placemark>
<Placemark>
<name>文化村</name>
<description></description>
<Point>
<coordinates>139.37741088867188,35.83156967163086,0</coordinates>
</Point>
</Placemark>
<Placemark>
<name>野球場南</name>
<description></description>
<Point>
<coordinates>139.4296417236328,35.82332229614258,0</coordinates>
</Point>
</Placemark>
<Placemark>
<name>所沢市民体育館</name>
<description></description>
<Point>
<coordinates>139.46173095703125,35.81026077270508,0</coordinates>
</Point>
</Placemark>
<Placemark>
<name>美原町三丁目</name>
<description></description>
<Point>
<coordinates>139.4619598388672,35.81300354003906,0</coordinates>
</Point>
</Placemark>
<Placemark>
<name>伸栄小学校前</name>
<description></description>
<Point>
<coordinates>139.46551513671875,35.81672668457031,0</coordinates>
</Point>
</Placemark>
<Placemark>
<name>所沢新田</name>
<description></description>
<Point>
<coordinates>139.4654998779297,35.821044921875,0</coordinates>
</Point>
</Placemark>
<Placemark>
<name>下富</name>
<description></description>
<Point>
<coordinates>139.46585083007812,35.826751708984375,0</coordinates>
</Point>
</Placemark>
<Placemark>
<name>富岡</name>
<description></description>
<Point>
<coordinates>139.46170043945312,35.826377868652344,0</coordinates>
</Point>
</Placemark>
<Placemark>
<name>西武バス所沢営業所</name>
<description></description>
<Point>
<coordinates>139.46495056152344,35.83168411254883,0</coordinates>
</Point>
</Placemark>
<Placemark>
<name>十四軒</name>
<description></description>
<Point>
<coordinates>139.4584197998047,35.833560943603516,0</coordinates>
</Point>
</Placemark>
<Placemark>
<name>雪見ヶ原</name>
<description></description>
<Point>
<coordinates>139.4534454345703,35.83237838745117,0</coordinates>
</Point>
</Placemark>
<Placemark>
<name>ショッピングセンター前</name>
<description></description>
<Point>
<coordinates>139.4492645263672,35.83049774169922,0</coordinates>
</Point>
</Placemark>
<Placemark>
<name>西武フラワーヒル</name>
<description></description>
<Point>
<coordinates>139.44659423828125,35.829185485839844,0</coordinates>
</Point>
</Placemark>
<Placemark>
<name>こぶし団地入口</name>
<description></description>
<Point>
<coordinates>139.47999572753906,35.79911422729492,0</coordinates>
</Point>
</Placemark>
<Placemark>
<name>若松町</name>
<description></description>
<Point>
<coordinates>139.48587036132812,35.8045654296875,0</coordinates>
</Point>
</Placemark>
<Placemark>
<name>秩父学園前</name>
<description></description>
<Point>
<coordinates>139.4838104248047,35.80385971069336,0</coordinates>
</Point>
</Placemark>
<Placemark>
<name>北原町中央</name>
<description></description>
<Point>
<coordinates>139.4801025390625,35.80587387084961,0</coordinates>
</Point>
</Placemark>
<Placemark>
<name>所沢聖地霊園</name>
<description></description>
<Point>
<coordinates>139.49009704589844,35.80653762817383,0</coordinates>
</Point>
</Placemark>
<Placemark>
<name>中富南</name>
<description></description>
<Point>
<coordinates>139.49383544921875,35.809410095214844,0</coordinates>
</Point>
</Placemark>
<Placemark>
<name>並木通り団地入口</name>
<description></description>
<Point>
<coordinates>139.48011779785156,35.80971145629883,0</coordinates>
</Point>
</Placemark>
<Placemark>
<name>並木通り団地</name>
<description></description>
<Point>
<coordinates>139.47789001464844,35.80903625488281,0</coordinates>
</Point>
</Placemark>
<Placemark>
<name>北原</name>
<description></description>
<Point>
<coordinates>139.48013305664062,35.811370849609375,0</coordinates>
</Point>
</Placemark>
<Placemark>
<name>ニュータウン西</name>
<description></description>
<Point>
<coordinates>139.4709014892578,35.81623458862305,0</coordinates>
</Point>
</Placemark>
<Placemark>
<name>市民武道館</name>
<description></description>
<Point>
<coordinates>139.48153686523438,35.813621520996094,0</coordinates>
</Point>
</Placemark>
<Placemark>
<name>松下</name>
<description></description>
<Point>
<coordinates>139.48313903808594,35.81536102294922,0</coordinates>
</Point>
</Placemark>
<Placemark>
<name>ニュータウン中央</name>
<description></description>
<Point>
<coordinates>139.47520446777344,35.81589126586914,0</coordinates>
</Point>
</Placemark>
<Placemark>
<name>所沢ニュータウン</name>
<description></description>
<Point>
<coordinates>139.4798126220703,35.8165397644043,0</coordinates>
</Point>
</Placemark>
<Placemark>
<name>中富</name>
<description></description>
<Point>
<coordinates>139.48748779296875,35.81803894042969,0</coordinates>
</Point>
</Placemark>
<Placemark>
<name>中富東</name>
<description></description>
<Point>
<coordinates>139.49159240722656,35.82002639770508,0</coordinates>
</Point>
</Placemark>
<Placemark>
<name>中富角</name>
<description></description>
<Point>
<coordinates>139.4958953857422,35.82208251953125,0</coordinates>
</Point>
</Placemark>
<Placemark>
<name>花園</name>
<description></description>
<Point>
<coordinates>139.4613800048828,35.815574645996094,0</coordinates>
</Point>
</Placemark>
<Placemark>
<name>下新井新道</name>
<description></description>
<Point>
<coordinates>139.4893798828125,35.80281448364258,0</coordinates>
</Point>
</Placemark>
<Placemark>
<name>牛沼</name>
<description></description>
<Point>
<coordinates>139.49169921875,35.79957580566406,0</coordinates>
</Point>
</Placemark>
<Placemark>
<name>シチズン前</name>
<description></description>
<Point>
<coordinates>139.46536254882812,35.83505630493164,0</coordinates>
</Point>
</Placemark>
<Placemark>
<name>新所沢駅東口</name>
<description></description>
<Point>
<coordinates>139.45648193359375,35.807159423828125,0</coordinates>
</Point>
</Placemark>
<Placemark>
<name>新所沢駅西口</name>
<description></description>
<Point>
<coordinates>139.4551544189453,35.80626678466797,0</coordinates>
</Point>
</Placemark>
<Placemark>
<name>富岡公民館</name>
<description></description>
<Point>
<coordinates>139.45037841796875,35.82356643676758,0</coordinates>
</Point>
</Placemark>
<Placemark>
<name>とみおか荘</name>
<description></description>
<Point>
<coordinates>139.45187377929688,35.82367706298828,0</coordinates>
</Point>
</Placemark>
<Placemark>
<name>北岩岡</name>
<description></description>
<Point>
<coordinates>139.44317626953125,35.82076644897461,0</coordinates>
</Point>
</Placemark>
<Placemark>
<name>向陽ハイツ前</name>
<description></description>
<Point>
<coordinates>139.4481201171875,35.81238555908203,0</coordinates>
</Point>
</Placemark>
<Placemark>
<name>ハナミズキ通り</name>
<description></description>
<Point>
<coordinates>139.4399871826172,35.804378509521484,0</coordinates>
</Point>
</Placemark>
<Placemark>
<name>小手指駅北口</name>
<description></description>
<Point>
<coordinates>139.4379425048828,35.80132293701172,0</coordinates>
</Point>
</Placemark>
<Placemark>
<name>彩のクリニック</name>
<description></description>
<Point>
<coordinates>139.43505859375,35.799015045166016,0</coordinates>
</Point>
</Placemark>
<Placemark>
<name>新所沢コミュニティセンター</name>
<description></description>
<Point>
<coordinates>139.4498291015625,35.802310943603516,0</coordinates>
</Point>
</Placemark>
<Placemark>
<name>緑町中央公園</name>
<description></description>
<Point>
<coordinates>139.45213317871094,35.80447006225586,0</coordinates>
</Point>
</Placemark>
<Placemark>
<name>北所沢町</name>
<description></description>
<Point>
<coordinates>139.4552764892578,35.810150146484375,0</coordinates>
</Point>
</Placemark>
<Placemark>
<name>美原町五丁目</name>
<description></description>
<Point>
<coordinates>139.45704650878906,35.8092155456543,0</coordinates>
</Point>
</Placemark>
<Placemark>
<name>ニュータウン南</name>
<description></description>
<Point>
<coordinates>139.4676971435547,35.81482696533203,0</coordinates>
</Point>
</Placemark>
<Placemark>
<name>中新井五丁目</name>
<description></description>
<Point>
<coordinates>139.4765625,35.818336486816406,0</coordinates>
</Point>
</Placemark>
<Placemark>
<name>月野原</name>
<description></description>
<Point>
<coordinates>139.47531127929688,35.8226432800293,0</coordinates>
</Point>
</Placemark>
<Placemark>
<name>所沢リハビリテーション病院</name>
<description></description>
<Point>
<coordinates>139.48126220703125,35.826683044433594,0</coordinates>
</Point>
</Placemark>
<Placemark>
<name>下富北</name>
<description></description>
<Point>
<coordinates>139.47952270507812,35.83144760131836,0</coordinates>
</Point>
</Placemark>
<Placemark>
<name>下富公民館</name>
<description></description>
<Point>
<coordinates>139.4752197265625,35.82846450805664,0</coordinates>
</Point>
</Placemark>
<Placemark>
<name>下富片側</name>
<description></description>
<Point>
<coordinates>139.470703125,35.82589340209961,0</coordinates>
</Point>
</Placemark>
<Placemark>
<name>中富南三丁目</name>
<description></description>
<Point>
<coordinates>139.48953247070312,35.81310272216797,0</coordinates>
</Point>
</Placemark>
<Placemark>
<name>松葉町</name>
<description></description>
<Point>
<coordinates>139.45965576171875,35.80656051635742,0</coordinates>
</Point>
</Placemark>
<Placemark>
<name>弥生町</name>
<description></description>
<Point>
<coordinates>139.46128845214844,35.8062858581543,0</coordinates>
</Point>
</Placemark>
<Placemark>
<name>防衛医大病院前</name>
<description></description>
<Point>
<coordinates>139.46481323242188,35.801307678222656,0</coordinates>
</Point>
</Placemark>
<Placemark>
<name>喜多町</name>
<description></description>
<Point>
<coordinates>139.46145629882812,35.7994499206543,0</coordinates>
</Point>
</Placemark>
<Placemark>
<name>愛武館</name>
<description></description>
<Point>
<coordinates>139.43511962890625,35.83413314819336,0</coordinates>
</Point>
</Placemark>
<Placemark>
<name>フラワーヒル西</name>
<description></description>
<Point>
<coordinates>139.44430541992188,35.82902526855469,0</coordinates>
</Point>
</Placemark>
<Placemark>
<name>東急狭山団地</name>
<description></description>
<Point>
<coordinates>139.44131469726562,35.829864501953125,0</coordinates>
</Point>
</Placemark>
<Placemark>
<name>大生病院入口</name>
<description></description>
<Point>
<coordinates>139.44964599609375,35.83327102661133,0</coordinates>
</Point>
</Placemark>
<Placemark>
<name>北田</name>
<description></description>
<Point>
<coordinates>139.4461669921875,35.82252883911133,0</coordinates>
</Point>
</Placemark>
<Placemark>
<name>西富小学校入口</name>
<description></description>
<Point>
<coordinates>139.44482421875,35.816162109375,0</coordinates>
</Point>
</Placemark>
<Placemark>
<name>富岡中学校</name>
<description></description>
<Point>
<coordinates>139.46031188964844,35.82481002807617,0</coordinates>
</Point>
</Placemark>
<Placemark>
<name>花園四丁目</name>
<description></description>
<Point>
<coordinates>139.46356201171875,35.81737518310547,0</coordinates>
</Point>
</Placemark>
<Placemark>
<name>中新井一丁目</name>
<description></description>
<Point>
<coordinates>139.46395874023438,35.814266204833984,0</coordinates>
</Point>
</Placemark>
<Placemark>
<name>榎町</name>
<description></description>
<Point>
<coordinates>139.4447784423828,35.80257034301758,0</coordinates>
</Point>
</Placemark>
<Placemark>
<name>緑町四丁目</name>
<description></description>
<Point>
<coordinates>139.45127868652344,35.8086051940918,0</coordinates>
</Point>
</Placemark>
<Placemark>
<name>向陽町</name>
<description></description>
<Point>
<coordinates>139.44973754882812,35.810611724853516,0</coordinates>
</Point>
</Placemark>
<Placemark>
<name>リハビリテーションセンター</name>
<description></description>
<Point>
<coordinates>139.46395874023438,35.80486297607422,0</coordinates>
</Point>
</Placemark>
<Placemark>
<name>緑町二丁目</name>
<description></description>
<Point>
<coordinates>139.4556121826172,35.803489685058594,0</coordinates>
</Point>
</Placemark>
<Placemark>
<name>泉町</name>
<description></description>
<Point>
<coordinates>139.45765686035156,35.800933837890625,0</coordinates>
</Point>
</Placemark>
<Placemark>
<name>所沢中学校前</name>
<description></description>
<Point>
<coordinates>139.45880126953125,35.79948425292969,0</coordinates>
</Point>
</Placemark>
<Placemark>
<name>道傍公園</name>
<description></description>
<Point>
<coordinates>139.49200439453125,35.81135559082031,0</coordinates>
</Point>
</Placemark>
<Placemark>
<name>武蔵原公園</name>
<description></description>
<Point>
<coordinates>139.49501037597656,35.812984466552734,0</coordinates>
</Point>
</Placemark>
<Placemark>
<name>並木公民館入口</name>
<description></description>
<Point>
<coordinates>139.4717254638672,35.8132209777832,0</coordinates>
</Point>
</Placemark>
<Placemark>
<name>入曽運動広場</name>
<description></description>
<Point>
<coordinates>139.43692016601562,35.827476501464844,0</coordinates>
</Point>
</Placemark>
<Placemark>
<name>新東橋</name>
<description></description>
<Point>
<coordinates>139.4812774658203,35.79540252685547,0</coordinates>
</Point>
</Placemark>
<Placemark>
<name>はくれん通り</name>
<description></description>
<Point>
<coordinates>139.45846557617188,35.795875549316406,0</coordinates>
</Point>
</Placemark>
<Placemark>
<name>ネオポリス中央</name>
<description></description>
<Point>
<coordinates>139.45419311523438,35.82550048828125,0</coordinates>
</Point>
</Placemark>
<Placemark>
<name>柳野公園</name>
<description></description>
<Point>
<coordinates>139.45645141601562,35.82565689086914,0</coordinates>
</Point>
</Placemark>
<Placemark>
<name>東台</name>
<description></description>
<Point>
<coordinates>139.40464782714844,35.8270378112793,0</coordinates>
</Point>
</Placemark>
<Placemark>
<name>南矢萩</name>
<description></description>
<Point>
<coordinates>139.38693237304688,35.79228973388672,0</coordinates>
</Point>
</Placemark>
<Placemark>
<name>川辺公園</name>
<description></description>
<Point>
<coordinates>139.42393493652344,35.775634765625,0</coordinates>
</Point>
</Placemark>
<Placemark>
<name>西武園ゆうえんち</name>
<description></description>
<Point>
<coordinates>139.4431610107422,35.766849517822266,0</coordinates>
</Point>
</Placemark>
<Placemark>
<name>小手指公園北</name>
<description></description>
<Point>
<coordinates>139.43881225585938,35.806644439697266,0</coordinates>
</Point>
</Placemark>
<Placemark>
<name>多聞院通り西</name>
<description></description>
<Point>
<coordinates>139.48565673828125,35.82899475097656,0</coordinates>
</Point>
</Placemark>
<Placemark>
<name>工業団地入口</name>
<description></description>
<Point>
<coordinates>139.3766632080078,35.81184005737305,0</coordinates>
</Point>
</Placemark>
<Placemark>
<name>西武グリーンヒル</name>
<description></description>
<Point>
<coordinates>139.51141357421875,35.785892486572266,0</coordinates>
</Point>
</Placemark>
<Placemark>
<name>下安松</name>
<description></description>
<Point>
<coordinates>139.5031280517578,35.79173278808594,0</coordinates>
</Point>
</Placemark>
<Placemark>
<name>愛宕山</name>
<description></description>
<Point>
<coordinates>139.50234985351562,35.79053497314453,0</coordinates>
</Point>
</Placemark>
<Placemark>
<name>安松</name>
<description></description>
<Point>
<coordinates>139.49830627441406,35.79110336303711,0</coordinates>
</Point>
</Placemark>
<Placemark>
<name>柳瀬川</name>
<description></description>
<Point>
<coordinates>139.50625610351562,35.788726806640625,0</coordinates>
</Point>
</Placemark>
<Placemark>
<name>名古屋</name>
<description></description>
<Point>
<coordinates>139.51771545410156,35.79458236694336,0</coordinates>
</Point>
</Placemark>
<Placemark>
<name>別れ道</name>
<description></description>
<Point>
<coordinates>139.54959106445312,35.760684967041016,0</coordinates>
</Point>
</Placemark>
<Placemark>
<name>栗原</name>
<description></description>
<Point>
<coordinates>139.55166625976562,35.76249313354492,0</coordinates>
</Point>
</Placemark>
<Placemark>
<name>火の見下</name>
<description></description>
<Point>
<coordinates>139.5567626953125,35.76570129394531,0</coordinates>
</Point>
</Placemark>
<Placemark>
<name>貝沼</name>
<description></description>
<Point>
<coordinates>139.55862426757812,35.76717758178711,0</coordinates>
</Point>
</Placemark>
<Placemark>
<name>小山入口</name>
<description></description>
<Point>
<coordinates>139.5327606201172,35.77028274536133,0</coordinates>
</Point>
</Placemark>
<Placemark>
<name>西堀南</name>
<description></description>
<Point>
<coordinates>139.53811645507812,35.7718620300293,0</coordinates>
</Point>
</Placemark>
<Placemark>
<name>西屋敷</name>
<description></description>
<Point>
<coordinates>139.5534210205078,35.78159713745117,0</coordinates>
</Point>
</Placemark>
<Placemark>
<name>中郷</name>
<description></description>
<Point>
<coordinates>139.54672241210938,35.79420852661133,0</coordinates>
</Point>
</Placemark>
<Placemark>
<name>野火止三丁目</name>
<description></description>
<Point>
<coordinates>139.55294799804688,35.794376373291016,0</coordinates>
</Point>
</Placemark>
<Placemark>
<name>台</name>
<description></description>
<Point>
<coordinates>139.55401611328125,35.7877311706543,0</coordinates>
</Point>
</Placemark>
<Placemark>
<name>安松中学校入口</name>
<description></description>
<Point>
<coordinates>139.51039123535156,35.79249954223633,0</coordinates>
</Point>
</Placemark>
<Placemark>
<name>菅沢</name>
<description></description>
<Point>
<coordinates>139.54641723632812,35.78908920288086,0</coordinates>
</Point>
</Placemark>
<Placemark>
<name>菅沢中央</name>
<description></description>
<Point>
<coordinates>139.55101013183594,35.79213333129883,0</coordinates>
</Point>
</Placemark>
<Placemark>
<name>西堀</name>
<description></description>
<Point>
<coordinates>139.54331970214844,35.77599334716797,0</coordinates>
</Point>
</Placemark>
<Placemark>
<name>西堀小学校</name>
<description></description>
<Point>
<coordinates>139.5407257080078,35.774539947509766,0</coordinates>
</Point>
</Placemark>
<Placemark>
<name>東所沢駅入口</name>
<description></description>
<Point>
<coordinates>139.5142059326172,35.793277740478516,0</coordinates>
</Point>
</Placemark>
<Placemark>
<name>史跡公園</name>
<description></description>
<Point>
<coordinates>139.54946899414062,35.77790069580078,0</coordinates>
</Point>
</Placemark>
<Placemark>
<name>新座市児童センター前</name>
<description></description>
<Point>
<coordinates>139.55899047851562,35.78009796142578,0</coordinates>
</Point>
</Placemark>
<Placemark>
<name>中沢</name>
<description></description>
<Point>
<coordinates>139.56515502929688,35.768978118896484,0</coordinates>
</Point>
</Placemark>
<Placemark>
<name>道場</name>
<description></description>
<Point>
<coordinates>139.5601348876953,35.768672943115234,0</coordinates>
</Point>
</Placemark>
<Placemark>
<name>福祉センター入口</name>
<description></description>
<Point>
<coordinates>139.5612030029297,35.776947021484375,0</coordinates>
</Point>
</Placemark>
<Placemark>
<name>堀の内橋</name>
<description></description>
<Point>
<coordinates>139.5628662109375,35.774513244628906,0</coordinates>
</Point>
</Placemark>
<Placemark>
<name>池田二丁目</name>
<description></description>
<Point>
<coordinates>139.56979370117188,35.773616790771484,0</coordinates>
</Point>
</Placemark>
<Placemark>
<name>膝折団地入口</name>
<description></description>
<Point>
<coordinates>139.5821990966797,35.79336166381836,0</coordinates>
</Point>
</Placemark>
<Placemark>
<name>下片山</name>
<description></description>
<Point>
<coordinates>139.57582092285156,35.79032516479492,0</coordinates>
</Point>
</Placemark>
<Placemark>
<name>新座市役所</name>
<description></description>
<Point>
<coordinates>139.56484985351562,35.79384994506836,0</coordinates>
</Point>
</Placemark>
<Placemark>
<name>陣屋</name>
<description></description>
<Point>
<coordinates>139.56346130371094,35.79159164428711,0</coordinates>
</Point>
</Placemark>
<Placemark>
<name>平林寺</name>
<description></description>
<Point>
<coordinates>139.56202697753906,35.78935623168945,0</coordinates>
</Point>
</Placemark>
<Placemark>
<name>畑中ふれあい遊園</name>
<description></description>
<Point>
<coordinates>139.57444763183594,35.78830337524414,0</coordinates>
</Point>
</Placemark>
<Placemark>
<name>原ヶ谷戸</name>
<description></description>
<Point>
<coordinates>139.57412719726562,35.784080505371094,0</coordinates>
</Point>
</Placemark>
<Placemark>
<name>蓮光寺前</name>
<description></description>
<Point>
<coordinates>139.57261657714844,35.7816047668457,0</coordinates>
</Point>
</Placemark>
<Placemark>
<name>東福寺前</name>
<description></description>
<Point>
<coordinates>139.57565307617188,35.78810501098633,0</coordinates>
</Point>
</Placemark>
<Placemark>
<name>畑中二丁目</name>
<description></description>
<Point>
<coordinates>139.574951171875,35.785736083984375,0</coordinates>
</Point>
</Placemark>
<Placemark>
<name>緑ヶ丘</name>
<description></description>
<Point>
<coordinates>139.5888671875,35.792911529541016,0</coordinates>
</Point>
</Placemark>
<Placemark>
<name>越後山</name>
<description></description>
<Point>
<coordinates>139.60911560058594,35.772430419921875,0</coordinates>
</Point>
</Placemark>
<Placemark>
<name>樹林公園</name>
<description></description>
<Point>
<coordinates>139.6051483154297,35.775020599365234,0</coordinates>
</Point>
</Placemark>
<Placemark>
<name>西大和団地南</name>
<description></description>
<Point>
<coordinates>139.6084747314453,35.777584075927734,0</coordinates>
</Point>
</Placemark>
<Placemark>
<name>広沢</name>
<description></description>
<Point>
<coordinates>139.60922241210938,35.78091812133789,0</coordinates>
</Point>
</Placemark>
<Placemark>
<name>原新田</name>
<description></description>
<Point>
<coordinates>139.6062469482422,35.78472900390625,0</coordinates>
</Point>
</Placemark>
<Placemark>
<name>丸山台</name>
<description></description>
<Point>
<coordinates>139.61416625976562,35.786312103271484,0</coordinates>
</Point>
</Placemark>
<Placemark>
<name>白子坂上</name>
<description></description>
<Point>
<coordinates>139.61949157714844,35.78205108642578,0</coordinates>
</Point>
</Placemark>
<Placemark>
<name>上の原</name>
<description></description>
<Point>
<coordinates>139.59083557128906,35.78915786743164,0</coordinates>
</Point>
</Placemark>
<Placemark>
<name>南栄町</name>
<description></description>
<Point>
<coordinates>139.59754943847656,35.78722381591797,0</coordinates>
</Point>
</Placemark>
<Placemark>
<name>広沢</name>
<description></description>
<Point>
<coordinates>139.61000061035156,35.78053283691406,0</coordinates>
</Point>
</Placemark>
<Placemark>
<name>片山二丁目</name>
<description></description>
<Point>
<coordinates>139.56643676757812,35.7655029296875,0</coordinates>
</Point>
</Placemark>
<Placemark>
<name>栄公民館前（福祉の里）</name>
<description></description>
<Point>
<coordinates>139.58255004882812,35.777889251708984,0</coordinates>
</Point>
</Placemark>
<Placemark>
<name>丸山台</name>
<description></description>
<Point>
<coordinates>139.6148223876953,35.786102294921875,0</coordinates>
</Point>
</Placemark>
<Placemark>
<name>新座中学校</name>
<description></description>
<Point>
<coordinates>139.56024169921875,35.78494644165039,0</coordinates>
</Point>
</Placemark>
<Placemark>
<name>第四中学校入口</name>
<description></description>
<Point>
<coordinates>139.59716796875,35.78879165649414,0</coordinates>
</Point>
</Placemark>
<Placemark>
<name>国際高校入口</name>
<description></description>
<Point>
<coordinates>139.60472106933594,35.77925491333008,0</coordinates>
</Point>
</Placemark>
<Placemark>
<name>朝霞第一中学校</name>
<description></description>
<Point>
<coordinates>139.58953857421875,35.794803619384766,0</coordinates>
</Point>
</Placemark>
<Placemark>
<name>図書館入口</name>
<description></description>
<Point>
<coordinates>139.59715270996094,35.79261016845703,0</coordinates>
</Point>
</Placemark>
<Placemark>
<name>朝霞警察署前</name>
<description></description>
<Point>
<coordinates>139.58786010742188,35.78997802734375,0</coordinates>
</Point>
</Placemark>
<Placemark>
<name>新座高校</name>
<description></description>
<Point>
<coordinates>139.57066345214844,35.778472900390625,0</coordinates>
</Point>
</Placemark>
<Placemark>
<name>膝折坂下</name>
<description></description>
<Point>
<coordinates>139.58457946777344,35.790687561035156,0</coordinates>
</Point>
</Placemark>
<Placemark>
<name>片山小学校</name>
<description></description>
<Point>
<coordinates>139.56488037109375,35.77094268798828,0</coordinates>
</Point>
</Placemark>
<Placemark>
<name>第四小学校入口</name>
<description></description>
<Point>
<coordinates>139.57643127441406,35.77769470214844,0</coordinates>
</Point>
</Placemark>
<Placemark>
<name>和光市南</name>
<description></description>
<Point>
<coordinates>139.60508728027344,35.772422790527344,0</coordinates>
</Point>
</Placemark>
<Placemark>
<name>和光市役所前</name>
<description></description>
<Point>
<coordinates>139.6051788330078,35.780975341796875,0</coordinates>
</Point>
</Placemark>
<Placemark>
<name>榎木ガード</name>
<description></description>
<Point>
<coordinates>139.57598876953125,35.792911529541016,0</coordinates>
</Point>
</Placemark>
<Placemark>
<name>谷戸橋</name>
<description></description>
<Point>
<coordinates>139.61949157714844,35.78611373901367,0</coordinates>
</Point>
</Placemark>
<Placemark>
<name>大和中学校</name>
<description></description>
<Point>
<coordinates>139.6172332763672,35.78492736816406,0</coordinates>
</Point>
</Placemark>
<Placemark>
<name>図書館</name>
<description></description>
<Point>
<coordinates>139.60702514648438,35.78776168823242,0</coordinates>
</Point>
</Placemark>
<Placemark>
<name>北原小学校入口</name>
<description></description>
<Point>
<coordinates>139.60791015625,35.791847229003906,0</coordinates>
</Point>
</Placemark>
<Placemark>
<name>栄町五丁目</name>
<description></description>
<Point>
<coordinates>139.59474182128906,35.78809356689453,0</coordinates>
</Point>
</Placemark>
<Placemark>
<name>野寺小学校東</name>
<description></description>
<Point>
<coordinates>139.55772399902344,35.75989532470703,0</coordinates>
</Point>
</Placemark>
<Placemark>
<name>新倉ロータリー</name>
<description></description>
<Point>
<coordinates>139.61544799804688,35.791282653808594,0</coordinates>
</Point>
</Placemark>
<Placemark>
<name>中央公民館</name>
<description></description>
<Point>
<coordinates>139.6109619140625,35.783912658691406,0</coordinates>
</Point>
</Placemark>
<Placemark>
<name>大和中学校入口</name>
<description></description>
<Point>
<coordinates>139.61781311035156,35.782745361328125,0</coordinates>
</Point>
</Placemark>
<Placemark>
<name>和光陸橋</name>
<description></description>
<Point>
<coordinates>139.61959838867188,35.77643585205078,0</coordinates>
</Point>
</Placemark>
<Placemark>
<name>五小学校入口</name>
<description></description>
<Point>
<coordinates>139.6198272705078,35.772727966308594,0</coordinates>
</Point>
</Placemark>
<Placemark>
<name>第三中学校</name>
<description></description>
<Point>
<coordinates>139.61410522460938,35.77294158935547,0</coordinates>
</Point>
</Placemark>
<Placemark>
<name>ふれあい農園</name>
<description></description>
<Point>
<coordinates>139.60693359375,35.77151870727539,0</coordinates>
</Point>
</Placemark>
<Placemark>
<name>越後山テニスコート場</name>
<description></description>
<Point>
<coordinates>139.60812377929688,35.769508361816406,0</coordinates>
</Point>
</Placemark>
<Placemark>
<name>越後山橋入口</name>
<description></description>
<Point>
<coordinates>139.61204528808594,35.771583557128906,0</coordinates>
</Point>
</Placemark>
<Placemark>
<name>南大和団地</name>
<description></description>
<Point>
<coordinates>139.60812377929688,35.772422790527344,0</coordinates>
</Point>
</Placemark>
<Placemark>
<name>樹林公園</name>
<description></description>
<Point>
<coordinates>139.6054229736328,35.77824783325195,0</coordinates>
</Point>
</Placemark>
<Placemark>
<name>二軒新田</name>
<description></description>
<Point>
<coordinates>139.6021270751953,35.771785736083984,0</coordinates>
</Point>
</Placemark>
<Placemark>
<name>裁判所職員総合研修所</name>
<description></description>
<Point>
<coordinates>139.61024475097656,35.77460861206055,0</coordinates>
</Point>
</Placemark>
<Placemark>
<name>白子折返場</name>
<description></description>
<Point>
<coordinates>139.620849609375,35.767364501953125,0</coordinates>
</Point>
</Placemark>
<Placemark>
<name>末無川</name>
<description></description>
<Point>
<coordinates>139.58236694335938,35.794219970703125,0</coordinates>
</Point>
</Placemark>
<Placemark>
<name>司法研修所入口</name>
<description></description>
<Point>
<coordinates>139.60374450683594,35.77297592163086,0</coordinates>
</Point>
</Placemark>
<Placemark>
<name>本町小学校</name>
<description></description>
<Point>
<coordinates>139.60369873046875,35.78611373901367,0</coordinates>
</Point>
</Placemark>
<Placemark>
<name>税務大学研修所前</name>
<description></description>
<Point>
<coordinates>139.59176635742188,35.78688430786133,0</coordinates>
</Point>
</Placemark>
<Placemark>
<name>自衛隊朝霞門</name>
<description></description>
<Point>
<coordinates>139.60057067871094,35.78536605834961,0</coordinates>
</Point>
</Placemark>
<Placemark>
<name>あけぼの住宅前</name>
<description></description>
<Point>
<coordinates>139.56781005859375,35.772071838378906,0</coordinates>
</Point>
</Placemark>
<Placemark>
<name>南一</name>
<description></description>
<Point>
<coordinates>139.6026611328125,35.771583557128906,0</coordinates>
</Point>
</Placemark>
<Placemark>
<name>税務大学校和光校舎</name>
<description></description>
<Point>
<coordinates>139.60653686523438,35.77623748779297,0</coordinates>
</Point>
</Placemark>
<Placemark>
<name>和田</name>
<description></description>
<Point>
<coordinates>139.51132202148438,35.7978630065918,0</coordinates>
</Point>
</Placemark>
<Placemark>
<name>東所沢一丁目</name>
<description></description>
<Point>
<coordinates>139.51361083984375,35.79783630371094,0</coordinates>
</Point>
</Placemark>
<Placemark>
<name>本郷</name>
<description></description>
<Point>
<coordinates>139.52354431152344,35.79747009277344,0</coordinates>
</Point>
</Placemark>
<Placemark>
<name>東所沢三丁目</name>
<description></description>
<Point>
<coordinates>139.51870727539062,35.79936599731445,0</coordinates>
</Point>
</Placemark>
<Placemark>
<name>所沢車検場前</name>
<description></description>
<Point>
<coordinates>139.4977569580078,35.799713134765625,0</coordinates>
</Point>
</Placemark>
<Placemark>
<name>新日比田橋</name>
<description></description>
<Point>
<coordinates>139.51016235351562,35.799560546875,0</coordinates>
</Point>
</Placemark>
<Placemark>
<name>柳瀬小学校前</name>
<description></description>
<Point>
<coordinates>139.5218505859375,35.80562210083008,0</coordinates>
</Point>
</Placemark>
<Placemark>
<name>エステシティ中央</name>
<description></description>
<Point>
<coordinates>139.49827575683594,35.81215286254883,0</coordinates>
</Point>
</Placemark>
<Placemark>
<name>やなせ荘入口</name>
<description></description>
<Point>
<coordinates>139.521240234375,35.81087112426758,0</coordinates>
</Point>
</Placemark>
<Placemark>
<name>エステシティ所沢</name>
<description></description>
<Point>
<coordinates>139.50230407714844,35.814056396484375,0</coordinates>
</Point>
</Placemark>
<Placemark>
<name>南永井</name>
<description></description>
<Point>
<coordinates>139.50930786132812,35.81545639038086,0</coordinates>
</Point>
</Placemark>
<Placemark>
<name>八幡神社前</name>
<description></description>
<Point>
<coordinates>139.51425170898438,35.81709289550781,0</coordinates>
</Point>
</Placemark>
<Placemark>
<name>窪野</name>
<description></description>
<Point>
<coordinates>139.5198211669922,35.815956115722656,0</coordinates>
</Point>
</Placemark>
<Placemark>
<name>中西</name>
<description></description>
<Point>
<coordinates>139.50010681152344,35.82442855834961,0</coordinates>
</Point>
</Placemark>
<Placemark>
<name>上富</name>
<description></description>
<Point>
<coordinates>139.50579833984375,35.827674865722656,0</coordinates>
</Point>
</Placemark>
<Placemark>
<name>下組</name>
<description></description>
<Point>
<coordinates>139.50875854492188,35.824615478515625,0</coordinates>
</Point>
</Placemark>
<Placemark>
<name>三芳中学校</name>
<description></description>
<Point>
<coordinates>139.5147705078125,35.829071044921875,0</coordinates>
</Point>
</Placemark>
<Placemark>
<name>三芳合金前</name>
<description></description>
<Point>
<coordinates>139.51812744140625,35.826080322265625,0</coordinates>
</Point>
</Placemark>
<Placemark>
<name>三芳小学校</name>
<description></description>
<Point>
<coordinates>139.51907348632812,35.83079147338867,0</coordinates>
</Point>
</Placemark>
<Placemark>
<name>オリエンタル酵母工業前</name>
<description></description>
<Point>
<coordinates>139.55526733398438,35.7971076965332,0</coordinates>
</Point>
</Placemark>
<Placemark>
<name>城</name>
<description></description>
<Point>
<coordinates>139.52955627441406,35.80158233642578,0</coordinates>
</Point>
</Placemark>
<Placemark>
<name>坂の下上</name>
<description></description>
<Point>
<coordinates>139.53582763671875,35.805755615234375,0</coordinates>
</Point>
</Placemark>